$IIMWV,199,R,18.6,N,A*1D
$IIMWV,195,T,24.3,N,A*1D
$IIRMC,083453,A,5428.811,N,01234.275,E,05.7,066,020821,03,E,A*0A
$IIGLL,5428.811,N,01234.277,E,083454,A,A*5B
$IIMWV,196,R,18.0,N,A*14
$IIMWV,195,T,24.0,N,A*1E
$IIRMC,083454,A,5428.811,N,01234.277,E,05.6,070,020821,03,E,A*09
$IIGLL,5428.812,N,01234.280,E,083455,A,A*51
$IIMWV,196,R,17.4,N,A*1F
$IIMWV,192,T,23.3,N,A*1D
$IIRMC,083455,A,5428.812,N,01234.280,E,05.4,070,020821,03,E,A*01
$IIGLL,5428.812,N,01234.282,E,083456,A,A*50
$IIMWV,197,R,17.1,N,A*1B
$IIMWV,192,T,22.6,N,A*19
$IIRMC,083456,A,5428.812,N,01234.282,E,05.4,072,020821,03,E,A*02
$IIGLL,5428.812,N,01234.285,E,083457,A,A*56
$IIMWV,202,R,17.2,N,A*17
$IIMWV,193,T,22.3,N,A*1D
$IIRMC,083457,A,5428.812,N,01234.285,E,05.5,073,020821,03,E,A*04
$IIGLL,5428.813,N,01234.288,E,083458,A,A*55
$IIMWV,202,R,17.0,N,A*15
$IIMWV,196,T,22.3,N,A*18
$IIRMC,083458,A,5428.813,N,01234.288,E,05.6,073,020821,03,E,A*04
$IIGLL,5428.813,N,01234.290,E,083459,A,A*5D
$IIMWV,200,R,16.2,N,A*14
$IIMWV,196,T,22.2,N,A*19
$IIRMC,083459,A,5428.813,N,01234.290,E,05.7,073,020821,03,E,A*0D
$IIGLL,5428.814,N,01234.293,E,083500,A,A*54
$IIMWV,197,R,15.4,N,A*1C
$IIMWV,195,T,21.6,N,A*1D
$IIRMC,083500,A,5428.814,N,01234.293,E,05.7,074,020821,03,E,A*03
$IIGLL,5428.814,N,01234.296,E,083501,A,A*50
$IIMWV,197,R,15.1,N,A*19
$IIMWV,192,T,20.8,N,A*15
$IIRMC,083501,A,5428.814,N,01234.296,E,05.6,075,020821,03,E,A*07
$IIGLL,5428.814,N,01234.298,E,083502,A,A*5D
$IIMWV,196,R,14.3,N,A*1B
$IIMWV,192,T,20.4,N,A*19
$IIRMC,083502,A,5428.814,N,01234.298,E,05.5,077,020821,03,E,A*0B
$IIGLL,5428.815,N,01234.300,E,083503,A,A*5D
$IIMWV,198,R,14.2,N,A*14
$IIMWV,192,T,19.6,N,A*11
$IIRMC,083503,A,5428.815,N,01234.300,E,05.4,078,020821,03,E,A*05
$IIGLL,5428.815,N,01234.303,E,083504,A,A*59
$IIMWV,200,R,14.3,N,A*17
$IIMWV,193,T,19.3,N,A*15
$IIRMC,083504,A,5428.815,N,01234.303,E,05.5,077,020821,03,E,A*0F
$IIGLL,5428.816,N,01234.306,E,083505,A,A*5E
$IIMWV,202,R,14.7,N,A*11
$IIMWV,194,T,19.5,N,A*14
$IIRMC,083505,A,5428.816,N,01234.306,E,05.5,075,020821,03,E,A*0A
$IIGLL,5428.816,N,01234.308,E,083506,A,A*53
$IIMWV,203,R,14.9,N,A*1E
$IIMWV,196,T,19.8,N,A*1B
$IIRMC,083506,A,5428.816,N,01234.308,E,05.4,073,020821,03,E,A*00
$IIGLL,5428.817,N,01234.310,E,083507,A,A*5A
$IIMWV,201,R,14.8,N,A*1D
$IIMWV,197,T,19.9,N,A*1B
$IIRMC,083507,A,5428.817,N,01234.310,E,05.2,073,020821,03,E,A*0F
$IIGLL,5428.817,N,01234.313,E,083508,A,A*56
$IIMWV,203,R,14.6,N,A*11
$IIMWV,196,T,19.6,N,A*15
$IIRMC,083508,A,5428.817,N,01234.313,E,05.2,073,020821,03,E,A*03
$IIGLL,5428.817,N,01234.315,E,083509,A,A*51
$IIMWV,205,R,14.9,N,A*18
$IIMWV,197,T,19.3,N,A*11
$IIRMC,083509,A,5428.817,N,01234.315,E,05.1,072,020821,03,E,A*06
$IIGLL,5428.818,N,01234.317,E,083510,A,A*54
$IIMWV,205,R,15.1,N,A*11
$IIMWV,198,T,19.6,N,A*1B
$IIRMC,083510,A,5428.818,N,01234.317,E,05.1,072,020821,03,E,A*03
$IIGLL,5428.818,N,01234.320,E,083511,A,A*51
$IIMWV,204,R,14.9,N,A*19
$IIMWV,199,T,19.8,N,A*14
$IIRMC,083511,A,5428.818,N,01234.320,E,05.1,072,020821,03,E,A*06
$IIGLL,5428.819,N,01234.322,E,083512,A,A*51
$IIMWV,204,R,14.7,N,A*17
$IIMWV,198,T,19.5,N,A*18
$IIRMC,083512,A,5428.819,N,01234.322,E,05.5,073,020821,03,E,A*03
$IIGLL,5428.820,N,01234.324,E,083513,A,A*5C
$IIMWV,204,R,14.7,N,A*17
$IIMWV,198,T,19.7,N,A*1A
$IIRMC,083513,A,5428.820,N,01234.324,E,05.6,072,020821,03,E,A*0C
$IIGLL,5428.820,N,01234.326,E,083514,A,A*59
$IIMWV,203,R,14.4,N,A*13
$IIMWV,197,T,19.8,N,A*1A
$IIRMC,083514,A,5428.820,N,01234.326,E,05.5,073,020821,03,E,A*0B
$IIGLL,5428.820,N,01234.329,E,083515,A,A*57
$IIMWV,202,R,14.5,N,A*13
$IIMWV,197,T,19.4,N,A*16
$IIRMC,083515,A,5428.820,N,01234.329,E,05.4,074,020821,03,E,A*03
$IIGLL,5428.820,N,01234.331,E,083516,A,A*5D
$IIMWV,204,R,15.5,N,A*14
$IIMWV,196,T,19.5,N,A*16
$IIRMC,083516,A,5428.820,N,01234.331,E,05.4,075,020821,03,E,A*08
$IIGLL,5428.821,N,01234.334,E,083517,A,A*58
$IIMWV,204,R,16.2,N,A*10
$IIMWV,198,T,20.4,N,A*13
$IIRMC,083517,A,5428.821,N,01234.334,E,05.5,075,020821,03,E,A*0C
$IIGLL,5428.821,N,01234.336,E,083518,A,A*55
$IIMWV,201,R,16.2,N,A*15
$IIMWV,198,T,21.2,N,A*14
$IIRMC,083518,A,5428.821,N,01234.336,E,05.5,075,020821,03,E,A*01
$IIGLL,5428.822,N,01234.339,E,083519,A,A*58
$IIMWV,202,R,16.3,N,A*17
$IIMWV,196,T,21.3,N,A*1B
$IIRMC,083519,A,5428.822,N,01234.339,E,05.4,075,020821,03,E,A*0D
$IIGLL,5428.822,N,01234.341,E,083520,A,A*5D
$IIMWV,204,R,16.6,N,A*14
$IIMWV,196,T,21.2,N,A*1A
$IIRMC,083520,A,5428.822,N,01234.341,E,05.3,075,020821,03,E,A*0F
$IIGLL,5428.823,N,01234.344,E,083521,A,A*58
$IIMWV,205,R,16.9,N,A*1A
$IIMWV,198,T,21.5,N,A*13
$IIRMC,083521,A,5428.823,N,01234.344,E,05.3,075,020821,03,E,A*0A
$IIGLL,5428.823,N,01234.346,E,083522,A,A*59
$IIMWV,206,R,17.2,N,A*13
$IIMWV,199,T,21.6,N,A*11
$IIRMC,083522,A,5428.823,N,01234.346,E,05.2,075,020821,03,E,A*0A
$IIGLL,5428.823,N,01234.348,E,083523,A,A*56
$IIMWV,205,R,17.5,N,A*17
$IIMWV,200,T,21.9,N,A*1D
$IIRMC,083523,A,5428.823,N,01234.348,E,05.2,075,020821,03,E,A*05
$IIGLL,5428.824,N,01234.351,E,083524,A,A*5E
$IIMWV,203,R,17.4,N,A*10
$IIMWV,199,T,22.3,N,A*17
$IIRMC,083524,A,5428.824,N,01234.351,E,05.2,075,020821,03,E,A*0D
$IIGLL,5428.824,N,01234.353,E,083525,A,A*5D
$IIMWV,202,R,17.3,N,A*16
$IIMWV,197,T,22.2,N,A*18
$IIRMC,083525,A,5428.824,N,01234.353,E,05.2,075,020821,03,E,A*0E
$IIGLL,5428.824,N,01234.356,E,083526,A,A*5B
$IIMWV,199,R,17.1,N,A*15
$IIMWV,197,T,22.1,N,A*1B
$IIRMC,083526,A,5428.824,N,01234.356,E,05.2,075,020821,03,E,A*08
$IIGLL,5428.825,N,01234.359,E,083527,A,A*54
$IIMWV,201,R,17.2,N,A*14
$IIMWV,195,T,22.1,N,A*19
$IIRMC,083527,A,5428.825,N,01234.359,E,05.5,075,020821,03,E,A*00
$IIGLL,5428.825,N,01234.361,E,083528,A,A*50
$IIMWV,201,R,17.4,N,A*12
$IIMWV,196,T,22.2,N,A*19
$IIRMC,083528,A,5428.825,N,01234.361,E,05.6,075,020821,03,E,A*07
$IIGLL,5428.826,N,01234.364,E,083529,A,A*57
$IIMWV,200,R,17.0,N,A*17
$IIMWV,196,T,22.6,N,A*1D
$IIRMC,083529,A,5428.826,N,01234.364,E,05.7,075,020821,03,E,A*01
$IIGLL,5428.825,N,01234.367,E,083530,A,A*5F
$IIMWV,203,R,17.2,N,A*16
$IIMWV,195,T,22.3,N,A*1B
$IIRMC,083530,A,5428.825,N,01234.367,E,05.6,074,020821,03,E,A*09
$IIGLL,5428.825,N,01234.367,E,083530,A,A*5F
$IIMWV,203,R,17.5,N,A*11
$IIMWV,197,T,22.4,N,A*1E
$IIRMC,083530,A,5428.825,N,01234.367,E,05.6,074,020821,03,E,A*09
$IIGLL,5428.826,N,01234.372,E,083532,A,A*5A
$IIMWV,203,R,17.8,N,A*1C
$IIMWV,197,T,22.7,N,A*1D
$IIRMC,083532,A,5428.826,N,01234.372,E,05.8,071,020821,03,E,A*07
$IIGLL,5428.827,N,01234.375,E,083533,A,A*5D
$IIMWV,202,R,18.0,N,A*1A
$IIMWV,197,T,23.1,N,A*1A
$IIRMC,083533,A,5428.827,N,01234.375,E,05.7,070,020821,03,E,A*0E
$IIGLL,5428.828,N,01234.378,E,083534,A,A*58
$IIMWV,200,R,17.5,N,A*12
$IIMWV,196,T,23.3,N,A*19
$IIRMC,083534,A,5428.828,N,01234.378,E,05.7,068,020821,03,E,A*02
$IIGLL,5428.829,N,01234.380,E,083535,A,A*5F
$IIMWV,200,R,17.8,N,A*1F
$IIMWV,195,T,22.9,N,A*11
$IIRMC,083536,A,5428.829,N,01234.383,E,05.7,071,020821,03,E,A*0D
$IIGLL,5428.829,N,01234.383,E,083536,A,A*5F
$IIMWV,197,R,17.7,N,A*1D
$IIMWV,195,T,23.2,N,A*1B
$IIRMC,083537,A,5428.829,N,01234.386,E,05.8,073,020821,03,E,A*04
$IIGLL,5428.829,N,01234.386,E,083537,A,A*5B
$IIMWV,196,R,18.0,N,A*14
$IIMWV,193,T,23.1,N,A*1E
$IIRMC,083538,A,5428.830,N,01234.387,E,05.9,075,020821,03,E,A*05
$IIGLL,5428.830,N,01234.387,E,083538,A,A*5D
$IIMWV,197,R,18.5,N,A*10
$IIMWV,192,T,23.5,N,A*1B
$IIRMC,083539,A,5428.830,N,01234.390,E,05.9,076,020821,03,E,A*01
$IIGLL,5428.830,N,01234.390,E,083539,A,A*5A
$IIMWV,199,R,19.1,N,A*1B
$IIMWV,193,T,24.1,N,A*19
$IIRMC,083540,A,5428.830,N,01234.394,E,06.1,074,020821,03,E,A*02
$IIGLL,5428.830,N,01234.394,E,083540,A,A*50
$IIMWV,199,R,19.4,N,A*1E
$IIMWV,195,T,24.8,N,A*16
$IIRMC,083541,A,5428.831,N,01234.396,E,06.0,069,020821,03,E,A*0D
$IIGLL,5428.831,N,01234.396,E,083541,A,A*52
$IIMWV,196,R,19.3,N,A*16
$IIMWV,195,T,25.3,N,A*1C
$IIRMC,083542,A,5428.832,N,01234.399,E,06.0,066,020821,03,E,A*0D
$IIGLL,5428.832,N,01234.399,E,083542,A,A*5D
$IIMWV,197,R,18.8,N,A*1D
$IIMWV,192,T,25.0,N,A*18
$IIRMC,083543,A,5428.833,N,01234.402,E,06.0,065,020821,03,E,A*0B
$IIGLL,5428.833,N,01234.402,E,083543,A,A*58
$IIMWV,200,R,18.8,N,A*10
$IIMWV,193,T,24.6,N,A*1E
$IIRMC,083544,A,5428.833,N,01234.406,E,06.0,068,020821,03,E,A*05
$IIGLL,5428.833,N,01234.406,E,083544,A,A*5B
$IIMWV,199,R,18.5,N,A*1E
$IIMWV,195,T,24.4,N,A*1A
$IIRMC,083544,A,5428.833,N,01234.406,E,06.0,068,020821,03,E,A*05
$IIGLL,5428.833,N,01234.406,E,083544,A,A*5B
$IIMWV,198,R,18.2,N,A*18
$IIMWV,195,T,24.2,N,A*1C
$IIRMC,083546,A,5428.834,N,01234.411,E,05.8,067,020821,03,E,A*02
$IIGLL,5428.834,N,01234.411,E,083546,A,A*58
$IIMWV,195,R,17.9,N,A*11
$IIMWV,194,T,23.6,N,A*1E
$IIRMC,083547,A,5428.834,N,01234.414,E,05.8,067,020821,03,E,A*06
$IIGLL,5428.834,N,01234.414,E,083547,A,A*5C
$IIMWV,194,R,17.3,N,A*1A
$IIMWV,191,T,23.5,N,A*18
$IIRMC,083548,A,5428.834,N,01234.416,E,05.4,071,020821,03,E,A*00
$IIGLL,5428.834,N,01234.416,E,083548,A,A*51
$IIMWV,192,R,16.6,N,A*18
$IIMWV,190,T,22.8,N,A*15
$IIRMC,083549,A,5428.835,N,01234.419,E,05.6,071,020821,03,E,A*0D
$IIGLL,5428.835,N,01234.419,E,083549,A,A*5E
$IIMWV,190,R,15.7,N,A*18
$IIMWV,189,T,21.8,N,A*1E
$IIRMC,083550,A,5428.836,N,01234.421,E,05.7,072,020821,03,E,A*0F
$IIGLL,5428.836,N,01234.421,E,083550,A,A*5E
$IIMWV,194,R,15.7,N,A*1C
$IIMWV,187,T,21.0,N,A*18
$IIRMC,083551,A,5428.836,N,01234.424,E,06.3,073,020821,03,E,A*0D
$IIGLL,5428.836,N,01234.424,E,083551,A,A*5A
$IIMWV,199,R,16.4,N,A*11
$IIMWV,190,T,21.2,N,A*1C
$IIRMC,083552,A,5428.836,N,01234.428,E,06.4,069,020821,03,E,A*0E
$IIGLL,5428.836,N,01234.428,E,083552,A,A*55
$IIMWV,199,R,16.3,N,A*16
$IIMWV,194,T,22.4,N,A*1D
$IIRMC,083553,A,5428.837,N,01234.431,E,06.5,068,020821,03,E,A*06
$IIGLL,5428.837,N,01234.431,E,083553,A,A*5D
$IIMWV,196,R,16.1,N,A*1B
$IIMWV,194,T,22.5,N,A*1C
$IIRMC,083554,A,5428.838,N,01234.434,E,06.5,067,020821,03,E,A*04
$IIGLL,5428.838,N,01234.434,E,083554,A,A*50
$IIMWV,197,R,15.8,N,A*10
$IIMWV,192,T,22.3,N,A*1C
$IIRMC,083555,A,5428.838,N,01234.437,E,06.2,071,020821,03,E,A*06
$IIGLL,5428.838,N,01234.437,E,083555,A,A*52
$IIMWV,199,R,16.3,N,A*16
$IIMWV,192,T,22.0,N,A*1F
$IIRMC,083556,A,5428.839,N,01234.439,E,06.2,076,020821,03,E,A*0D
$IIGLL,5428.839,N,01234.439,E,083556,A,A*5E
$IIMWV,198,R,16.8,N,A*1C
$IIMWV,194,T,22.2,N,A*1B
$IIRMC,083557,A,5428.839,N,01234.442,E,06.0,071,020821,03,E,A*05
$IIGLL,5428.839,N,01234.442,E,083557,A,A*53
$IIMWV,195,R,16.5,N,A*1C
$IIMWV,193,T,22.7,N,A*19
$IIRMC,083558,A,5428.840,N,01234.445,E,05.9,069,020821,03,E,A*00
$IIGLL,5428.840,N,01234.445,E,083558,A,A*55
$IIMWV,195,R,16.5,N,A*1C
$IIMWV,191,T,22.2,N,A*1E
$IIRMC,083559,A,5428.840,N,01234.448,E,05.8,067,020821,03,E,A*03
$IIGLL,5428.840,N,01234.448,E,083559,A,A*59
$IIMWV,197,R,16.8,N,A*13
$IIMWV,191,T,22.2,N,A*1E
$IIRMC,083600,A,5428.841,N,01234.450,E,05.8,067,020821,03,E,A*04
$IIGLL,5428.841,N,01234.450,E,083600,A,A*5E
$IIMWV,198,R,17.1,N,A*14
$IIMWV,192,T,22.4,N,A*1B
$IIRMC,083601,A,5428.842,N,01234.452,E,05.5,069,020821,03,E,A*07
$IIGLL,5428.842,N,01234.452,E,083601,A,A*5E
$IIMWV,195,R,16.8,N,A*11
$IIMWV,194,T,22.6,N,A*1F
$IIRMC,083602,A,5428.842,N,01234.455,E,05.4,071,020821,03,E,A*0B
$IIGLL,5428.842,N,01234.455,E,083602,A,A*5A
$IIMWV,196,R,16.2,N,A*18
$IIMWV,191,T,22.1,N,A*1D
$IIRMC,083603,A,5428.843,N,01234.457,E,05.3,072,020821,03,E,A*0D
$IIGLL,5428.843,N,01234.457,E,083603,A,A*58
$IIMWV,199,R,16.3,N,A*16
$IIMWV,192,T,21.3,N,A*1F
$IIRMC,083604,A,5428.844,N,01234.460,E,05.5,073,020821,03,E,A*0E
$IIGLL,5428.844,N,01234.460,E,083604,A,A*5C
$IIMWV,200,R,16.4,N,A*12
$IIMWV,195,T,21.3,N,A*18
$IIRMC,083605,A,5428.845,N,01234.462,E,05.8,070,020821,03,E,A*02
$IIGLL,5428.845,N,01234.462,E,083605,A,A*5E
$IIMWV,199,R,16.2,N,A*17
$IIMWV,195,T,21.6,N,A*1D
$IIRMC,083606,A,5428.846,N,01234.465,E,06.1,070,020821,03,E,A*0F
$IIGLL,5428.846,N,01234.465,E,083606,A,A*59
$IIMWV,201,R,15.9,N,A*1D
$IIMWV,194,T,21.7,N,A*1D
$IIRMC,083607,A,5428.846,N,01234.468,E,06.4,071,020821,03,E,A*07
$IIGLL,5428.846,N,01234.468,E,083607,A,A*55
$IIMWV,201,R,15.9,N,A*1D
$IIMWV,195,T,21.5,N,A*1E
$IIRMC,083608,A,5428.847,N,01234.471,E,06.6,071,020821,03,E,A*03
$IIGLL,5428.847,N,01234.471,E,083608,A,A*53
$IIMWV,200,R,15.5,N,A*10
$IIMWV,195,T,22.0,N,A*18
$IIRMC,083609,A,5428.848,N,01234.474,E,06.7,072,020821,03,E,A*0A
$IIGLL,5428.848,N,01234.474,E,083609,A,A*58
$IIMWV,200,R,15.2,N,A*17
$IIMWV,194,T,21.8,N,A*12
$IIRMC,083610,A,5428.848,N,01234.477,E,06.7,072,020821,03,E,A*01
$IIGLL,5428.848,N,01234.477,E,083610,A,A*53
$IIMWV,199,R,15.3,N,A*15
$IIMWV,194,T,21.5,N,A*1F
$IIRMC,083611,A,5428.849,N,01234.480,E,06.8,072,020821,03,E,A*06
$IIGLL,5428.849,N,01234.480,E,083611,A,A*5B
$IIMWV,196,R,15.4,N,A*1D
$IIMWV,193,T,21.8,N,A*15
$IIRMC,083612,A,5428.849,N,01234.482,E,05.6,074,020821,03,E,A*0C
$IIGLL,5428.849,N,01234.482,E,083612,A,A*5A
$IIMWV,197,R,15.0,N,A*18
$IIMWV,191,T,21.9,N,A*16
$IIRMC,083613,A,5428.849,N,01234.485,E,05.3,075,020821,03,E,A*0E
$IIGLL,5428.849,N,01234.485,E,083613,A,A*5C
$IIMWV,198,R,14.9,N,A*1F
$IIMWV,192,T,20.4,N,A*19
$IIRMC,083614,A,5428.849,N,01234.487,E,05.4,075,020821,03,E,A*0C
$IIGLL,5428.849,N,01234.487,E,083614,A,A*59
$IIMWV,199,R,15.5,N,A*13
$IIMWV,193,T,19.9,N,A*1F
$IIRMC,083615,A,5428.849,N,01234.489,E,05.5,070,020821,03,E,A*07
$IIGLL,5428.849,N,01234.489,E,083615,A,A*56
$IIMWV,200,R,16.4,N,A*12
$IIMWV,194,T,20.7,N,A*1C
$IIRMC,083616,A,5428.850,N,01234.492,E,05.6,068,020821,03,E,A*0C
$IIGLL,5428.850,N,01234.492,E,083616,A,A*57
$IIMWV,202,R,17.1,N,A*14
$IIMWV,195,T,21.6,N,A*1D
$IIRMC,083617,A,5428.851,N,01234.494,E,05.5,068,020821,03,E,A*09
$IIGLL,5428.851,N,01234.494,E,083617,A,A*51
$IIMWV,200,R,17.5,N,A*12
$IIMWV,196,T,22.4,N,A*1F
$IIRMC,083618,A,5428.851,N,01234.496,E,05.4,068,020821,03,E,A*05
$IIGLL,5428.851,N,01234.496,E,083618,A,A*5C
$IIMWV,196,R,18.1,N,A*15
$IIMWV,195,T,22.5,N,A*1D
$IIRMC,083619,A,5428.851,N,01234.499,E,05.3,072,020821,03,E,A*07
$IIGLL,5428.851,N,01234.499,E,083619,A,A*52
$IIMWV,197,R,18.4,N,A*11
$IIMWV,192,T,23.2,N,A*1C
$IIRMC,083620,A,5428.851,N,01234.501,E,05.6,080,020821,03,E,A*05
$IIGLL,5428.851,N,01234.501,E,083620,A,A*58
$IIMWV,198,R,19.1,N,A*1A
$IIMWV,193,T,23.5,N,A*1A
$IIRMC,083621,A,5428.851,N,01234.504,E,05.7,083,020821,03,E,A*03
$IIGLL,5428.851,N,01234.504,E,083621,A,A*5C
$IIMWV,195,R,18.9,N,A*1E
$IIMWV,194,T,24.5,N,A*1A
$IIRMC,083622,A,5428.852,N,01234.507,E,05.5,076,020821,03,E,A*08
$IIGLL,5428.852,N,01234.507,E,083622,A,A*5F
$IIMWV,191,R,18.4,N,A*17
$IIMWV,192,T,24.4,N,A*1D
$IIRMC,083623,A,5428.852,N,01234.509,E,05.7,075,020821,03,E,A*06
$IIGLL,5428.852,N,01234.509,E,083623,A,A*50
$IIMWV,193,R,18.1,N,A*10
$IIMWV,188,T,23.7,N,A*12
$IIRMC,083624,A,5428.852,N,01234.512,E,05.9,074,020821,03,E,A*04
$IIGLL,5428.852,N,01234.512,E,083624,A,A*5D
$IIMWV,192,R,17.5,N,A*1A
$IIMWV,189,T,23.5,N,A*11
$IIRMC,083625,A,5428.853,N,01234.515,E,06.0,070,020821,03,E,A*0D
$IIGLL,5428.853,N,01234.515,E,083625,A,A*5A
$IIMWV,193,R,16.8,N,A*17
$IIMWV,189,T,23.2,N,A*16
$IIRMC,083626,A,5428.854,N,01234.517,E,06.0,073,020821,03,E,A*08
$IIGLL,5428.854,N,01234.517,E,083626,A,A*5C
$IIMWV,196,R,16.8,N,A*12
$IIMWV,189,T,22.4,N,A*11
$IIRMC,083627,A,5428.855,N,01234.519,E,06.0,072,020821,03,E,A*07
$IIGLL,5428.855,N,01234.519,E,083627,A,A*52
$IIMWV,194,R,16.6,N,A*1E
$IIMWV,192,T,22.5,N,A*1A
$IIRMC,083628,A,5428.856,N,01234.522,E,05.8,072,020821,03,E,A*08
$IIGLL,5428.856,N,01234.522,E,083628,A,A*56
$IIMWV,196,R,16.8,N,A*12
$IIMWV,190,T,22.4,N,A*19
$IIRMC,083629,A,5428.856,N,01234.524,E,05.8,072,020821,03,E,A*0F
$IIGLL,5428.856,N,01234.524,E,083629,A,A*51
$IIMWV,198,R,17.0,N,A*15
$IIMWV,192,T,22.3,N,A*1C
$IIRMC,083630,A,5428.857,N,01234.527,E,05.6,070,020821,03,E,A*09
$IIGLL,5428.857,N,01234.527,E,083630,A,A*5B
$IIMWV,199,R,17.1,N,A*15
$IIMWV,193,T,22.5,N,A*1B
$IIRMC,083631,A,5428.857,N,01234.529,E,05.6,071,020821,03,E,A*07
$IIGLL,5428.857,N,01234.529,E,083631,A,A*54
$IIMWV,199,R,17.2,N,A*16
$IIMWV,195,T,22.5,N,A*1D
$IIRMC,083632,A,5428.858,N,01234.532,E,05.6,070,020821,03,E,A*00
$IIGLL,5428.858,N,01234.532,E,083632,A,A*52
$IIMWV,202,R,16.9,N,A*1D
$IIMWV,194,T,22.6,N,A*1F
$IIRMC,083633,A,5428.858,N,01234.534,E,05.7,069,020821,03,E,A*0E
$IIGLL,5428.858,N,01234.534,E,083633,A,A*55
$IIMWV,203,R,16.7,N,A*12
$IIMWV,196,T,22.1,N,A*1A
$IIRMC,083634,A,5428.859,N,01234.537,E,06.0,069,020821,03,E,A*0F
$IIGLL,5428.859,N,01234.537,E,083634,A,A*50
$IIMWV,204,R,16.7,N,A*15
$IIMWV,197,T,21.9,N,A*10
$IIRMC,083635,A,5428.859,N,01234.540,E,06.2,068,020821,03,E,A*0D
$IIGLL,5428.859,N,01234.540,E,083635,A,A*51
$IIMWV,204,R,16.9,N,A*1B
$IIMWV,198,T,22.3,N,A*16
$IIRMC,083635,A,5428.859,N,01234.540,E,06.2,068,020821,03,E,A*0D
$IIGLL,5428.861,N,01234.547,E,083638,A,A*50
$IIMWV,193,R,16.1,N,A*1E
$IIMWV,195,T,21.2,N,A*19
$IIRMC,083638,A,5428.861,N,01234.547,E,05.4,071,020821,03,E,A*01
$IIGLL,5428.861,N,01234.550,E,083639,A,A*57
$IIMWV,196,R,15.6,N,A*1F
$IIMWV,189,T,21.2,N,A*14
$IIRMC,083639,A,5428.861,N,01234.550,E,05.4,076,020821,03,E,A*01
$IIGLL,5428.861,N,01234.552,E,083640,A,A*5B
$IIMWV,202,R,16.5,N,A*11
$IIMWV,192,T,20.7,N,A*1A
$IIRMC,083640,A,5428.861,N,01234.552,E,05.7,077,020821,03,E,A*0F
$IIGLL,5428.862,N,01234.554,E,083641,A,A*5F
$IIMWV,201,R,16.2,N,A*15
$IIMWV,196,T,21.8,N,A*10
$IIRMC,083641,A,5428.862,N,01234.554,E,05.7,073,020821,03,E,A*0F
$IIGLL,5428.862,N,01234.557,E,083642,A,A*5F
$IIMWV,197,R,15.3,N,A*1B
$IIMWV,196,T,21.4,N,A*1C
$IIRMC,083642,A,5428.862,N,01234.557,E,05.4,063,020821,03,E,A*0D
$IIGLL,5428.863,N,01234.559,E,083643,A,A*51
$IIMWV,197,R,14.8,N,A*11
$IIMWV,192,T,20.4,N,A*19
$IIRMC,083643,A,5428.863,N,01234.559,E,05.4,057,020821,03,E,A*04
$IIGLL,5428.863,N,01234.561,E,083644,A,A*5D
$IIMWV,200,R,15.4,N,A*11
$IIMWV,192,T,20.0,N,A*1D
$IIRMC,083644,A,5428.863,N,01234.561,E,05.4,064,020821,03,E,A*08
$IIGLL,5428.863,N,01234.561,E,083644,A,A*5D
$IIMWV,200,R,15.7,N,A*12
$IIMWV,195,T,20.4,N,A*1E
$IIRMC,083644,A,5428.863,N,01234.561,E,05.4,064,020821,03,E,A*08
$IIGLL,5428.864,N,01234.566,E,083646,A,A*5F
$IIMWV,198,R,15.4,N,A*13
$IIMWV,195,T,20.7,N,A*1D
$IIRMC,083646,A,5428.864,N,01234.566,E,06.0,067,020821,03,E,A*0E
$IIGLL,5428.865,N,01234.569,E,083647,A,A*50
$IIMWV,195,R,15.1,N,A*1B
$IIMWV,193,T,21.1,N,A*1C
$IIRMC,083647,A,5428.865,N,01234.569,E,06.2,070,020821,03,E,A*05
$IIGLL,5428.866,N,01234.572,E,083648,A,A*56
$IIMWV,192,R,16.0,N,A*1E
$IIMWV,191,T,21.1,N,A*1E
$IIRMC,083649,A,5428.866,N,01234.575,E,06.3,071,020821,03,E,A*05
$IIGLL,5428.866,N,01234.575,E,083649,A,A*50
$IIMWV,191,R,16.5,N,A*18
$IIMWV,189,T,22.1,N,A*14
$IIRMC,083650,A,5428.867,N,01234.577,E,05.7,075,020821,03,E,A*0D
$IIGLL,5428.867,N,01234.577,E,083650,A,A*5B
$IIMWV,189,R,16.7,N,A*13
$IIMWV,188,T,22.6,N,A*12
$IIRMC,083651,A,5428.867,N,01234.580,E,05.3,075,020821,03,E,A*00
$IIGLL,5428.867,N,01234.580,E,083651,A,A*52
$IIMWV,189,R,16.5,N,A*11
$IIMWV,187,T,22.3,N,A*18
$IIRMC,083652,A,5428.868,N,01234.582,E,05.4,073,020821,03,E,A*0F
$IIGLL,5428.868,N,01234.582,E,083652,A,A*5C
$IIMWV,187,R,16.9,N,A*13
$IIMWV,187,T,21.7,N,A*1F
$IIRMC,083653,A,5428.868,N,01234.585,E,05.8,074,020821,03,E,A*02
$IIGLL,5428.868,N,01234.585,E,083653,A,A*5A
$IIMWV,187,R,16.9,N,A*13
$IIMWV,185,T,22.1,N,A*18
$IIRMC,083654,A,5428.869,N,01234.587,E,06.3,074,020821,03,E,A*0E
$IIGLL,5428.869,N,01234.587,E,083654,A,A*5E
$IIMWV,189,R,16.7,N,A*13
$IIMWV,185,T,22.5,N,A*1C
$IIRMC,083655,A,5428.870,N,01234.590,E,06.3,071,020821,03,E,A*04
$IIGLL,5428.870,N,01234.590,E,083655,A,A*51
$IIMWV,187,R,16.7,N,A*1D
$IIMWV,186,T,22.9,N,A*13
$IIRMC,083656,A,5428.870,N,01234.593,E,06.3,070,020821,03,E,A*05
$IIGLL,5428.870,N,01234.593,E,083656,A,A*51
$IIMWV,186,R,17.2,N,A*18
$IIMWV,185,T,22.8,N,A*11
$IIRMC,083657,A,5428.871,N,01234.596,E,05.9,072,020821,03,E,A*0B
$IIGLL,5428.871,N,01234.596,E,083657,A,A*54
$IIMWV,187,R,17.1,N,A*1A
$IIMWV,184,T,23.3,N,A*1A
$IIRMC,083658,A,5428.871,N,01234.598,E,05.5,074,020821,03,E,A*00
$IIGLL,5428.871,N,01234.598,E,083658,A,A*55
$IIMWV,188,R,16.8,N,A*1D
$IIMWV,185,T,22.8,N,A*11
$IIRMC,083659,A,5428.871,N,01234.600,E,05.3,074,020821,03,E,A*05
$IIGLL,5428.871,N,01234.603,E,083700,A,A*58
$IIMWV,182,R,17.7,N,A*19
$IIMWV,184,T,22.3,N,A*1B
$IIRMC,083700,A,5428.871,N,01234.603,E,05.1,072,020821,03,E,A*0F
$IIGLL,5428.871,N,01234.605,E,083701,A,A*5F
$IIMWV,186,R,17.8,N,A*12
$IIMWV,181,T,22.7,N,A*1A
$IIRMC,083701,A,5428.871,N,01234.605,E,05.0,071,020821,03,E,A*0A
$IIGLL,5428.872,N,01234.608,E,083702,A,A*52
$IIMWV,191,R,18.0,N,A*13
$IIMWV,185,T,22.6,N,A*1F
$IIRMC,083702,A,5428.872,N,01234.608,E,05.0,070,020821,03,E,A*06
$IIGLL,5428.872,N,01234.610,E,083703,A,A*5A
$IIMWV,195,R,18.2,N,A*15
$IIMWV,189,T,22.7,N,A*12
$IIRMC,083703,A,5428.872,N,01234.610,E,04.9,070,020821,03,E,A*06
$IIGLL,5428.872,N,01234.610,E,083703,A,A*5A
$IIMWV,195,R,18.0,N,A*17
$IIMWV,192,T,22.9,N,A*16
$IIRMC,083703,A,5428.872,N,01234.610,E,04.9,070,020821,03,E,A*06
$IIGLL,5428.874,N,01234.615,E,083705,A,A*5F
$IIMWV,196,R,17.4,N,A*1F
$IIMWV,191,T,23.9,N,A*14
$IIRMC,083705,A,5428.874,N,01234.615,E,06.1,061,020821,03,E,A*09
$IIGLL,5428.874,N,01234.618,E,083706,A,A*51
$IIMWV,197,R,17.5,N,A*1F
$IIMWV,192,T,23.2,N,A*1C
$IIRMC,083706,A,5428.874,N,01234.618,E,06.2,064,020821,03,E,A*01
$IIGLL,5428.874,N,01234.621,E,083707,A,A*5A
$IIMWV,196,R,17.3,N,A*18
$IIMWV,192,T,23.5,N,A*1B
$IIRMC,083707,A,5428.874,N,01234.621,E,05.9,065,020821,03,E,A*03
$IIGLL,5428.875,N,01234.624,E,083708,A,A*51
$IIMWV,191,R,16.6,N,A*1B
$IIMWV,192,T,22.9,N,A*16
$IIRMC,083708,A,5428.875,N,01234.624,E,05.8,066,020821,03,E,A*0A
$IIGLL,5428.876,N,01234.626,E,083709,A,A*51
$IIMWV,186,R,17.0,N,A*1A
$IIMWV,188,T,22.2,N,A*16
$IIRMC,083709,A,5428.876,N,01234.626,E,05.8,067,020821,03,E,A*0B
$IIGLL,5428.876,N,01234.629,E,083710,A,A*56
$IIMWV,186,R,16.4,N,A*1F
$IIMWV,185,T,22.6,N,A*1F
$IIRMC,083710,A,5428.876,N,01234.629,E,05.6,073,020821,03,E,A*07
$IIGLL,5428.875,N,01234.632,E,083711,A,A*5E
$IIMWV,189,R,15.5,N,A*12
$IIMWV,184,T,21.8,N,A*13
$IIRMC,083711,A,5428.875,N,01234.632,E,06.0,076,020821,03,E,A*0F
$IIGLL,5428.876,N,01234.635,E,083712,A,A*59
$IIMWV,189,R,15.4,N,A*13
$IIMWV,186,T,21.4,N,A*1D
$IIRMC,083712,A,5428.876,N,01234.635,E,06.2,078,020821,03,E,A*04
$IIGLL,5428.876,N,01234.638,E,083713,A,A*55
$IIMWV,191,R,14.9,N,A*16
$IIMWV,186,T,21.5,N,A*1C
$IIRMC,083713,A,5428.876,N,01234.638,E,06.4,075,020821,03,E,A*03
$IIGLL,5428.876,N,01234.641,E,083714,A,A*5C
$IIMWV,192,R,14.5,N,A*19
$IIMWV,188,T,21.1,N,A*16
$IIRMC,083714,A,5428.876,N,01234.641,E,06.4,076,020821,03,E,A*09
$IIGLL,5428.877,N,01234.644,E,083715,A,A*59
$IIMWV,193,R,14.5,N,A*18
$IIMWV,188,T,20.8,N,A*1E
$IIRMC,083715,A,5428.877,N,01234.644,E,06.3,075,020821,03,E,A*08
$IIGLL,5428.878,N,01234.647,E,083716,A,A*56
$IIMWV,192,R,14.2,N,A*1E
$IIMWV,189,T,20.5,N,A*12
$IIRMC,083716,A,5428.878,N,01234.647,E,05.9,074,020821,03,E,A*0F
$IIGLL,5428.878,N,01234.649,E,083717,A,A*59
$IIMWV,192,R,13.4,N,A*1F
$IIMWV,189,T,19.9,N,A*14
$IIRMC,083717,A,5428.878,N,01234.649,E,05.8,073,020821,03,E,A*06
$IIGLL,5428.878,N,01234.652,E,083718,A,A*5C
$IIMWV,193,R,12.8,N,A*13
$IIMWV,189,T,19.1,N,A*1C
$IIRMC,083718,A,5428.878,N,01234.652,E,05.5,075,020821,03,E,A*08
$IIGLL,5428.878,N,01234.654,E,083719,A,A*5B
$IIMWV,197,R,13.2,N,A*1C
$IIMWV,189,T,18.0,N,A*1C
$IIRMC,083719,A,5428.878,N,01234.654,E,05.4,076,020821,03,E,A*0D
$IIGLL,5428.879,N,01234.657,E,083720,A,A*53
$IIMWV,193,R,13.1,N,A*1B
$IIMWV,192,T,18.2,N,A*14
$IIRMC,083720,A,5428.879,N,01234.657,E,05.3,077,020821,03,E,A*03
$IIGLL,5428.879,N,01234.659,E,083721,A,A*5C
$IIMWV,186,R,13.4,N,A*1A
$IIMWV,189,T,18.2,N,A*1E
$IIRMC,083721,A,5428.879,N,01234.659,E,05.3,077,020821,03,E,A*0C
$IIGLL,5428.879,N,01234.662,E,083722,A,A*57
$IIMWV,180,R,13.9,N,A*11
$IIMWV,184,T,18.5,N,A*14
$IIRMC,083722,A,5428.879,N,01234.662,E,05.3,077,020821,03,E,A*07
$IIGLL,5428.880,N,01234.664,E,083723,A,A*56
$IIMWV,173,R,14.4,N,A*17
$IIMWV,180,T,19.2,N,A*16
$IIRMC,083723,A,5428.880,N,01234.664,E,05.3,077,020821,03,E,A*06
$IIGLL,5428.880,N,01234.667,E,083724,A,A*52
$IIMWV,165,R,15.3,N,A*16
$IIMWV,175,T,19.5,N,A*1B
$IIRMC,083724,A,5428.880,N,01234.667,E,05.2,077,020821,03,E,A*03
$IIGLL,5428.880,N,01234.667,E,083724,A,A*52
$IIMWV,164,R,15.2,N,A*16
$IIMWV,169,T,20.3,N,A*1A
$IIRMC,083724,A,5428.880,N,01234.667,E,05.2,077,020821,03,E,A*03
$IIGLL,5428.880,N,01234.672,E,083726,A,A*54
$IIMWV,161,R,15.0,N,A*11
$IIMWV,168,T,20.1,N,A*19
$IIRMC,083726,A,5428.880,N,01234.672,E,05.0,098,020821,03,E,A*06
$IIGLL,5428.879,N,01234.674,E,083727,A,A*55
$IIMWV,155,R,15.8,N,A*1E
$IIMWV,166,T,19.8,N,A*14
$IIRMC,083727,A,5428.879,N,01234.674,E,05.4,103,020821,03,E,A*00
$IIGLL,5428.879,N,01234.677,E,083728,A,A*59
$IIMWV,147,R,17.1,N,A*16
$IIMWV,161,T,20.7,N,A*16
$IIRMC,083728,A,5428.879,N,01234.677,E,05.7,105,020821,03,E,A*09
$IIGLL,5428.878,N,01234.680,E,083729,A,A*51
$IIMWV,143,R,17.7,N,A*14
$IIMWV,155,T,22.0,N,A*14
$IIRMC,083729,A,5428.878,N,01234.680,E,05.8,111,020821,03,E,A*0B
$IIGLL,5428.877,N,01234.682,E,083730,A,A*54
$IIMWV,144,R,17.1,N,A*15
$IIMWV,152,T,22.5,N,A*16
$IIRMC,083730,A,5428.877,N,01234.682,E,05.6,115,020821,03,E,A*04
$IIGLL,5428.875,N,01234.684,E,083731,A,A*51
$IIMWV,144,R,17.0,N,A*14
$IIMWV,153,T,21.8,N,A*19
$IIRMC,083731,A,5428.875,N,01234.684,E,05.0,114,020821,03,E,A*06
$IIGLL,5428.875,N,01234.686,E,083732,A,A*50
$IIMWV,139,R,17.0,N,A*1E
$IIMWV,152,T,21.2,N,A*12
$IIRMC,083732,A,5428.875,N,01234.686,E,04.9,114,020821,03,E,A*0F
$IIGLL,5428.874,N,01234.688,E,083733,A,A*5E
$IIMWV,141,R,17.5,N,A*14
$IIMWV,147,T,20.8,N,A*1D
$IIRMC,083733,A,5428.874,N,01234.688,E,05.3,114,020821,03,E,A*0A
$IIGLL,5428.873,N,01234.690,E,083734,A,A*57
$IIMWV,142,R,18.4,N,A*19
$IIMWV,150,T,21.8,N,A*1A
$IIRMC,083734,A,5428.873,N,01234.690,E,05.8,115,020821,03,E,A*09
$IIGLL,5428.873,N,01234.693,E,083735,A,A*55
$IIMWV,144,R,19.1,N,A*1B
$IIMWV,151,T,23.2,N,A*13
$IIRMC,083735,A,5428.873,N,01234.693,E,06.2,116,020821,03,E,A*01
$IIGLL,5428.872,N,01234.696,E,083736,A,A*52
$IIMWV,147,R,19.0,N,A*19
$IIMWV,153,T,24.3,N,A*17
$IIRMC,083736,A,5428.872,N,01234.696,E,05.8,113,020821,03,E,A*0A
$IIGLL,5428.871,N,01234.698,E,083737,A,A*5E
$IIMWV,148,R,19.1,N,A*17
$IIMWV,155,T,23.9,N,A*1C
$IIRMC,083737,A,5428.871,N,01234.698,E,05.0,111,020821,03,E,A*0C
$IIGLL,5428.871,N,01234.700,E,083738,A,A*51
$IIMWV,147,R,19.8,N,A*11
$IIMWV,154,T,23.4,N,A*10
$IIRMC,083738,A,5428.871,N,01234.700,E,04.7,109,020821,03,E,A*0C
$IIGLL,5428.870,N,01234.702,E,083739,A,A*53
$IIMWV,145,R,20.5,N,A*14
$IIMWV,153,T,23.6,N,A*15
$IIRMC,083739,A,5428.870,N,01234.702,E,04.5,108,020821,03,E,A*0D
$IIGLL,5428.869,N,01234.704,E,083740,A,A*53
$IIMWV,144,R,20.8,N,A*18
$IIMWV,151,T,24.2,N,A*14
$IIRMC,083740,A,5428.869,N,01234.704,E,05.8,112,020821,03,E,A*0A
$IIGLL,5428.869,N,01234.708,E,083741,A,A*5E
$IIMWV,146,R,19.9,N,A*11
$IIMWV,151,T,25.6,N,A*11
$IIRMC,083741,A,5428.869,N,01234.708,E,06.4,113,020821,03,E,A*09
$IIGLL,5428.868,N,01234.710,E,083742,A,A*55
$IIMWV,144,R,19.7,N,A*1D
$IIMWV,154,T,25.4,N,A*16
$IIRMC,083742,A,5428.868,N,01234.710,E,06.3,112,020821,03,E,A*04
$IIGLL,5428.867,N,01234.712,E,083743,A,A*59
$IIMWV,143,R,20.5,N,A*12
$IIMWV,153,T,25.0,N,A*15
$IIRMC,083743,A,5428.867,N,01234.712,E,06.1,112,020821,03,E,A*0A
$IIGLL,5428.867,N,01234.715,E,083744,A,A*59
$IIMWV,142,R,20.8,N,A*1E
$IIMWV,151,T,25.6,N,A*11
$IIRMC,083744,A,5428.867,N,01234.715,E,05.9,115,020821,03,E,A*06
$IIGLL,5428.866,N,01234.717,E,083745,A,A*5B
$IIMWV,144,R,20.4,N,A*14
$IIMWV,150,T,25.7,N,A*11
$IIRMC,083745,A,5428.866,N,01234.717,E,05.8,117,020821,03,E,A*07
$IIGLL,5428.866,N,01234.720,E,083746,A,A*5C
$IIMWV,145,R,19.6,N,A*1D
$IIMWV,152,T,25.3,N,A*17
$IIRMC,083746,A,5428.866,N,01234.720,E,05.7,114,020821,03,E,A*0C
$IIGLL,5428.865,N,01234.723,E,083747,A,A*5D
$IIMWV,145,R,19.1,N,A*1A
$IIMWV,153,T,24.3,N,A*17
$IIRMC,083747,A,5428.865,N,01234.723,E,05.7,112,020821,03,E,A*0B
$IIGLL,5428.864,N,01234.725,E,083748,A,A*55
$IIMWV,142,R,18.8,N,A*15
$IIMWV,153,T,23.8,N,A*1B
$IIRMC,083748,A,5428.864,N,01234.725,E,05.8,112,020821,03,E,A*0C
$IIGLL,5428.864,N,01234.728,E,083749,A,A*59
$IIMWV,138,R,18.9,N,A*19
$IIMWV,150,T,23.6,N,A*16
$IIRMC,083749,A,5428.864,N,01234.728,E,06.0,113,020821,03,E,A*0A
$IIGLL,5428.864,N,01234.728,E,083749,A,A*59
$IIMWV,134,R,19.0,N,A*1D
$IIMWV,148,T,23.5,N,A*1C
$IIRMC,083749,A,5428.864,N,01234.728,E,06.0,113,020821,03,E,A*0A
$IIGLL,5428.861,N,01234.732,E,083751,A,A*5E
$IIMWV,131,R,19.2,N,A*1A
$IIMWV,145,T,23.4,N,A*10
$IIRMC,083751,A,5428.861,N,01234.732,E,05.9,124,020821,03,E,A*03
$IIGLL,5428.859,N,01234.735,E,083752,A,A*51
$IIMWV,127,R,19.1,N,A*1E
$IIMWV,142,T,23.4,N,A*17
$IIRMC,083752,A,5428.859,N,01234.735,E,05.9,128,020821,03,E,A*00
$IIGLL,5428.858,N,01234.737,E,083753,A,A*53
$IIMWV,126,R,18.8,N,A*17
$IIMWV,139,T,23.0,N,A*1F
$IIRMC,083753,A,5428.858,N,01234.737,E,05.8,131,020821,03,E,A*0B
$IIGLL,5428.858,N,01234.737,E,083753,A,A*53
$IIMWV,125,R,18.2,N,A*1E
$IIMWV,138,T,22.6,N,A*19
$IIRMC,083753,A,5428.858,N,01234.737,E,05.8,131,020821,03,E,A*0B
$IIGLL,5428.855,N,01234.741,E,083755,A,A*59
$IIMWV,122,R,18.4,N,A*1F
$IIMWV,137,T,21.9,N,A*1A
$IIRMC,083755,A,5428.855,N,01234.741,E,05.9,126,020821,03,E,A*06
$IIGLL,5428.854,N,01234.744,E,083756,A,A*5E
$IIMWV,119,R,19.5,N,A*17
$IIMWV,135,T,22.0,N,A*12
$IIRMC,083756,A,5428.854,N,01234.744,E,06.0,128,020821,03,E,A*05
$IIGLL,5428.853,N,01234.746,E,083757,A,A*5A
$IIMWV,117,R,20.5,N,A*13
$IIMWV,132,T,22.7,N,A*12
$IIRMC,083757,A,5428.853,N,01234.746,E,06.0,128,020821,03,E,A*01
$IIGLL,5428.852,N,01234.748,E,083758,A,A*5A
$IIMWV,114,R,20.7,N,A*12
$IIMWV,130,T,23.7,N,A*11
$IIRMC,083758,A,5428.852,N,01234.748,E,05.9,133,020821,03,E,A*01
$IIGLL,5428.851,N,01234.751,E,083759,A,A*50
$IIMWV,112,R,20.3,N,A*10
$IIMWV,127,T,23.6,N,A*16
$IIRMC,083759,A,5428.851,N,01234.751,E,05.7,134,020821,03,E,A*02
$IIGLL,5428.850,N,01234.753,E,083800,A,A*50
$IIMWV,110,R,20.9,N,A*18
$IIMWV,125,T,22.9,N,A*1A
$IIRMC,083800,A,5428.850,N,01234.753,E,05.7,134,020821,03,E,A*02
$IIGLL,5428.849,N,01234.754,E,083801,A,A*5E
$IIMWV,108,R,22.3,N,A*19
$IIMWV,123,T,23.4,N,A*10
$IIRMC,083801,A,5428.849,N,01234.754,E,05.6,134,020821,03,E,A*0D
$IIGLL,5428.848,N,01234.756,E,083802,A,A*5E
$IIMWV,107,R,22.1,N,A*14
$IIMWV,121,T,24.5,N,A*14
$IIRMC,083802,A,5428.848,N,01234.756,E,05.5,141,020821,03,E,A*0C
$IIGLL,5428.847,N,01234.758,E,083803,A,A*5E
$IIMWV,104,R,22.3,N,A*15
$IIMWV,119,T,24.3,N,A*19
$IIRMC,083803,A,5428.847,N,01234.758,E,05.5,139,020821,03,E,A*03
$IIGLL,5428.846,N,01234.759,E,083804,A,A*59
$IIMWV,100,R,22.5,N,A*17
$IIMWV,117,T,24.1,N,A*15
$IIRMC,083804,A,5428.846,N,01234.759,E,05.4,138,020821,03,E,A*04
$IIGLL,5428.845,N,01234.761,E,083805,A,A*50
$IIMWV,096,R,22.9,N,A*15
$IIMWV,113,T,23.8,N,A*1F
$IIRMC,083805,A,5428.845,N,01234.761,E,05.5,137,020821,03,E,A*03
$IIGLL,5428.843,N,01234.763,E,083806,A,A*57
$IIMWV,095,R,23.4,N,A*1A
$IIMWV,109,T,23.8,N,A*14
$IIRMC,083806,A,5428.843,N,01234.763,E,05.4,138,020821,03,E,A*0A
$IIGLL,5428.842,N,01234.765,E,083807,A,A*51
$IIMWV,095,R,23.6,N,A*18
$IIMWV,108,T,24.5,N,A*1F
$IIRMC,083807,A,5428.842,N,01234.765,E,05.0,140,020821,03,E,A*07
$IIGLL,5428.842,N,01234.765,E,083807,A,A*51
$IIMWV,095,R,23.9,N,A*17
$IIMWV,107,T,24.6,N,A*13
$IIRMC,083807,A,5428.842,N,01234.765,E,05.0,140,020821,03,E,A*07
$IIGLL,5428.840,N,01234.767,E,083809,A,A*5F
$IIMWV,094,R,24.0,N,A*18
$IIMWV,107,T,24.9,N,A*1C
$IIRMC,083809,A,5428.840,N,01234.767,E,04.5,145,020821,03,E,A*08
$IIGLL,5428.839,N,01234.768,E,083810,A,A*56
$IIMWV,093,R,23.6,N,A*1E
$IIMWV,104,T,24.7,N,A*11
$IIRMC,083810,A,5428.839,N,01234.768,E,04.4,148,020821,03,E,A*0D
$IIGLL,5428.837,N,01234.769,E,083811,A,A*58
$IIMWV,091,R,23.3,N,A*19
$IIMWV,103,T,24.2,N,A*13
$IIRMC,083811,A,5428.837,N,01234.769,E,05.2,153,020821,03,E,A*0E
$IIGLL,5428.837,N,01234.769,E,083811,A,A*58
$IIMWV,090,R,23.4,N,A*1F
$IIMWV,104,T,23.9,N,A*18
$IIRMC,083811,A,5428.837,N,01234.769,E,05.2,153,020821,03,E,A*0E
$IIGLL,5428.833,N,01234.771,E,083813,A,A*57
$IIMWV,088,R,23.6,N,A*14
$IIMWV,102,T,23.9,N,A*1E
$IIRMC,083813,A,5428.833,N,01234.771,E,06.2,158,020821,03,E,A*09
$IIGLL,5428.832,N,01234.772,E,083814,A,A*52
$IIMWV,085,R,23.6,N,A*19
$IIMWV,104,T,24.3,N,A*15
$IIRMC,083814,A,5428.832,N,01234.772,E,06.5,160,020821,03,E,A*00
$IIGLL,5428.830,N,01234.773,E,083815,A,A*50
$IIMWV,080,R,23.0,N,A*1A
$IIMWV,101,T,24.0,N,A*13
$IIRMC,083815,A,5428.830,N,01234.773,E,06.3,163,020821,03,E,A*07
$IIGLL,5428.829,N,01234.774,E,083816,A,A*5C
$IIMWV,079,R,23.3,N,A*1F
$IIMWV,096,T,22.6,N,A*1C
$IIRMC,083816,A,5428.829,N,01234.774,E,06.2,165,020821,03,E,A*0C
$IIGLL,5428.827,N,01234.775,E,083817,A,A*52
$IIMWV,077,R,24.4,N,A*11
$IIMWV,095,T,22.8,N,A*11
$IIRMC,083817,A,5428.827,N,01234.775,E,06.2,166,020821,03,E,A*01
$IIGLL,5428.826,N,01234.775,E,083818,A,A*5C
$IIMWV,074,R,25.3,N,A*14
$IIMWV,092,T,23.6,N,A*19
$IIRMC,083818,A,5428.826,N,01234.775,E,06.1,166,020821,03,E,A*0C
$IIGLL,5428.826,N,01234.775,E,083818,A,A*5C
$IIMWV,069,R,25.3,N,A*18
$IIMWV,088,T,24.2,N,A*11
$IIRMC,083818,A,5428.826,N,01234.775,E,06.1,166,020821,03,E,A*0C
$IIGLL,5428.822,N,01234.776,E,083820,A,A*50
$IIMWV,068,R,26.2,N,A*1B
$IIMWV,083,T,23.6,N,A*19
$IIRMC,083820,A,5428.822,N,01234.776,E,05.9,170,020821,03,E,A*0C
$IIGLL,5428.821,N,01234.777,E,083821,A,A*53
$IIMWV,067,R,27.1,N,A*16
$IIMWV,081,T,24.5,N,A*1F
$IIRMC,083821,A,5428.821,N,01234.777,E,05.7,170,020821,03,E,A*01
$IIGLL,5428.821,N,01234.777,E,083821,A,A*53
$IIMWV,070,R,27.6,N,A*17
$IIMWV,079,T,25.3,N,A*1F
$IIRMC,083821,A,5428.821,N,01234.777,E,05.7,170,020821,03,E,A*01
$IIGLL,5428.818,N,01234.778,E,083823,A,A*54
$IIMWV,071,R,26.9,N,A*18
$IIMWV,081,T,26.1,N,A*19
$IIRMC,083823,A,5428.818,N,01234.778,E,05.5,170,020821,03,E,A*04
$IIGLL,5428.816,N,01234.777,E,083824,A,A*52
$IIMWV,077,R,25.4,N,A*10
$IIMWV,083,T,25.7,N,A*1E
$IIRMC,083824,A,5428.816,N,01234.777,E,05.5,173,020821,03,E,A*01
$IIGLL,5428.815,N,01234.778,E,083825,A,A*5F
$IIMWV,082,R,25.2,N,A*1C
$IIMWV,090,T,24.6,N,A*1C
$IIRMC,083825,A,5428.815,N,01234.778,E,05.4,169,020821,03,E,A*06
$IIGLL,5428.813,N,01234.778,E,083826,A,A*5A
$IIMWV,089,R,25.0,N,A*15
$IIMWV,095,T,24.9,N,A*16
$IIRMC,083826,A,5428.813,N,01234.778,E,05.9,162,020821,03,E,A*05
$IIGLL,5428.812,N,01234.779,E,083827,A,A*5B
$IIMWV,096,R,24.5,N,A*1F
$IIMWV,102,T,25.5,N,A*14
$IIRMC,083827,A,5428.812,N,01234.779,E,06.2,159,020821,03,E,A*04
$IIGLL,5428.810,N,01234.780,E,083828,A,A*50
$IIMWV,104,R,24.9,N,A*19
$IIMWV,110,T,25.6,N,A*14
$IIRMC,083828,A,5428.810,N,01234.780,E,06.7,154,020821,03,E,A*07
$IIGLL,5428.809,N,01234.782,E,083829,A,A*5B
$IIMWV,111,R,24.5,N,A*11
$IIMWV,117,T,27.1,N,A*16
$IIRMC,083829,A,5428.809,N,01234.782,E,06.7,147,020821,03,E,A*0E
$IIGLL,5428.808,N,01234.784,E,083830,A,A*54
$IIMWV,118,R,23.3,N,A*19
$IIMWV,124,T,27.4,N,A*13
$IIRMC,083830,A,5428.808,N,01234.784,E,06.1,139,020821,03,E,A*0E
$IIGLL,5428.806,N,01234.786,E,083831,A,A*59
$IIMWV,122,R,22.5,N,A*17
$IIMWV,130,T,26.6,N,A*15
$IIRMC,083831,A,5428.806,N,01234.786,E,05.7,131,020821,03,E,A*0E
$IIGLL,5428.805,N,01234.788,E,083832,A,A*57
$IIMWV,121,R,21.9,N,A*1B
$IIMWV,133,T,25.9,N,A*1A
$IIRMC,083832,A,5428.805,N,01234.788,E,05.9,126,020821,03,E,A*08
$IIGLL,5428.804,N,01234.790,E,083833,A,A*5E
$IIMWV,122,R,22.0,N,A*12
$IIMWV,132,T,25.4,N,A*16
$IIRMC,083833,A,5428.804,N,01234.790,E,06.2,124,020821,03,E,A*0B
$IIGLL,5428.803,N,01234.793,E,083834,A,A*5D
$IIMWV,124,R,21.3,N,A*14
$IIMWV,134,T,25.8,N,A*1C
$IIRMC,083834,A,5428.803,N,01234.793,E,06.4,124,020821,03,E,A*0E
$IIGLL,5428.802,N,01234.795,E,083835,A,A*5B
$IIMWV,124,R,20.8,N,A*1E
$IIMWV,136,T,25.3,N,A*15
$IIRMC,083835,A,5428.802,N,01234.795,E,06.3,124,020821,03,E,A*0F
$IIGLL,5428.801,N,01234.798,E,083836,A,A*56
$IIMWV,122,R,20.9,N,A*19
$IIMWV,136,T,24.8,N,A*1F
$IIRMC,083836,A,5428.801,N,01234.798,E,06.4,121,020821,03,E,A*00
$IIGLL,5428.800,N,01234.800,E,083837,A,A*58
$IIMWV,123,R,21.6,N,A*16
$IIMWV,135,T,24.8,N,A*1C
$IIRMC,083837,A,5428.800,N,01234.800,E,06.4,120,020821,03,E,A*0F
$IIGLL,5428.799,N,01234.803,E,083838,A,A*5B
$IIMWV,127,R,21.8,N,A*1C
$IIMWV,135,T,25.5,N,A*10
$IIRMC,083838,A,5428.799,N,01234.803,E,06.3,121,020821,03,E,A*0A
$IIGLL,5428.798,N,01234.805,E,083839,A,A*5D
$IIMWV,131,R,22.0,N,A*10
$IIMWV,138,T,25.9,N,A*11
$IIRMC,083839,A,5428.798,N,01234.805,E,06.2,119,020821,03,E,A*06
$IIGLL,5428.797,N,01234.808,E,083840,A,A*51
$IIMWV,135,R,22.1,N,A*15
$IIMWV,142,T,26.4,N,A*12
$IIRMC,083840,A,5428.797,N,01234.808,E,06.0,115,020821,03,E,A*04
$IIGLL,5428.797,N,01234.808,E,083840,A,A*51
$IIMWV,137,R,21.9,N,A*1C
$IIMWV,144,T,26.6,N,A*16
$IIRMC,083840,A,5428.797,N,01234.808,E,06.0,115,020821,03,E,A*04
$IIGLL,5428.797,N,01234.813,E,083842,A,A*59
$IIMWV,138,R,22.1,N,A*18
$IIMWV,146,T,26.4,N,A*16
$IIRMC,083842,A,5428.797,N,01234.813,E,05.5,110,020821,03,E,A*0F
$IIGLL,5428.796,N,01234.815,E,083843,A,A*5F
$IIMWV,139,R,22.9,N,A*11
$IIMWV,146,T,26.3,N,A*11
$IIRMC,083843,A,5428.796,N,01234.815,E,05.7,109,020821,03,E,A*03
$IIGLL,5428.796,N,01234.818,E,083844,A,A*55
$IIMWV,143,R,22.7,N,A*12
$IIMWV,147,T,27.3,N,A*11
$IIRMC,083844,A,5428.796,N,01234.818,E,06.0,109,020821,03,E,A*0D
$IIGLL,5428.795,N,01234.820,E,083845,A,A*5C
$IIMWV,147,R,22.1,N,A*10
$IIMWV,150,T,27.6,N,A*12
$IIRMC,083845,A,5428.795,N,01234.820,E,06.4,107,020821,03,E,A*0E
$IIGLL,5428.795,N,01234.824,E,083846,A,A*5B
$IIMWV,151,R,21.1,N,A*14
$IIMWV,154,T,27.5,N,A*15
$IIRMC,083846,A,5428.795,N,01234.824,E,06.5,105,020821,03,E,A*0A
$IIGLL,5428.795,N,01234.824,E,083846,A,A*5B
$IIMWV,150,R,20.6,N,A*13
$IIMWV,158,T,26.7,N,A*1A
$IIRMC,083846,A,5428.795,N,01234.824,E,06.5,105,020821,03,E,A*0A
$IIGLL,5428.794,N,01234.829,E,083848,A,A*59
$IIMWV,147,R,21.5,N,A*17
$IIMWV,157,T,26.4,N,A*16
$IIRMC,083848,A,5428.794,N,01234.829,E,06.0,104,020821,03,E,A*0C
$IIGLL,5428.794,N,01234.832,E,083849,A,A*52
$IIMWV,147,R,20.9,N,A*1A
$IIMWV,154,T,26.6,N,A*17
$IIRMC,083849,A,5428.794,N,01234.832,E,05.5,105,020821,03,E,A*00
$IIGLL,5428.793,N,01234.834,E,083850,A,A*5B
$IIMWV,152,R,19.9,N,A*14
$IIMWV,154,T,25.5,N,A*17
$IIRMC,083850,A,5428.793,N,01234.834,E,05.4,106,020821,03,E,A*0B
$IIGLL,5428.793,N,01234.837,E,083851,A,A*59
$IIMWV,154,R,18.9,N,A*13
$IIMWV,158,T,24.7,N,A*18
$IIRMC,083851,A,5428.793,N,01234.837,E,05.8,105,020821,03,E,A*06
$IIGLL,5428.792,N,01234.839,E,083852,A,A*55
$IIMWV,154,R,18.7,N,A*1D
$IIMWV,160,T,24.2,N,A*16
$IIRMC,083852,A,5428.792,N,01234.839,E,06.5,104,020821,03,E,A*05
$IIGLL,5428.792,N,01234.842,E,083853,A,A*58
$IIMWV,154,R,18.5,N,A*1F
$IIMWV,160,T,24.7,N,A*13
$IIRMC,083853,A,5428.792,N,01234.842,E,06.9,104,020821,03,E,A*04
$IIGLL,5428.791,N,01234.845,E,083854,A,A*5B
$IIMWV,154,R,18.3,N,A*19
$IIMWV,161,T,24.8,N,A*1D
$IIRMC,083854,A,5428.791,N,01234.845,E,06.8,103,020821,03,E,A*01
$IIGLL,5428.790,N,01234.849,E,083855,A,A*57
$IIMWV,154,R,18.2,N,A*18
$IIMWV,161,T,24.5,N,A*10
$IIRMC,083855,A,5428.790,N,01234.849,E,06.3,101,020821,03,E,A*04
$IIGLL,5428.790,N,01234.851,E,083856,A,A*5D
$IIMWV,158,R,18.3,N,A*15
$IIMWV,160,T,23.9,N,A*1A
$IIRMC,083856,A,5428.790,N,01234.851,E,05.7,100,020821,03,E,A*08
$IIGLL,5428.790,N,01234.854,E,083857,A,A*59
$IIMWV,156,R,18.3,N,A*1B
$IIMWV,164,T,23.6,N,A*11
$IIRMC,083857,A,5428.790,N,01234.854,E,05.5,100,020821,03,E,A*0E
$IIGLL,5428.789,N,01234.856,E,083858,A,A*5C
$IIMWV,151,R,19.4,N,A*1A
$IIMWV,161,T,23.3,N,A*11
$IIRMC,083858,A,5428.789,N,01234.856,E,05.6,099,020821,03,E,A*09
$IIGLL,5428.789,N,01234.859,E,083859,A,A*52
$IIMWV,149,R,20.4,N,A*19
$IIMWV,157,T,24.2,N,A*12
$IIRMC,083859,A,5428.789,N,01234.859,E,05.9,100,020821,03,E,A*09
$IIGLL,5428.789,N,01234.859,E,083859,A,A*52
$IIMWV,152,R,20.2,N,A*15
$IIMWV,155,T,25.6,N,A*15
$IIRMC,083859,A,5428.789,N,01234.859,E,05.9,100,020821,03,E,A*09
$IIGLL,5428.788,N,01234.865,E,083901,A,A*50
$IIMWV,156,R,19.4,N,A*1D
$IIMWV,158,T,25.4,N,A*1A
$IIRMC,083901,A,5428.788,N,01234.865,E,06.6,100,020821,03,E,A*07
$IIGLL,5428.789,N,01234.868,E,083902,A,A*5F
$IIMWV,157,R,19.4,N,A*1C
$IIMWV,162,T,25.4,N,A*13
$IIRMC,083902,A,5428.789,N,01234.868,E,06.6,097,020821,03,E,A*07
$IIGLL,5428.789,N,01234.872,E,083903,A,A*55
$IIMWV,158,R,19.5,N,A*12
$IIMWV,163,T,25.5,N,A*13
$IIRMC,083903,A,5428.789,N,01234.872,E,06.2,094,020821,03,E,A*0A
$IIGLL,5428.788,N,01234.874,E,083904,A,A*55
$IIMWV,157,R,19.5,N,A*1D
$IIMWV,163,T,25.3,N,A*15
$IIRMC,083904,A,5428.788,N,01234.874,E,05.7,094,020821,03,E,A*0C
$IIGLL,5428.788,N,01234.876,E,083905,A,A*56
$IIMWV,154,R,19.9,N,A*12
$IIMWV,162,T,24.7,N,A*11
$IIRMC,083905,A,5428.788,N,01234.876,E,05.2,094,020821,03,E,A*0A
$IIGLL,5428.788,N,01234.879,E,083906,A,A*5A
$IIMWV,151,R,20.6,N,A*12
$IIMWV,159,T,24.6,N,A*18
$IIRMC,083906,A,5428.788,N,01234.879,E,05.2,095,020821,03,E,A*07
$IIGLL,5428.787,N,01234.881,E,083907,A,A*53
$IIMWV,152,R,20.7,N,A*10
$IIMWV,157,T,25.0,N,A*11
$IIRMC,083907,A,5428.787,N,01234.881,E,05.6,098,020821,03,E,A*07
$IIGLL,5428.787,N,01234.884,E,083908,A,A*59
$IIMWV,156,R,20.3,N,A*10
$IIMWV,158,T,25.7,N,A*19
$IIRMC,083908,A,5428.787,N,01234.884,E,06.4,100,020821,03,E,A*0C
$IIGLL,5428.787,N,01234.887,E,083909,A,A*5B
$IIMWV,161,R,20.1,N,A*16
$IIMWV,161,T,26.1,N,A*16
$IIRMC,083909,A,5428.787,N,01234.887,E,06.7,099,020821,03,E,A*0C
$IIGLL,5428.787,N,01234.891,E,083910,A,A*54
$IIMWV,160,R,19.6,N,A*1A
$IIMWV,165,T,26.5,N,A*16
$IIRMC,083911,A,5428.787,N,01234.893,E,05.6,095,020821,03,E,A*0E
$IIGLL,5428.787,N,01234.893,E,083911,A,A*57
$IIMWV,156,R,19.9,N,A*10
$IIMWV,165,T,25.5,N,A*15
$IIRMC,083912,A,5428.787,N,01234.896,E,05.4,094,020821,03,E,A*0B
$IIGLL,5428.787,N,01234.896,E,083912,A,A*51
$IIMWV,156,R,20.8,N,A*1B
$IIMWV,161,T,25.0,N,A*14
$IIRMC,083913,A,5428.786,N,01234.898,E,05.8,097,020821,03,E,A*0A
$IIGLL,5428.786,N,01234.898,E,083913,A,A*5F
$IIMWV,161,R,20.4,N,A*13
$IIMWV,161,T,25.7,N,A*13
$IIRMC,083914,A,5428.786,N,01234.901,E,06.3,098,020821,03,E,A*0B
$IIGLL,5428.786,N,01234.901,E,083914,A,A*59
$IIMWV,167,R,19.6,N,A*1D
$IIMWV,165,T,25.9,N,A*19
$IIRMC,083915,A,5428.786,N,01234.904,E,06.4,096,020821,03,E,A*06
$IIGLL,5428.786,N,01234.904,E,083915,A,A*5D
$IIMWV,169,R,18.4,N,A*10
$IIMWV,170,T,25.6,N,A*12
$IIRMC,083916,A,5428.786,N,01234.907,E,06.1,092,020821,03,E,A*07
$IIGLL,5428.786,N,01234.907,E,083916,A,A*5D
$IIMWV,171,R,18.7,N,A*1A
$IIMWV,172,T,24.6,N,A*11
$IIRMC,083917,A,5428.785,N,01234.910,E,05.9,088,020821,03,E,A*03
$IIGLL,5428.785,N,01234.910,E,083917,A,A*59
$IIMWV,175,R,18.2,N,A*1B
$IIMWV,173,T,24.7,N,A*11
$IIRMC,083918,A,5428.786,N,01234.913,E,06.0,084,020821,03,E,A*0A
$IIGLL,5428.786,N,01234.913,E,083918,A,A*56
$IIMWV,181,R,17.3,N,A*1E
$IIMWV,176,T,24.1,N,A*12
$IIRMC,083919,A,5428.786,N,01234.916,E,06.1,083,020821,03,E,A*08
$IIGLL,5428.786,N,01234.916,E,083919,A,A*52
$IIMWV,184,R,16.5,N,A*1C
$IIMWV,181,T,23.3,N,A*1F
$IIRMC,083919,A,5428.786,N,01234.916,E,06.1,083,020821,03,E,A*08
$IIGLL,5428.786,N,01234.916,E,083919,A,A*52
$IIMWV,181,R,16.0,N,A*1C
$IIMWV,183,T,22.6,N,A*19
$IIRMC,083921,A,5428.787,N,01234.922,E,06.0,080,020821,03,E,A*07
$IIGLL,5428.787,N,01234.922,E,083921,A,A*5F
$IIMWV,176,R,16.2,N,A*16
$IIMWV,181,T,22.1,N,A*1C
$IIRMC,083922,A,5428.787,N,01234.925,E,05.8,081,020821,03,E,A*09
$IIGLL,5428.787,N,01234.925,E,083922,A,A*5B
$IIMWV,174,R,17.1,N,A*16
$IIMWV,177,T,22.2,N,A*16
$IIRMC,083923,A,5428.788,N,01234.928,E,05.9,082,020821,03,E,A*08
$IIGLL,5428.788,N,01234.928,E,083923,A,A*58
$IIMWV,177,R,18.4,N,A*1F
$IIMWV,175,T,22.7,N,A*11
$IIRMC,083924,A,5428.787,N,01234.931,E,06.0,085,020821,03,E,A*05
$IIGLL,5428.787,N,01234.931,E,083924,A,A*58
$IIMWV,176,R,17.4,N,A*11
$IIMWV,178,T,24.3,N,A*1E
$IIRMC,083925,A,5428.788,N,01234.934,E,05.6,084,020821,03,E,A*0A
$IIGLL,5428.788,N,01234.934,E,083925,A,A*53
$IIMWV,167,R,18.1,N,A*1B
$IIMWV,177,T,23.4,N,A*11
$IIRMC,083926,A,5428.788,N,01234.936,E,05.3,085,020821,03,E,A*0F
$IIGLL,5428.788,N,01234.936,E,083926,A,A*52
$IIMWV,159,R,19.4,N,A*12
$IIMWV,171,T,23.4,N,A*17
$IIRMC,083927,A,5428.787,N,01234.939,E,05.6,090,020821,03,E,A*0F
$IIGLL,5428.787,N,01234.939,E,083927,A,A*53
$IIMWV,160,R,18.9,N,A*14
$IIMWV,163,T,24.3,N,A*14
$IIRMC,083928,A,5428.787,N,01234.942,E,06.3,094,020821,03,E,A*0E
$IIGLL,5428.787,N,01234.942,E,083928,A,A*50
$IIMWV,168,R,17.0,N,A*1A
$IIMWV,165,T,24.1,N,A*10
$IIRMC,083929,A,5428.787,N,01234.945,E,06.6,094,020821,03,E,A*0D
$IIGLL,5428.787,N,01234.945,E,083929,A,A*56
$IIMWV,165,R,15.8,N,A*1D
$IIMWV,171,T,23.1,N,A*12
$IIRMC,083930,A,5428.788,N,01234.948,E,06.4,091,020821,03,E,A*00
$IIGLL,5428.788,N,01234.948,E,083930,A,A*5C
$IIMWV,161,R,16.4,N,A*16
$IIMWV,169,T,22.2,N,A*19
$IIRMC,083931,A,5428.788,N,01234.951,E,06.2,093,020821,03,E,A*0D
$IIGLL,5428.788,N,01234.951,E,083931,A,A*55
$IIMWV,163,R,16.8,N,A*18
$IIMWV,166,T,22.5,N,A*11
$IIRMC,083932,A,5428.788,N,01234.953,E,05.9,094,020821,03,E,A*03
$IIGLL,5428.788,N,01234.953,E,083932,A,A*54
$IIMWV,165,R,16.8,N,A*1E
$IIMWV,168,T,22.8,N,A*12
$IIRMC,083933,A,5428.788,N,01234.956,E,05.6,091,020821,03,E,A*0D
$IIGLL,5428.788,N,01234.956,E,083933,A,A*50
$IIMWV,165,R,16.8,N,A*1E
$IIMWV,169,T,22.5,N,A*1E
$IIRMC,083934,A,5428.788,N,01234.958,E,05.6,089,020821,03,E,A*0D
$IIGLL,5428.788,N,01234.958,E,083934,A,A*59
$IIMWV,167,R,16.8,N,A*1C
$IIMWV,169,T,22.2,N,A*19
$IIRMC,083935,A,5428.788,N,01234.961,E,05.7,091,020821,03,E,A*0E
$IIGLL,5428.788,N,01234.961,E,083935,A,A*52
$IIMWV,171,R,16.3,N,A*10
$IIMWV,171,T,22.0,N,A*12
$IIRMC,083936,A,5428.788,N,01234.964,E,05.7,092,020821,03,E,A*0B
$IIGLL,5428.788,N,01234.964,E,083936,A,A*54
$IIMWV,172,R,15.7,N,A*14
$IIMWV,173,T,21.9,N,A*1A
$IIRMC,083937,A,5428.788,N,01234.967,E,05.5,089,020821,03,E,A*01
$IIGLL,5428.788,N,01234.967,E,083937,A,A*56
$IIMWV,172,R,16.2,N,A*12
$IIMWV,174,T,21.3,N,A*17
$IIRMC,083938,A,5428.788,N,01234.969,E,05.2,092,020821,03,E,A*0D
$IIGLL,5428.788,N,01234.969,E,083938,A,A*57
$IIMWV,171,R,16.6,N,A*15
$IIMWV,174,T,21.6,N,A*12
$IIRMC,083939,A,5428.788,N,01234.971,E,05.3,093,020821,03,E,A*05
$IIGLL,5428.788,N,01234.971,E,083939,A,A*5F
$IIMWV,168,R,16.7,N,A*1C
$IIMWV,173,T,21.7,N,A*14
$IIRMC,083940,A,5428.788,N,01234.974,E,05.6,092,020821,03,E,A*0A
$IIGLL,5428.788,N,01234.974,E,083940,A,A*54
$IIMWV,171,R,17.2,N,A*10
$IIMWV,171,T,21.8,N,A*19
$IIRMC,083941,A,5428.788,N,01234.976,E,05.8,091,020821,03,E,A*04
$IIGLL,5428.788,N,01234.979,E,083942,A,A*5B
$IIMWV,165,R,18.5,N,A*1D
$IIMWV,171,T,23.6,N,A*15
$IIRMC,083942,A,5428.788,N,01234.979,E,05.8,091,020821,03,E,A*08
$IIGLL,5428.787,N,01234.981,E,083943,A,A*52
$IIMWV,162,R,19.0,N,A*1E
$IIMWV,168,T,24.1,N,A*1D
$IIRMC,083943,A,5428.787,N,01234.981,E,05.6,092,020821,03,E,A*0C
$IIGLL,5428.787,N,01234.984,E,083944,A,A*50
$IIMWV,162,R,18.9,N,A*16
$IIMWV,166,T,24.3,N,A*11
$IIRMC,083944,A,5428.787,N,01234.984,E,05.6,094,020821,03,E,A*08
$IIGLL,5428.787,N,01234.987,E,083945,A,A*52
$IIMWV,163,R,19.4,N,A*1B
$IIMWV,166,T,24.2,N,A*10
$IIRMC,083945,A,5428.787,N,01234.987,E,06.0,094,020821,03,E,A*0F
$IIGLL,5428.787,N,01234.991,E,083946,A,A*56
$IIMWV,168,R,19.7,N,A*13
$IIMWV,167,T,25.2,N,A*10
$IIRMC,083946,A,5428.787,N,01234.991,E,06.5,094,020821,03,E,A*0E
$IIGLL,5428.787,N,01234.994,E,083947,A,A*52
$IIMWV,170,R,19.5,N,A*18
$IIMWV,171,T,26.1,N,A*17
$IIRMC,083947,A,5428.787,N,01234.994,E,06.8,093,020821,03,E,A*00
$IIGLL,5428.787,N,01234.998,E,083948,A,A*51
$IIMWV,166,R,19.2,N,A*18
$IIMWV,173,T,26.1,N,A*15
$IIRMC,083948,A,5428.787,N,01234.998,E,06.9,093,020821,03,E,A*02
$IIGLL,5428.787,N,01235.000,E,083949,A,A*59
$IIMWV,161,R,20.2,N,A*15
$IIMWV,170,T,25.9,N,A*1D
$IIRMC,083949,A,5428.787,N,01235.000,E,05.8,094,020821,03,E,A*0F
$IIGLL,5428.787,N,01235.002,E,083950,A,A*53
$IIMWV,159,R,20.3,N,A*1F
$IIMWV,165,T,25.7,N,A*17
$IIRMC,083950,A,5428.787,N,01235.002,E,05.3,095,020821,03,E,A*0F
$IIGLL,5428.788,N,01235.005,E,083951,A,A*5A
$IIMWV,161,R,20.4,N,A*13
$IIMWV,163,T,25.1,N,A*17
$IIRMC,083951,A,5428.788,N,01235.005,E,05.6,098,020821,03,E,A*0E
$IIGLL,5428.787,N,01235.008,E,083952,A,A*5B
$IIMWV,162,R,20.4,N,A*10
$IIMWV,165,T,25.7,N,A*17
$IIRMC,083952,A,5428.787,N,01235.008,E,06.3,099,020821,03,E,A*08
$IIGLL,5428.787,N,01235.011,E,083953,A,A*52
$IIMWV,165,R,20.4,N,A*17
$IIMWV,166,T,26.3,N,A*13
$IIRMC,083953,A,5428.787,N,01235.011,E,06.9,098,020821,03,E,A*0A
$IIGLL,5428.787,N,01235.015,E,083954,A,A*51
$IIMWV,167,R,20.4,N,A*15
$IIMWV,169,T,27.4,N,A*1A
$IIRMC,083954,A,5428.787,N,01235.015,E,07.2,098,020821,03,E,A*03
$IIGLL,5428.787,N,01235.019,E,083955,A,A*5C
$IIMWV,170,R,19.8,N,A*15
$IIMWV,171,T,27.2,N,A*15
$IIRMC,083955,A,5428.787,N,01235.019,E,06.9,094,020821,03,E,A*08
$IIGLL,5428.787,N,01235.021,E,083956,A,A*54
$IIMWV,172,R,19.8,N,A*17
$IIMWV,173,T,26.5,N,A*11
$IIRMC,083956,A,5428.787,N,01235.021,E,06.3,089,020821,03,E,A*06
$IIGLL,5428.788,N,01235.024,E,083957,A,A*5F
$IIMWV,172,R,19.3,N,A*1C
$IIMWV,174,T,26.0,N,A*13
$IIRMC,083957,A,5428.788,N,01235.024,E,05.8,087,020821,03,E,A*0B
$IIGLL,5428.788,N,01235.026,E,083958,A,A*52
$IIMWV,172,R,19.1,N,A*1E
$IIMWV,174,T,25.0,N,A*10
$IIRMC,083958,A,5428.788,N,01235.026,E,05.7,088,020821,03,E,A*06
$IIGLL,5428.788,N,01235.029,E,083959,A,A*5C
$IIMWV,172,R,19.2,N,A*1D
$IIMWV,174,T,24.7,N,A*16
$IIRMC,083959,A,5428.788,N,01235.029,E,06.0,090,020821,03,E,A*05
$IIGLL,5428.788,N,01235.032,E,084000,A,A*54
$IIMWV,170,R,20.0,N,A*17
$IIMWV,174,T,25.1,N,A*11
$IIRMC,084000,A,5428.788,N,01235.032,E,06.2,091,020821,03,E,A*0E
$IIGLL,5428.788,N,01235.035,E,084001,A,A*52
$IIMWV,166,R,20.2,N,A*12
$IIMWV,172,T,26.0,N,A*15
$IIRMC,084001,A,5428.788,N,01235.035,E,06.2,090,020821,03,E,A*09
$IIGLL,5428.788,N,01235.038,E,084002,A,A*5C
$IIMWV,162,R,20.7,N,A*13
$IIMWV,169,T,26.1,N,A*1E
$IIRMC,084002,A,5428.788,N,01235.038,E,06.0,091,020821,03,E,A*04
$IIGLL,5428.788,N,01235.041,E,084003,A,A*53
$IIMWV,162,R,21.1,N,A*14
$IIMWV,166,T,26.3,N,A*13
$IIRMC,084003,A,5428.788,N,01235.041,E,06.0,091,020821,03,E,A*0B
$IIGLL,5428.788,N,01235.041,E,084003,A,A*53
$IIMWV,165,R,21.4,N,A*16
$IIMWV,166,T,26.8,N,A*18
$IIRMC,084003,A,5428.788,N,01235.041,E,06.0,091,020821,03,E,A*0B
$IIGLL,5428.788,N,01235.048,E,084005,A,A*5C
$IIMWV,168,R,21.5,N,A*1A
$IIMWV,168,T,27.2,N,A*1D
$IIRMC,084005,A,5428.788,N,01235.048,E,07.0,094,020821,03,E,A*00
$IIGLL,5428.788,N,01235.051,E,084006,A,A*57
$IIMWV,169,R,21.4,N,A*1A
$IIMWV,171,T,28.3,N,A*1B
$IIRMC,084006,A,5428.788,N,01235.051,E,07.3,093,020821,03,E,A*0F
$IIGLL,5428.788,N,01235.055,E,084007,A,A*52
$IIMWV,166,R,21.0,N,A*11
$IIMWV,172,T,28.4,N,A*1F
$IIRMC,084007,A,5428.788,N,01235.055,E,07.0,091,020821,03,E,A*0B
$IIGLL,5428.788,N,01235.055,E,084007,A,A*52
$IIMWV,162,R,20.8,N,A*1C
$IIMWV,170,T,27.7,N,A*11
$IIRMC,084007,A,5428.788,N,01235.055,E,07.0,091,020821,03,E,A*0B
$IIGLL,5428.788,N,01235.060,E,084009,A,A*5A
$IIMWV,160,R,20.7,N,A*11
$IIMWV,167,T,27.4,N,A*14
$IIRMC,084009,A,5428.788,N,01235.060,E,05.7,093,020821,03,E,A*04
$IIGLL,5428.787,N,01235.062,E,084010,A,A*5F
$IIMWV,160,R,20.3,N,A*15
$IIMWV,165,T,26.0,N,A*13
$IIRMC,084010,A,5428.787,N,01235.062,E,05.8,095,020821,03,E,A*08
$IIGLL,5428.787,N,01235.065,E,084011,A,A*59
$IIMWV,161,R,19.8,N,A*15
$IIMWV,165,T,25.7,N,A*17
$IIRMC,084011,A,5428.787,N,01235.065,E,06.1,098,020821,03,E,A*09
$IIGLL,5428.786,N,01235.068,E,084012,A,A*56
$IIMWV,160,R,19.8,N,A*14
$IIMWV,165,T,25.7,N,A*17
$IIRMC,084012,A,5428.786,N,01235.068,E,06.3,099,020821,03,E,A*05
$IIGLL,5428.786,N,01235.071,E,084013,A,A*5F
$IIMWV,159,R,19.3,N,A*15
$IIMWV,165,T,25.7,N,A*17
$IIRMC,084013,A,5428.786,N,01235.071,E,06.5,101,020821,03,E,A*0A
$IIGLL,5428.786,N,01235.071,E,084013,A,A*5F
$IIMWV,157,R,18.9,N,A*10
$IIMWV,164,T,25.3,N,A*12
$IIRMC,084013,A,5428.786,N,01235.071,E,06.5,101,020821,03,E,A*0A
$IIGLL,5428.785,N,01235.076,E,084015,A,A*5D
$IIMWV,155,R,19.0,N,A*1A
$IIMWV,163,T,24.8,N,A*1F
$IIRMC,084015,A,5428.785,N,01235.076,E,06.4,104,020821,03,E,A*0C
$IIGLL,5428.785,N,01235.079,E,084016,A,A*51
$IIMWV,154,R,19.4,N,A*1F
$IIMWV,161,T,24.8,N,A*1D
$IIRMC,084016,A,5428.785,N,01235.079,E,06.3,103,020821,03,E,A*00
$IIGLL,5428.785,N,01235.082,E,084017,A,A*54
$IIMWV,154,R,19.2,N,A*19
$IIMWV,160,T,25.1,N,A*14
$IIRMC,084017,A,5428.785,N,01235.082,E,06.5,104,020821,03,E,A*04
$IIGLL,5428.784,N,01235.085,E,084018,A,A*5D
$IIMWV,154,R,18.8,N,A*12
$IIMWV,160,T,25.1,N,A*14
$IIRMC,084018,A,5428.784,N,01235.085,E,06.5,105,020821,03,E,A*0C
$IIGLL,5428.784,N,01235.088,E,084019,A,A*51
$IIMWV,152,R,19.0,N,A*1D
$IIMWV,160,T,24.7,N,A*13
$IIRMC,084019,A,5428.784,N,01235.088,E,06.1,105,020821,03,E,A*04
$IIGLL,5428.783,N,01235.090,E,084020,A,A*55
$IIMWV,151,R,19.5,N,A*1B
$IIMWV,159,T,24.4,N,A*1A
$IIRMC,084020,A,5428.783,N,01235.090,E,05.8,105,020821,03,E,A*0A
$IIGLL,5428.783,N,01235.093,E,084021,A,A*57
$IIMWV,151,R,19.3,N,A*1D
$IIMWV,158,T,24.5,N,A*1A
$IIRMC,084021,A,5428.783,N,01235.093,E,05.7,103,020821,03,E,A*01
$IIGLL,5428.782,N,01235.095,E,084022,A,A*53
$IIMWV,157,R,19.1,N,A*19
$IIMWV,158,T,24.2,N,A*1D
$IIRMC,084022,A,5428.782,N,01235.095,E,06.3,102,020821,03,E,A*03
$IIGLL,5428.782,N,01235.098,E,084023,A,A*5F
$IIMWV,169,R,18.2,N,A*16
$IIMWV,163,T,24.9,N,A*1E
$IIRMC,084023,A,5428.782,N,01235.098,E,06.8,099,020821,03,E,A*07
$IIGLL,5428.782,N,01235.101,E,084024,A,A*59
$IIMWV,175,R,17.2,N,A*14
$IIMWV,172,T,24.8,N,A*1F
$IIRMC,084024,A,5428.782,N,01235.101,E,07.0,096,020821,03,E,A*07
$IIGLL,5428.782,N,01235.104,E,084025,A,A*5D
$IIMWV,169,R,16.3,N,A*19
$IIMWV,176,T,24.2,N,A*11
$IIRMC,084025,A,5428.782,N,01235.104,E,06.5,091,020821,03,E,A*00
$IIGLL,5428.782,N,01235.107,E,084026,A,A*5D
$IIMWV,164,R,16.7,N,A*10
$IIMWV,172,T,22.6,N,A*17
$IIRMC,084026,A,5428.782,N,01235.107,E,06.0,089,020821,03,E,A*0C
$IIGLL,5428.782,N,01235.109,E,084027,A,A*52
$IIMWV,165,R,16.8,N,A*1E
$IIMWV,168,T,22.4,N,A*1E
$IIRMC,084027,A,5428.782,N,01235.109,E,05.8,092,020821,03,E,A*02
$IIGLL,5428.781,N,01235.112,E,084028,A,A*54
$IIMWV,166,R,17.0,N,A*14
$IIMWV,169,T,22.4,N,A*1F
$IIRMC,084028,A,5428.781,N,01235.112,E,05.9,095,020821,03,E,A*02
$IIGLL,5428.782,N,01235.116,E,084029,A,A*52
$IIMWV,164,R,17.0,N,A*16
$IIMWV,170,T,22.6,N,A*15
$IIRMC,084029,A,5428.782,N,01235.116,E,06.0,095,020821,03,E,A*0E
$IIGLL,5428.782,N,01235.119,E,084030,A,A*55
$IIMWV,162,R,16.9,N,A*18
$IIMWV,168,T,22.7,N,A*1D
$IIRMC,084030,A,5428.782,N,01235.119,E,06.0,095,020821,03,E,A*09
$IIGLL,5428.781,N,01235.122,E,084031,A,A*5F
$IIMWV,160,R,17.1,N,A*13
$IIMWV,167,T,22.6,N,A*13
$IIRMC,084031,A,5428.781,N,01235.122,E,06.1,098,020821,03,E,A*0F
$IIGLL,5428.781,N,01235.125,E,084032,A,A*5B
$IIMWV,158,R,17.2,N,A*1B
$IIMWV,165,T,22.8,N,A*1F
$IIRMC,084032,A,5428.781,N,01235.125,E,06.1,099,020821,03,E,A*0A
$IIGLL,5428.781,N,01235.127,E,084033,A,A*58
$IIMWV,156,R,17.4,N,A*13
$IIMWV,164,T,22.8,N,A*1E
$IIRMC,084033,A,5428.781,N,01235.127,E,05.9,102,020821,03,E,A*01
$IIGLL,5428.781,N,01235.130,E,084034,A,A*59
$IIMWV,156,R,17.3,N,A*14
$IIMWV,162,T,22.8,N,A*18
$IIRMC,084034,A,5428.781,N,01235.130,E,05.8,102,020821,03,E,A*01
$IIGLL,5428.781,N,01235.132,E,084035,A,A*5A
$IIMWV,156,R,17.6,N,A*11
$IIMWV,162,T,22.6,N,A*16
$IIRMC,084035,A,5428.781,N,01235.132,E,05.8,101,020821,03,E,A*01
$IIGLL,5428.781,N,01235.135,E,084036,A,A*5E
$IIMWV,158,R,17.5,N,A*1C
$IIMWV,162,T,22.9,N,A*19
$IIRMC,084036,A,5428.781,N,01235.135,E,06.2,101,020821,03,E,A*0C
$IIGLL,5428.780,N,01235.138,E,084037,A,A*53
$IIMWV,162,R,17.3,N,A*13
$IIMWV,164,T,23.2,N,A*15
$IIRMC,084037,A,5428.780,N,01235.138,E,06.5,099,020821,03,E,A*06
$IIGLL,5428.780,N,01235.141,E,084038,A,A*52
$IIMWV,164,R,17.3,N,A*15
$IIMWV,167,T,23.5,N,A*11
$IIRMC,084038,A,5428.780,N,01235.141,E,06.7,098,020821,03,E,A*04
$IIGLL,5428.780,N,01235.144,E,084039,A,A*56
$IIMWV,169,R,17.3,N,A*18
$IIMWV,168,T,23.7,N,A*1C
$IIRMC,084039,A,5428.780,N,01235.144,E,06.6,097,020821,03,E,A*0E
$IIGLL,5428.779,N,01235.147,E,084040,A,A*5D
$IIMWV,169,R,16.4,N,A*1E
$IIMWV,172,T,23.7,N,A*17
$IIRMC,084040,A,5428.779,N,01235.147,E,06.1,095,020821,03,E,A*00
$IIGLL,5428.779,N,01235.150,E,084041,A,A*5A
$IIMWV,165,R,16.4,N,A*12
$IIMWV,172,T,22.3,N,A*12
$IIRMC,084041,A,5428.779,N,01235.150,E,05.6,090,020821,03,E,A*06
$IIGLL,5428.779,N,01235.152,E,084042,A,A*5B
$IIMWV,166,R,16.4,N,A*11
$IIMWV,169,T,21.9,N,A*11
$IIRMC,084043,A,5428.779,N,01235.155,E,05.8,091,020821,03,E,A*0E
$IIGLL,5428.779,N,01235.155,E,084043,A,A*5D
$IIMWV,171,R,15.7,N,A*17
$IIMWV,170,T,21.7,N,A*17
$IIRMC,084044,A,5428.779,N,01235.158,E,06.2,091,020821,03,E,A*0D
$IIGLL,5428.779,N,01235.158,E,084044,A,A*57
$IIMWV,172,R,15.5,N,A*16
$IIMWV,173,T,21.4,N,A*17
$IIRMC,084045,A,5428.779,N,01235.161,E,06.1,090,020821,03,E,A*04
$IIGLL,5428.779,N,01235.161,E,084045,A,A*5C
$IIMWV,172,R,16.1,N,A*11
$IIMWV,175,T,21.6,N,A*13
$IIRMC,084046,A,5428.779,N,01235.164,E,05.9,089,020821,03,E,A*01
$IIGLL,5428.779,N,01235.164,E,084046,A,A*5A
$IIMWV,175,R,15.1,N,A*15
$IIMWV,174,T,22.1,N,A*16
$IIRMC,084047,A,5428.779,N,01235.166,E,05.3,091,020821,03,E,A*01
$IIGLL,5428.779,N,01235.166,E,084047,A,A*59
$IIMWV,176,R,13.8,N,A*19
$IIMWV,176,T,21.0,N,A*16
$IIRMC,084048,A,5428.780,N,01235.168,E,04.9,089,020821,03,E,A*04
$IIGLL,5428.780,N,01235.168,E,084048,A,A*5E
$IIMWV,169,R,14.0,N,A*18
$IIMWV,177,T,19.1,N,A*1D
$IIRMC,084049,A,5428.780,N,01235.170,E,04.9,089,020821,03,E,A*0C
$IIGLL,5428.780,N,01235.170,E,084049,A,A*56
$IIMWV,165,R,14.8,N,A*1C
$IIMWV,172,T,18.7,N,A*1F
$IIRMC,084050,A,5428.779,N,01235.173,E,05.4,096,020821,03,E,A*03
$IIGLL,5428.779,N,01235.173,E,084050,A,A*5B
$IIMWV,165,R,14.8,N,A*1C
$IIMWV,169,T,19.5,N,A*16
$IIRMC,084051,A,5428.779,N,01235.176,E,06.2,099,020821,03,E,A*0D
$IIGLL,5428.779,N,01235.176,E,084051,A,A*5F
$IIMWV,164,R,15.9,N,A*1D
$IIMWV,169,T,20.0,N,A*19
$IIRMC,084052,A,5428.778,N,01235.179,E,06.6,100,020821,03,E,A*05
$IIGLL,5428.778,N,01235.179,E,084052,A,A*52
$IIMWV,168,R,16.6,N,A*1D
$IIMWV,168,T,21.8,N,A*11
$IIRMC,084053,A,5428.778,N,01235.182,E,06.3,100,020821,03,E,A*05
$IIGLL,5428.777,N,01235.187,E,084055,A,A*5B
$IIMWV,168,R,19.2,N,A*16
$IIMWV,171,T,23.5,N,A*16
$IIRMC,084055,A,5428.777,N,01235.187,E,04.7,095,020821,03,E,A*02
$IIGLL,5428.777,N,01235.189,E,084056,A,A*56
$IIMWV,171,R,19.6,N,A*1A
$IIMWV,170,T,23.8,N,A*1A
$IIRMC,084056,A,5428.777,N,01235.189,E,04.8,094,020821,03,E,A*01
$IIGLL,5428.776,N,01235.191,E,084057,A,A*5F
$IIMWV,172,R,18.0,N,A*1E
$IIMWV,173,T,24.3,N,A*15
$IIRMC,084057,A,5428.776,N,01235.191,E,05.2,093,020821,03,E,A*04
$IIGLL,5428.777,N,01235.194,E,084058,A,A*54
$IIMWV,167,R,17.8,N,A*1D
$IIMWV,174,T,23.1,N,A*17
$IIRMC,084058,A,5428.777,N,01235.194,E,05.7,092,020821,03,E,A*0B
$IIGLL,5428.777,N,01235.197,E,084059,A,A*56
$IIMWV,164,R,17.6,N,A*10
$IIMWV,170,T,23.2,N,A*10
$IIRMC,084059,A,5428.777,N,01235.197,E,05.7,093,020821,03,E,A*08
$IIGLL,5428.776,N,01235.200,E,084100,A,A*57
$IIMWV,163,R,17.6,N,A*17
$IIMWV,168,T,23.0,N,A*1B
$IIRMC,084100,A,5428.776,N,01235.200,E,05.5,095,020821,03,E,A*0D
$IIGLL,5428.776,N,01235.202,E,084101,A,A*54
$IIMWV,160,R,18.0,N,A*1D
$IIMWV,167,T,22.8,N,A*1D
$IIRMC,084101,A,5428.776,N,01235.202,E,05.3,097,020821,03,E,A*0A
$IIGLL,5428.776,N,01235.204,E,084102,A,A*51
$IIMWV,161,R,17.6,N,A*15
$IIMWV,165,T,23.0,N,A*16
$IIRMC,084102,A,5428.776,N,01235.204,E,05.0,098,020821,03,E,A*03
$IIGLL,5428.776,N,01235.207,E,084103,A,A*53
$IIMWV,161,R,17.8,N,A*1B
$IIMWV,165,T,22.4,N,A*13
$IIRMC,084103,A,5428.776,N,01235.207,E,05.0,099,020821,03,E,A*00
$IIGLL,5428.776,N,01235.209,E,084104,A,A*5A
$IIMWV,158,R,17.8,N,A*11
$IIMWV,165,T,22.6,N,A*11
$IIRMC,084104,A,5428.776,N,01235.209,E,05.3,100,020821,03,E,A*0B
$IIGLL,5428.775,N,01235.212,E,084105,A,A*52
$IIMWV,154,R,18.1,N,A*1B
$IIMWV,163,T,22.7,N,A*16
$IIRMC,084106,A,5428.775,N,01235.215,E,06.2,102,020821,03,E,A*07
$IIGLL,5428.775,N,01235.215,E,084106,A,A*56
$IIMWV,154,R,18.1,N,A*1B
$IIMWV,160,T,23.3,N,A*10
$IIRMC,084107,A,5428.774,N,01235.218,E,06.4,104,020821,03,E,A*0A
$IIGLL,5428.774,N,01235.218,E,084107,A,A*5B
$IIMWV,156,R,17.7,N,A*10
$IIMWV,160,T,23.7,N,A*14
$IIRMC,084108,A,5428.774,N,01235.221,E,06.1,104,020821,03,E,A*0A
$IIGLL,5428.774,N,01235.221,E,084108,A,A*5E
$IIMWV,156,R,17.7,N,A*10
$IIMWV,162,T,23.6,N,A*17
$IIRMC,084109,A,5428.773,N,01235.223,E,05.7,102,020821,03,E,A*0D
$IIGLL,5428.773,N,01235.223,E,084109,A,A*5A
$IIMWV,157,R,18.3,N,A*1A
$IIMWV,162,T,23.3,N,A*12
$IIRMC,084110,A,5428.773,N,01235.226,E,05.5,102,020821,03,E,A*02
$IIGLL,5428.773,N,01235.226,E,084110,A,A*57
$IIMWV,160,R,18.1,N,A*1C
$IIMWV,163,T,23.5,N,A*15
$IIRMC,084111,A,5428.773,N,01235.228,E,05.4,100,020821,03,E,A*0E
$IIGLL,5428.773,N,01235.228,E,084111,A,A*58
$IIMWV,160,R,17.4,N,A*16
$IIMWV,165,T,23.3,N,A*15
$IIRMC,084112,A,5428.773,N,01235.231,E,05.6,097,020821,03,E,A*08
$IIGLL,5428.773,N,01235.231,E,084112,A,A*53
$IIMWV,161,R,17.5,N,A*16
$IIMWV,165,T,22.4,N,A*13
$IIRMC,084113,A,5428.772,N,01235.235,E,05.9,095,020821,03,E,A*01
$IIGLL,5428.772,N,01235.235,E,084113,A,A*57
$IIMWV,162,R,16.3,N,A*12
$IIMWV,165,T,22.9,N,A*1E
$IIRMC,084114,A,5428.772,N,01235.238,E,06.1,096,020821,03,E,A*03
$IIGLL,5428.772,N,01235.238,E,084114,A,A*5D
$IIMWV,157,R,15.2,N,A*16
$IIMWV,167,T,21.8,N,A*1E
$IIRMC,084115,A,5428.772,N,01235.240,E,06.1,096,020821,03,E,A*0D
$IIGLL,5428.772,N,01235.240,E,084115,A,A*53
$IIMWV,149,R,15.4,N,A*1F
$IIMWV,164,T,20.8,N,A*1C
$IIRMC,084116,A,5428.771,N,01235.243,E,06.0,100,020821,03,E,A*01
$IIGLL,5428.771,N,01235.243,E,084116,A,A*50
$IIMWV,146,R,17.1,N,A*17
$IIMWV,157,T,20.8,N,A*1C
