$IIRMC,083515,A,5527.561,N,01418.715,E,04.4,133,120821,04,E,A*03
$IIGLL,5527.561,N,01418.715,E,083515,A,A*52
$IIMWV,042,R,10.7,N,A*13
$IIMWV,062,T,07.9,N,A*1F
$IIRMC,083516,A,5527.561,N,01418.716,E,04.4,133,120821,04,E,A*03
$IIGLL,5527.561,N,01418.716,E,083516,A,A*52
$IIMWV,041,R,10.9,N,A*1E
$IIMWV,064,T,07.9,N,A*19
$IIRMC,083517,A,5527.560,N,01418.718,E,04.4,133,120821,04,E,A*0D
$IIGLL,5527.560,N,01418.718,E,083517,A,A*5C
$IIMWV,041,R,10.9,N,A*1E
$IIMWV,063,T,08.0,N,A*18
$IIRMC,083518,A,5527.559,N,01418.720,E,04.3,133,120821,04,E,A*04
$IIGLL,5527.559,N,01418.720,E,083518,A,A*52
$IIMWV,041,R,11.0,N,A*16
$IIMWV,063,T,08.0,N,A*18
$IIRMC,083519,A,5527.558,N,01418.721,E,04.4,133,120821,04,E,A*02
$IIGLL,5527.558,N,01418.721,E,083519,A,A*53
$IIMWV,041,R,11.0,N,A*16
$IIMWV,061,T,08.1,N,A*1B
$IIRMC,083520,A,5527.557,N,01418.723,E,04.4,134,120821,04,E,A*02
$IIGLL,5527.557,N,01418.723,E,083520,A,A*54
$IIMWV,041,R,10.8,N,A*1F
$IIMWV,062,T,08.1,N,A*18
$IIRMC,083521,A,5527.556,N,01418.724,E,04.4,135,120821,04,E,A*04
$IIGLL,5527.556,N,01418.724,E,083521,A,A*53
$IIMWV,040,R,10.9,N,A*1F
$IIMWV,063,T,08.0,N,A*18
$IIRMC,083522,A,5527.555,N,01418.726,E,04.4,135,120821,04,E,A*06
$IIGLL,5527.555,N,01418.726,E,083522,A,A*51
$IIMWV,040,R,10.9,N,A*1F
$IIMWV,060,T,07.9,N,A*1D
$IIRMC,083523,A,5527.554,N,01418.727,E,04.4,134,120821,04,E,A*06
$IIGLL,5527.554,N,01418.727,E,083523,A,A*50
$IIMWV,040,R,10.9,N,A*1F
$IIMWV,060,T,07.9,N,A*1D
$IIRMC,083524,A,5527.553,N,01418.729,E,04.4,134,120821,04,E,A*08
$IIGLL,5527.553,N,01418.729,E,083524,A,A*5E
$IIMWV,040,R,11.1,N,A*16
$IIMWV,060,T,07.9,N,A*1D
$IIRMC,083525,A,5527.552,N,01418.730,E,04.4,133,120821,04,E,A*07
$IIGLL,5527.552,N,01418.730,E,083525,A,A*56
$IIMWV,041,R,11.2,N,A*14
$IIMWV,060,T,08.1,N,A*1A
$IIRMC,083526,A,5527.552,N,01418.732,E,04.4,133,120821,04,E,A*06
$IIGLL,5527.552,N,01418.732,E,083526,A,A*57
$IIMWV,040,R,11.4,N,A*13
$IIMWV,061,T,08.3,N,A*19
$IIRMC,083527,A,5527.551,N,01418.733,E,04.4,134,120821,04,E,A*02
$IIGLL,5527.551,N,01418.733,E,083527,A,A*54
$IIMWV,040,R,11.4,N,A*13
$IIMWV,059,T,08.3,N,A*12
$IIRMC,083528,A,5527.550,N,01418.735,E,04.4,133,120821,04,E,A*0D
$IIGLL,5527.550,N,01418.735,E,083528,A,A*5C
$IIMWV,040,R,11.6,N,A*11
$IIMWV,059,T,08.3,N,A*12
$IIRMC,083529,A,5527.549,N,01418.737,E,04.4,133,120821,04,E,A*06
$IIGLL,5527.549,N,01418.737,E,083529,A,A*57
$IIMWV,041,R,11.7,N,A*11
$IIMWV,059,T,08.6,N,A*17
$IIRMC,083530,A,5527.548,N,01418.738,E,04.5,134,120821,04,E,A*06
$IIGLL,5527.548,N,01418.738,E,083530,A,A*51
$IIMWV,040,R,11.6,N,A*11
$IIMWV,061,T,08.8,N,A*12
$IIRMC,083531,A,5527.547,N,01418.740,E,04.5,134,120821,04,E,A*07
$IIGLL,5527.547,N,01418.740,E,083531,A,A*50
$IIMWV,040,R,11.8,N,A*1F
$IIMWV,059,T,08.6,N,A*17
$IIRMC,083532,A,5527.547,N,01418.741,E,04.5,135,120821,04,E,A*04
$IIGLL,5527.547,N,01418.741,E,083532,A,A*52
$IIMWV,041,R,11.7,N,A*11
$IIMWV,059,T,08.7,N,A*16
$IIRMC,083533,A,5527.546,N,01418.743,E,04.5,135,120821,04,E,A*06
$IIGLL,5527.545,N,01418.744,E,083534,A,A*53
$IIMWV,040,R,11.7,N,A*10
$IIMWV,059,T,08.7,N,A*16
$IIRMC,083534,A,5527.545,N,01418.744,E,04.5,136,120821,04,E,A*06
$IIGLL,5527.544,N,01418.746,E,083535,A,A*51
$IIMWV,040,R,11.8,N,A*1F
$IIMWV,059,T,08.6,N,A*17
$IIRMC,083535,A,5527.544,N,01418.746,E,04.6,135,120821,04,E,A*04
$IIGLL,5527.543,N,01418.748,E,083536,A,A*5B
$IIMWV,040,R,11.7,N,A*10
$IIMWV,059,T,08.6,N,A*17
$IIRMC,083536,A,5527.543,N,01418.748,E,04.6,136,120821,04,E,A*0D
$IIGLL,5527.542,N,01418.749,E,083537,A,A*5A
$IIMWV,040,R,11.6,N,A*11
$IIMWV,059,T,08.6,N,A*17
$IIRMC,083537,A,5527.542,N,01418.749,E,04.5,135,120821,04,E,A*0C
$IIGLL,5527.541,N,01418.751,E,083538,A,A*5F
$IIMWV,040,R,11.5,N,A*12
$IIMWV,059,T,08.6,N,A*17
$IIRMC,083538,A,5527.541,N,01418.751,E,04.5,135,120821,04,E,A*09
$IIGLL,5527.540,N,01418.752,E,083539,A,A*5C
$IIMWV,040,R,11.4,N,A*13
$IIMWV,059,T,08.4,N,A*15
$IIRMC,083539,A,5527.540,N,01418.752,E,04.5,137,120821,04,E,A*08
$IIGLL,5527.539,N,01418.754,E,083540,A,A*5A
$IIMWV,039,R,11.1,N,A*18
$IIMWV,060,T,08.3,N,A*18
$IIRMC,083540,A,5527.539,N,01418.754,E,04.5,136,120821,04,E,A*0F
$IIGLL,5527.538,N,01418.755,E,083541,A,A*5B
$IIMWV,040,R,11.0,N,A*17
$IIMWV,059,T,08.0,N,A*11
$IIRMC,083541,A,5527.538,N,01418.755,E,04.5,135,120821,04,E,A*0D
$IIGLL,5527.538,N,01418.757,E,083542,A,A*5A
$IIMWV,039,R,10.8,N,A*10
$IIMWV,061,T,08.0,N,A*1A
$IIRMC,083542,A,5527.538,N,01418.757,E,04.4,136,120821,04,E,A*0E
$IIGLL,5527.537,N,01418.758,E,083543,A,A*5B
$IIMWV,041,R,10.8,N,A*1F
$IIMWV,059,T,07.8,N,A*16
$IIRMC,083543,A,5527.537,N,01418.758,E,04.4,134,120821,04,E,A*0D
$IIGLL,5527.536,N,01418.759,E,083544,A,A*5C
$IIMWV,040,R,10.8,N,A*1E
$IIMWV,063,T,08.0,N,A*18
$IIRMC,083544,A,5527.536,N,01418.759,E,04.4,133,120821,04,E,A*0D
$IIGLL,5527.535,N,01418.761,E,083545,A,A*55
$IIMWV,041,R,11.1,N,A*17
$IIMWV,060,T,07.9,N,A*1D
$IIRMC,083545,A,5527.535,N,01418.761,E,04.5,133,120821,04,E,A*05
$IIGLL,5527.534,N,01418.763,E,083546,A,A*55
$IIMWV,042,R,11.2,N,A*17
$IIMWV,063,T,08.2,N,A*1A
$IIRMC,083546,A,5527.534,N,01418.763,E,04.4,134,120821,04,E,A*03
$IIGLL,5527.533,N,01418.764,E,083547,A,A*54
$IIMWV,042,R,11.2,N,A*17
$IIMWV,063,T,08.4,N,A*1C
$IIRMC,083547,A,5527.533,N,01418.764,E,04.4,133,120821,04,E,A*05
$IIGLL,5527.533,N,01418.766,E,083548,A,A*59
$IIMWV,041,R,11.2,N,A*14
$IIMWV,063,T,08.4,N,A*1C
$IIRMC,083548,A,5527.533,N,01418.766,E,04.4,135,120821,04,E,A*0E
$IIGLL,5527.532,N,01418.767,E,083549,A,A*58
$IIMWV,042,R,11.3,N,A*16
$IIMWV,061,T,08.3,N,A*19
$IIRMC,083549,A,5527.532,N,01418.767,E,04.5,134,120821,04,E,A*0F
$IIGLL,5527.531,N,01418.769,E,083550,A,A*5D
$IIMWV,041,R,11.5,N,A*13
$IIMWV,063,T,08.4,N,A*1C
$IIRMC,083550,A,5527.531,N,01418.769,E,04.5,136,120821,04,E,A*08
$IIGLL,5527.530,N,01418.770,E,083551,A,A*55
$IIMWV,041,R,11.2,N,A*14
$IIMWV,061,T,08.5,N,A*1F
$IIRMC,083551,A,5527.530,N,01418.770,E,04.5,136,120821,04,E,A*00
$IIGLL,5527.529,N,01418.772,E,083552,A,A*5C
$IIMWV,041,R,11.3,N,A*15
$IIMWV,062,T,08.2,N,A*1B
$IIRMC,083552,A,5527.529,N,01418.772,E,04.4,135,120821,04,E,A*0B
$IIGLL,5527.528,N,01418.773,E,083553,A,A*5D
$IIMWV,042,R,11.2,N,A*17
$IIMWV,061,T,08.4,N,A*1E
$IIRMC,083553,A,5527.528,N,01418.773,E,04.4,135,120821,04,E,A*0A
$IIGLL,5527.527,N,01418.775,E,083554,A,A*53
$IIMWV,042,R,11.0,N,A*15
$IIMWV,063,T,08.4,N,A*1C
$IIRMC,083555,A,5527.526,N,01418.776,E,04.5,134,120821,04,E,A*07
$IIGLL,5527.526,N,01418.776,E,083555,A,A*50
$IIMWV,043,R,11.1,N,A*15
$IIMWV,064,T,08.1,N,A*1E
$IIRMC,083556,A,5527.525,N,01418.778,E,04.5,134,120821,04,E,A*09
$IIGLL,5527.525,N,01418.778,E,083556,A,A*5E
$IIMWV,043,R,10.8,N,A*1D
$IIMWV,064,T,08.3,N,A*1C
$IIRMC,083557,A,5527.525,N,01418.779,E,04.5,132,120821,04,E,A*0F
$IIGLL,5527.525,N,01418.779,E,083557,A,A*5E
$IIMWV,044,R,10.9,N,A*1B
$IIMWV,066,T,08.0,N,A*1D
$IIRMC,083558,A,5527.524,N,01418.780,E,04.4,133,120821,04,E,A*07
$IIGLL,5527.524,N,01418.780,E,083558,A,A*56
$IIMWV,045,R,10.9,N,A*1A
$IIMWV,066,T,08.1,N,A*1C
$IIRMC,083559,A,5527.523,N,01418.782,E,04.5,132,120821,04,E,A*03
$IIGLL,5527.523,N,01418.782,E,083559,A,A*52
$IIMWV,045,R,11.0,N,A*12
$IIMWV,067,T,08.3,N,A*1F
$IIRMC,083600,A,5527.522,N,01418.784,E,04.5,131,120821,04,E,A*08
$IIGLL,5527.522,N,01418.784,E,083600,A,A*5A
$IIMWV,046,R,11.1,N,A*10
$IIMWV,067,T,08.4,N,A*18
$IIRMC,083601,A,5527.521,N,01418.785,E,04.5,131,120821,04,E,A*0B
$IIGLL,5527.521,N,01418.785,E,083601,A,A*59
$IIMWV,045,R,11.1,N,A*13
$IIMWV,069,T,08.4,N,A*16
$IIRMC,083602,A,5527.520,N,01418.787,E,04.4,131,120821,04,E,A*0A
$IIGLL,5527.520,N,01418.787,E,083602,A,A*59
$IIMWV,045,R,11.0,N,A*12
$IIMWV,067,T,08.4,N,A*18
$IIRMC,083603,A,5527.520,N,01418.789,E,04.5,129,120821,04,E,A*0D
$IIGLL,5527.520,N,01418.789,E,083603,A,A*56
$IIMWV,045,R,10.9,N,A*1A
$IIMWV,067,T,08.5,N,A*19
$IIRMC,083604,A,5527.519,N,01418.791,E,04.5,132,120821,04,E,A*03
$IIGLL,5527.519,N,01418.791,E,083604,A,A*52
$IIMWV,043,R,10.9,N,A*1C
$IIMWV,067,T,08.3,N,A*1F
$IIRMC,083605,A,5527.518,N,01418.792,E,04.4,132,120821,04,E,A*01
$IIGLL,5527.518,N,01418.792,E,083605,A,A*51
$IIMWV,044,R,10.8,N,A*1A
$IIMWV,065,T,08.1,N,A*1F
$IIRMC,083606,A,5527.517,N,01418.794,E,04.4,133,120821,04,E,A*0A
$IIGLL,5527.517,N,01418.794,E,083606,A,A*5B
$IIMWV,043,R,10.9,N,A*1C
$IIMWV,066,T,08.1,N,A*1C
$IIRMC,083607,A,5527.516,N,01418.795,E,04.4,133,120821,04,E,A*0B
$IIGLL,5527.516,N,01418.795,E,083607,A,A*5A
$IIMWV,042,R,10.8,N,A*1C
$IIMWV,065,T,08.1,N,A*1F
$IIRMC,083608,A,5527.516,N,01418.797,E,04.4,133,120821,04,E,A*06
$IIGLL,5527.516,N,01418.797,E,083608,A,A*57
$IIMWV,042,R,10.7,N,A*13
$IIMWV,064,T,08.0,N,A*1F
$IIRMC,083609,A,5527.515,N,01418.798,E,04.4,135,120821,04,E,A*0D
$IIGLL,5527.515,N,01418.798,E,083609,A,A*5A
$IIMWV,040,R,10.4,N,A*12
$IIMWV,064,T,07.9,N,A*19
$IIRMC,083610,A,5527.514,N,01418.800,E,04.4,133,120821,04,E,A*0C
$IIGLL,5527.514,N,01418.800,E,083610,A,A*5D
$IIMWV,041,R,10.6,N,A*11
$IIMWV,061,T,07.5,N,A*10
$IIRMC,083611,A,5527.513,N,01418.802,E,04.4,133,120821,04,E,A*08
$IIGLL,5527.513,N,01418.802,E,083611,A,A*59
$IIMWV,041,R,10.5,N,A*12
$IIMWV,063,T,07.7,N,A*10
$IIRMC,083612,A,5527.512,N,01418.803,E,04.4,133,120821,04,E,A*0B
$IIGLL,5527.512,N,01418.803,E,083612,A,A*5A
$IIMWV,041,R,10.5,N,A*12
$IIMWV,064,T,07.6,N,A*16
$IIRMC,083613,A,5527.512,N,01418.805,E,04.3,132,120821,04,E,A*0A
$IIGLL,5527.512,N,01418.805,E,083613,A,A*5D
$IIMWV,041,R,10.5,N,A*12
$IIMWV,064,T,07.6,N,A*16
$IIRMC,083614,A,5527.511,N,01418.807,E,04.3,132,120821,04,E,A*0C
$IIGLL,5527.511,N,01418.807,E,083614,A,A*5B
$IIMWV,041,R,10.7,N,A*10
$IIMWV,063,T,07.7,N,A*10
$IIRMC,083615,A,5527.510,N,01418.808,E,04.3,134,120821,04,E,A*05
$IIGLL,5527.510,N,01418.808,E,083615,A,A*54
$IIMWV,042,R,10.7,N,A*13
$IIMWV,062,T,07.9,N,A*1F
$IIRMC,083616,A,5527.509,N,01418.809,E,04.4,134,120821,04,E,A*08
$IIGLL,5527.509,N,01418.809,E,083616,A,A*5E
$IIMWV,042,R,10.8,N,A*1C
$IIMWV,063,T,07.9,N,A*1E
$IIRMC,083617,A,5527.508,N,01418.811,E,04.4,132,120821,04,E,A*07
$IIGLL,5527.508,N,01418.811,E,083617,A,A*57
$IIMWV,042,R,10.9,N,A*1D
$IIMWV,064,T,08.0,N,A*1F
$IIRMC,083618,A,5527.507,N,01418.812,E,04.3,134,120821,04,E,A*05
$IIGLL,5527.507,N,01418.812,E,083618,A,A*54
$IIMWV,041,R,11.0,N,A*16
$IIMWV,064,T,08.1,N,A*1E
$IIRMC,083619,A,5527.506,N,01418.814,E,04.3,134,120821,04,E,A*03
$IIGLL,5527.506,N,01418.814,E,083619,A,A*52
$IIMWV,042,R,11.1,N,A*14
$IIMWV,061,T,08.1,N,A*1B
$IIRMC,083620,A,5527.506,N,01418.815,E,04.4,134,120821,04,E,A*0F
$IIGLL,5527.506,N,01418.815,E,083620,A,A*59
$IIMWV,041,R,11.2,N,A*14
$IIMWV,062,T,08.3,N,A*1A
$IIRMC,083621,A,5527.505,N,01418.817,E,04.4,135,120821,04,E,A*0E
$IIGLL,5527.505,N,01418.817,E,083621,A,A*59
$IIMWV,040,R,11.4,N,A*13
$IIMWV,061,T,08.3,N,A*19
$IIRMC,083622,A,5527.504,N,01418.818,E,04.4,134,120821,04,E,A*02
$IIGLL,5527.504,N,01418.818,E,083622,A,A*54
$IIMWV,042,R,11.4,N,A*11
$IIMWV,059,T,08.3,N,A*12
$IIRMC,083623,A,5527.503,N,01418.820,E,04.4,135,120821,04,E,A*0E
$IIGLL,5527.503,N,01418.820,E,083623,A,A*59
$IIMWV,041,R,11.6,N,A*10
$IIMWV,062,T,08.5,N,A*1C
$IIRMC,083624,A,5527.502,N,01418.821,E,04.4,136,120821,04,E,A*0A
$IIGLL,5527.502,N,01418.821,E,083624,A,A*5E
$IIMWV,041,R,11.6,N,A*10
$IIMWV,060,T,08.7,N,A*1C
$IIRMC,083625,A,5527.501,N,01418.823,E,04.5,136,120821,04,E,A*0B
$IIGLL,5527.501,N,01418.823,E,083625,A,A*5E
$IIMWV,041,R,11.7,N,A*11
$IIMWV,060,T,08.7,N,A*1C
$IIRMC,083626,A,5527.500,N,01418.824,E,04.5,136,120821,04,E,A*0E
$IIGLL,5527.500,N,01418.824,E,083626,A,A*5B
$IIMWV,041,R,11.6,N,A*10
$IIMWV,061,T,08.7,N,A*1D
$IIRMC,083627,A,5527.499,N,01418.826,E,04.5,137,120821,04,E,A*0D
$IIGLL,5527.499,N,01418.826,E,083627,A,A*59
$IIMWV,041,R,11.5,N,A*13
$IIMWV,061,T,08.6,N,A*1C
$IIRMC,083628,A,5527.499,N,01418.828,E,04.5,136,120821,04,E,A*0D
$IIGLL,5527.499,N,01418.828,E,083628,A,A*58
$IIMWV,040,R,11.5,N,A*12
$IIMWV,061,T,08.5,N,A*1F
$IIRMC,083629,A,5527.498,N,01418.829,E,04.6,135,120821,04,E,A*0C
$IIGLL,5527.498,N,01418.829,E,083629,A,A*59
$IIMWV,041,R,11.5,N,A*13
$IIMWV,059,T,08.4,N,A*15
$IIRMC,083630,A,5527.497,N,01418.831,E,04.6,136,120821,04,E,A*01
$IIGLL,5527.497,N,01418.831,E,083630,A,A*57
$IIMWV,040,R,11.4,N,A*13
$IIMWV,062,T,08.5,N,A*1C
$IIRMC,083631,A,5527.496,N,01418.832,E,04.6,135,120821,04,E,A*01
$IIGLL,5527.496,N,01418.832,E,083631,A,A*54
$IIMWV,041,R,11.4,N,A*12
$IIMWV,060,T,08.2,N,A*19
$IIRMC,083632,A,5527.495,N,01418.834,E,04.5,135,120821,04,E,A*04
$IIGLL,5527.495,N,01418.834,E,083632,A,A*52
$IIMWV,041,R,11.3,N,A*15
$IIMWV,063,T,08.4,N,A*1C
$IIRMC,083633,A,5527.494,N,01418.835,E,04.5,136,120821,04,E,A*06
$IIGLL,5527.494,N,01418.835,E,083633,A,A*53
$IIMWV,039,R,11.2,N,A*1B
$IIMWV,062,T,08.3,N,A*1A
$IIRMC,083634,A,5527.493,N,01418.836,E,04.5,136,120821,04,E,A*05
$IIGLL,5527.493,N,01418.836,E,083634,A,A*50
$IIMWV,039,R,11.1,N,A*18
$IIMWV,059,T,08.1,N,A*10
$IIRMC,083635,A,5527.492,N,01418.838,E,04.5,136,120821,04,E,A*0B
$IIGLL,5527.492,N,01418.838,E,083635,A,A*5E
$IIMWV,041,R,11.1,N,A*17
$IIMWV,059,T,08.0,N,A*11
$IIRMC,083636,A,5527.491,N,01418.839,E,04.5,137,120821,04,E,A*0B
$IIGLL,5527.491,N,01418.839,E,083636,A,A*5F
$IIMWV,039,R,10.9,N,A*11
$IIMWV,063,T,08.2,N,A*1A
$IIRMC,083637,A,5527.490,N,01418.841,E,04.5,137,120821,04,E,A*04
$IIGLL,5527.490,N,01418.841,E,083637,A,A*50
$IIMWV,040,R,11.0,N,A*17
$IIMWV,059,T,07.8,N,A*16
$IIRMC,083638,A,5527.489,N,01418.842,E,04.5,137,120821,04,E,A*00
$IIGLL,5527.489,N,01418.842,E,083638,A,A*54
$IIMWV,040,R,10.9,N,A*1F
$IIMWV,061,T,08.0,N,A*1A
$IIRMC,083639,A,5527.488,N,01418.844,E,04.4,137,120821,04,E,A*07
$IIGLL,5527.488,N,01418.844,E,083639,A,A*52
$IIMWV,040,R,11.0,N,A*17
$IIMWV,061,T,07.8,N,A*1D
$IIRMC,083640,A,5527.487,N,01418.845,E,04.5,137,120821,04,E,A*06
$IIGLL,5527.487,N,01418.845,E,083640,A,A*52
$IIMWV,040,R,11.0,N,A*17
$IIMWV,060,T,08.0,N,A*1B
$IIRMC,083641,A,5527.486,N,01418.847,E,04.4,136,120821,04,E,A*04
$IIGLL,5527.486,N,01418.847,E,083641,A,A*50
$IIMWV,041,R,11.1,N,A*17
$IIMWV,061,T,08.0,N,A*1A
$IIRMC,083642,A,5527.486,N,01418.848,E,04.4,136,120821,04,E,A*08
$IIGLL,5527.486,N,01418.848,E,083642,A,A*5C
$IIMWV,041,R,11.1,N,A*17
$IIMWV,062,T,08.2,N,A*1B
$IIRMC,083643,A,5527.485,N,01418.850,E,04.5,135,120821,04,E,A*01
$IIGLL,5527.485,N,01418.850,E,083643,A,A*57
$IIMWV,041,R,11.4,N,A*12
$IIMWV,062,T,08.2,N,A*1B
$IIRMC,083644,A,5527.484,N,01418.851,E,04.5,135,120821,04,E,A*06
$IIGLL,5527.484,N,01418.851,E,083644,A,A*50
$IIMWV,041,R,11.4,N,A*12
$IIMWV,062,T,08.5,N,A*1C
$IIRMC,083645,A,5527.483,N,01418.853,E,04.5,135,120821,04,E,A*02
$IIGLL,5527.483,N,01418.853,E,083645,A,A*54
$IIMWV,041,R,11.6,N,A*10
$IIMWV,062,T,08.5,N,A*1C
$IIRMC,083646,A,5527.482,N,01418.854,E,04.5,136,120821,04,E,A*04
$IIGLL,5527.482,N,01418.854,E,083646,A,A*51
$IIMWV,039,R,11.5,N,A*1C
$IIMWV,061,T,08.6,N,A*1C
$IIRMC,083647,A,5527.481,N,01418.856,E,04.5,138,120821,04,E,A*0A
$IIGLL,5527.481,N,01418.856,E,083647,A,A*51
$IIMWV,039,R,11.5,N,A*1C
$IIMWV,058,T,08.4,N,A*14
$IIRMC,083648,A,5527.480,N,01418.858,E,04.5,136,120821,04,E,A*04
$IIGLL,5527.480,N,01418.858,E,083648,A,A*51
$IIMWV,040,R,11.9,N,A*1E
$IIMWV,058,T,08.4,N,A*14
$IIRMC,083649,A,5527.479,N,01418.859,E,04.5,137,120821,04,E,A*03
$IIGLL,5527.479,N,01418.859,E,083649,A,A*57
$IIMWV,040,R,11.6,N,A*11
$IIMWV,059,T,08.8,N,A*19
$IIRMC,083650,A,5527.478,N,01418.861,E,04.6,138,120821,04,E,A*0D
$IIGLL,5527.478,N,01418.861,E,083650,A,A*55
$IIMWV,040,R,11.7,N,A*10
$IIMWV,059,T,08.6,N,A*17
$IIRMC,083651,A,5527.478,N,01418.862,E,04.5,137,120821,04,E,A*03
$IIGLL,5527.478,N,01418.862,E,083651,A,A*57
$IIMWV,041,R,11.6,N,A*10
$IIMWV,059,T,08.6,N,A*17
$IIRMC,083652,A,5527.477,N,01418.863,E,04.5,136,120821,04,E,A*0F
$IIGLL,5527.477,N,01418.863,E,083652,A,A*5A
$IIMWV,041,R,11.7,N,A*11
$IIMWV,061,T,08.6,N,A*1C
$IIRMC,083653,A,5527.476,N,01418.865,E,04.4,137,120821,04,E,A*09
$IIGLL,5527.476,N,01418.865,E,083653,A,A*5C
$IIMWV,042,R,11.6,N,A*13
$IIMWV,061,T,08.7,N,A*1D
$IIRMC,083654,A,5527.475,N,01418.866,E,04.5,137,120821,04,E,A*0F
$IIGLL,5527.475,N,01418.866,E,083654,A,A*5B
$IIMWV,042,R,11.5,N,A*10
$IIMWV,062,T,08.7,N,A*1E
$IIRMC,083655,A,5527.474,N,01418.868,E,04.5,135,120821,04,E,A*03
$IIGLL,5527.474,N,01418.868,E,083655,A,A*55
$IIMWV,041,R,11.5,N,A*13
$IIMWV,063,T,08.6,N,A*1E
$IIRMC,083656,A,5527.473,N,01418.870,E,04.5,135,120821,04,E,A*0E
$IIGLL,5527.473,N,01418.870,E,083656,A,A*58
$IIMWV,041,R,11.4,N,A*12
$IIMWV,061,T,08.5,N,A*1F
$IIRMC,083657,A,5527.472,N,01418.871,E,04.5,134,120821,04,E,A*0E
$IIGLL,5527.472,N,01418.871,E,083657,A,A*59
$IIMWV,040,R,11.6,N,A*11
$IIMWV,062,T,08.5,N,A*1C
$IIRMC,083658,A,5527.472,N,01418.872,E,04.4,134,120821,04,E,A*03
$IIGLL,5527.472,N,01418.872,E,083658,A,A*55
$IIMWV,040,R,11.4,N,A*13
$IIMWV,059,T,08.6,N,A*17
$IIRMC,083659,A,5527.471,N,01418.874,E,04.5,135,120821,04,E,A*07
$IIGLL,5527.471,N,01418.874,E,083659,A,A*51
$IIMWV,040,R,11.4,N,A*13
$IIMWV,059,T,08.3,N,A*12
$IIRMC,083700,A,5527.470,N,01418.876,E,04.5,135,120821,04,E,A*09
$IIGLL,5527.470,N,01418.876,E,083700,A,A*5F
$IIMWV,042,R,11.3,N,A*16
$IIMWV,060,T,08.3,N,A*18
$IIRMC,083701,A,5527.469,N,01418.877,E,04.5,134,120821,04,E,A*00
$IIGLL,5527.469,N,01418.877,E,083701,A,A*57
$IIMWV,042,R,11.3,N,A*16
$IIMWV,063,T,08.4,N,A*1C
$IIRMC,083702,A,5527.468,N,01418.878,E,04.5,135,120821,04,E,A*0C
$IIGLL,5527.468,N,01418.878,E,083702,A,A*5A
$IIMWV,042,R,11.3,N,A*16
$IIMWV,063,T,08.4,N,A*1C
$IIRMC,083703,A,5527.467,N,01418.880,E,04.5,136,120821,04,E,A*06
$IIGLL,5527.467,N,01418.880,E,083703,A,A*53
$IIMWV,042,R,11.3,N,A*16
$IIMWV,063,T,08.4,N,A*1C
$IIRMC,083704,A,5527.466,N,01418.881,E,04.5,134,120821,04,E,A*03
$IIGLL,5527.466,N,01418.881,E,083704,A,A*54
$IIMWV,041,R,11.5,N,A*13
$IIMWV,063,T,08.4,N,A*1C
$IIRMC,083705,A,5527.466,N,01418.883,E,04.5,134,120821,04,E,A*00
$IIGLL,5527.466,N,01418.883,E,083705,A,A*57
$IIMWV,042,R,11.5,N,A*10
$IIMWV,061,T,08.5,N,A*1F
$IIRMC,083706,A,5527.464,N,01418.884,E,04.5,135,120821,04,E,A*07
$IIGLL,5527.464,N,01418.884,E,083706,A,A*51
$IIMWV,041,R,11.6,N,A*10
$IIMWV,063,T,08.6,N,A*1E
$IIRMC,083707,A,5527.464,N,01418.886,E,04.6,134,120821,04,E,A*06
$IIGLL,5527.464,N,01418.886,E,083707,A,A*52
$IIMWV,041,R,11.5,N,A*13
$IIMWV,061,T,08.6,N,A*1C
$IIRMC,083708,A,5527.463,N,01418.888,E,04.5,134,120821,04,E,A*03
$IIGLL,5527.463,N,01418.888,E,083708,A,A*54
$IIMWV,041,R,11.7,N,A*11
$IIMWV,062,T,08.5,N,A*1C
$IIRMC,083709,A,5527.462,N,01418.889,E,04.5,134,120821,04,E,A*02
$IIGLL,5527.462,N,01418.889,E,083709,A,A*55
$IIMWV,041,R,11.6,N,A*10
$IIMWV,061,T,08.7,N,A*1D
$IIRMC,083710,A,5527.461,N,01418.891,E,04.6,135,120821,04,E,A*02
$IIGLL,5527.461,N,01418.891,E,083710,A,A*57
$IIMWV,042,R,11.6,N,A*13
$IIMWV,061,T,08.6,N,A*1C
$IIRMC,083711,A,5527.460,N,01418.892,E,04.6,134,120821,04,E,A*00
$IIGLL,5527.460,N,01418.892,E,083711,A,A*54
$IIMWV,041,R,11.9,N,A*1F
$IIMWV,063,T,08.6,N,A*1E
$IIRMC,083712,A,5527.459,N,01418.893,E,04.6,134,120821,04,E,A*08
$IIGLL,5527.459,N,01418.893,E,083712,A,A*5C
$IIMWV,042,R,11.8,N,A*1D
$IIMWV,061,T,08.9,N,A*13
$IIRMC,083713,A,5527.459,N,01418.895,E,04.6,134,120821,04,E,A*0F
$IIGLL,5527.459,N,01418.895,E,083713,A,A*5B
$IIMWV,041,R,11.9,N,A*1F
$IIMWV,063,T,08.9,N,A*11
$IIRMC,083714,A,5527.458,N,01418.897,E,04.6,134,120821,04,E,A*0B
$IIGLL,5527.458,N,01418.897,E,083714,A,A*5F
$IIMWV,041,R,11.8,N,A*1E
$IIMWV,061,T,08.9,N,A*13
$IIRMC,083715,A,5527.457,N,01418.899,E,04.6,134,120821,04,E,A*0B
$IIGLL,5527.457,N,01418.899,E,083715,A,A*5F
$IIMWV,042,R,11.8,N,A*1D
$IIMWV,061,T,08.7,N,A*1D
$IIRMC,083716,A,5527.456,N,01418.900,E,04.6,135,120821,04,E,A*09
$IIGLL,5527.456,N,01418.900,E,083716,A,A*5C
$IIMWV,041,R,11.7,N,A*11
$IIMWV,063,T,08.9,N,A*11
$IIRMC,083717,A,5527.455,N,01418.902,E,04.6,135,120821,04,E,A*09
$IIGLL,5527.455,N,01418.902,E,083717,A,A*5C
$IIMWV,040,R,11.7,N,A*10
$IIMWV,062,T,08.7,N,A*1E
$IIRMC,083718,A,5527.454,N,01418.904,E,04.6,135,120821,04,E,A*01
$IIGLL,5527.454,N,01418.904,E,083718,A,A*54
$IIMWV,041,R,11.6,N,A*10
$IIMWV,059,T,08.6,N,A*17
$IIRMC,083719,A,5527.453,N,01418.905,E,04.6,135,120821,04,E,A*06
$IIGLL,5527.453,N,01418.905,E,083719,A,A*53
$IIMWV,040,R,11.7,N,A*10
$IIMWV,061,T,08.6,N,A*1C
$IIRMC,083720,A,5527.452,N,01418.907,E,04.6,135,120821,04,E,A*0F
$IIGLL,5527.452,N,01418.907,E,083720,A,A*5A
$IIMWV,040,R,11.6,N,A*11
$IIMWV,059,T,08.6,N,A*17
$IIRMC,083721,A,5527.451,N,01418.909,E,04.6,134,120821,04,E,A*02
$IIGLL,5527.451,N,01418.909,E,083721,A,A*56
$IIMWV,040,R,11.7,N,A*10
$IIMWV,060,T,08.5,N,A*1E
$IIRMC,083722,A,5527.450,N,01418.910,E,04.6,135,120821,04,E,A*09
$IIGLL,5527.450,N,01418.910,E,083722,A,A*5C
$IIMWV,040,R,11.7,N,A*10
$IIMWV,059,T,08.6,N,A*17
$IIRMC,083723,A,5527.449,N,01418.912,E,04.6,134,120821,04,E,A*03
$IIGLL,5527.449,N,01418.912,E,083723,A,A*57
$IIMWV,040,R,11.6,N,A*11
$IIMWV,059,T,08.6,N,A*17
$IIRMC,083724,A,5527.448,N,01418.913,E,04.6,134,120821,04,E,A*04
$IIGLL,5527.448,N,01418.913,E,083724,A,A*50
$IIMWV,041,R,11.7,N,A*11
$IIMWV,060,T,08.5,N,A*1E
$IIRMC,083725,A,5527.447,N,01418.915,E,04.6,135,120821,04,E,A*0D
$IIGLL,5527.447,N,01418.915,E,083725,A,A*58
$IIMWV,041,R,11.6,N,A*10
$IIMWV,062,T,08.7,N,A*1E
$IIRMC,083726,A,5527.446,N,01418.916,E,04.6,133,120821,04,E,A*0A
$IIGLL,5527.446,N,01418.916,E,083726,A,A*59
$IIMWV,042,R,11.7,N,A*12
$IIMWV,061,T,08.6,N,A*1C
$IIRMC,083727,A,5527.445,N,01418.918,E,04.6,134,120821,04,E,A*01
$IIGLL,5527.445,N,01418.918,E,083727,A,A*55
$IIMWV,042,R,11.7,N,A*12
$IIMWV,063,T,08.7,N,A*1F
$IIRMC,083728,A,5527.444,N,01418.920,E,04.6,135,120821,04,E,A*05
$IIGLL,5527.444,N,01418.920,E,083728,A,A*50
$IIMWV,040,R,11.6,N,A*11
$IIMWV,063,T,08.7,N,A*1F
$IIRMC,083729,A,5527.443,N,01418.921,E,04.6,133,120821,04,E,A*04
$IIGLL,5527.443,N,01418.921,E,083729,A,A*57
$IIMWV,041,R,11.6,N,A*10
$IIMWV,060,T,08.5,N,A*1E
$IIRMC,083730,A,5527.442,N,01418.922,E,04.6,135,120821,04,E,A*08
$IIGLL,5527.442,N,01418.922,E,083730,A,A*5D
$IIMWV,039,R,11.3,N,A*1A
$IIMWV,061,T,08.6,N,A*1C
$IIRMC,083731,A,5527.441,N,01418.924,E,04.7,134,120821,04,E,A*0C
$IIGLL,5527.441,N,01418.924,E,083731,A,A*59
$IIMWV,039,R,11.3,N,A*1A
$IIMWV,059,T,08.2,N,A*13
$IIRMC,083732,A,5527.440,N,01418.925,E,04.6,134,120821,04,E,A*0E
$IIGLL,5527.440,N,01418.925,E,083732,A,A*5A
$IIMWV,039,R,11.3,N,A*1A
$IIMWV,060,T,08.1,N,A*1A
$IIRMC,083733,A,5527.439,N,01418.927,E,04.6,135,120821,04,E,A*02
$IIGLL,5527.439,N,01418.927,E,083733,A,A*57
$IIMWV,039,R,11.2,N,A*1B
$IIMWV,059,T,08.2,N,A*13
$IIRMC,083734,A,5527.439,N,01418.929,E,04.7,135,120821,04,E,A*0A
$IIGLL,5527.439,N,01418.929,E,083734,A,A*5E
$IIMWV,039,R,11.2,N,A*1B
$IIMWV,060,T,08.1,N,A*1A
$IIRMC,083735,A,5527.438,N,01418.931,E,04.7,135,120821,04,E,A*03
$IIGLL,5527.438,N,01418.931,E,083735,A,A*57
$IIMWV,039,R,11.1,N,A*18
$IIMWV,060,T,08.0,N,A*1B
$IIRMC,083736,A,5527.437,N,01418.932,E,04.7,135,120821,04,E,A*0C
$IIGLL,5527.437,N,01418.932,E,083736,A,A*58
$IIMWV,039,R,11.1,N,A*18
$IIMWV,060,T,07.9,N,A*1D
$IIRMC,083737,A,5527.436,N,01418.934,E,04.7,134,120821,04,E,A*0B
$IIGLL,5527.436,N,01418.934,E,083737,A,A*5E
$IIMWV,040,R,11.1,N,A*16
$IIMWV,060,T,07.9,N,A*1D
$IIRMC,083738,A,5527.435,N,01418.936,E,04.7,135,120821,04,E,A*04
$IIGLL,5527.435,N,01418.936,E,083738,A,A*50
$IIMWV,041,R,11.1,N,A*17
$IIMWV,062,T,08.0,N,A*19
$IIRMC,083739,A,5527.434,N,01418.938,E,04.6,135,120821,04,E,A*0B
$IIGLL,5527.434,N,01418.938,E,083739,A,A*5E
$IIMWV,040,R,10.9,N,A*1F
$IIMWV,064,T,08.1,N,A*1E
$IIRMC,083740,A,5527.434,N,01418.939,E,04.6,134,120821,04,E,A*05
$IIGLL,5527.434,N,01418.939,E,083740,A,A*51
$IIMWV,041,R,11.0,N,A*16
$IIMWV,062,T,07.8,N,A*1E
$IIRMC,083741,A,5527.433,N,01418.941,E,04.6,134,120821,04,E,A*0C
$IIGLL,5527.433,N,01418.941,E,083741,A,A*58
$IIMWV,040,R,11.1,N,A*16
$IIMWV,063,T,08.0,N,A*18
$IIRMC,083742,A,5527.432,N,01418.942,E,04.6,134,120821,04,E,A*0D
$IIGLL,5527.432,N,01418.942,E,083742,A,A*59
$IIMWV,040,R,11.0,N,A*17
$IIMWV,061,T,08.1,N,A*1B
$IIRMC,083743,A,5527.431,N,01418.944,E,04.5,134,120821,04,E,A*0A
$IIGLL,5527.431,N,01418.944,E,083743,A,A*5D
$IIMWV,040,R,11.0,N,A*17
$IIMWV,061,T,07.9,N,A*1C
$IIRMC,083744,A,5527.430,N,01418.946,E,04.5,133,120821,04,E,A*09
$IIGLL,5527.430,N,01418.946,E,083744,A,A*59
$IIMWV,040,R,11.3,N,A*14
$IIMWV,061,T,08.0,N,A*1A
$IIRMC,083745,A,5527.429,N,01418.947,E,04.5,132,120821,04,E,A*00
$IIGLL,5527.428,N,01418.949,E,083746,A,A*5D
$IIMWV,041,R,11.5,N,A*13
$IIMWV,063,T,08.4,N,A*1C
$IIRMC,083746,A,5527.428,N,01418.949,E,04.6,134,120821,04,E,A*09
$IIGLL,5527.427,N,01418.951,E,083747,A,A*5A
$IIMWV,042,R,11.5,N,A*10
$IIMWV,062,T,08.5,N,A*1C
$IIRMC,083747,A,5527.427,N,01418.951,E,04.6,133,120821,04,E,A*09
$IIGLL,5527.426,N,01418.952,E,083748,A,A*57
$IIMWV,043,R,11.8,N,A*1C
$IIMWV,063,T,08.6,N,A*1E
$IIRMC,083748,A,5527.426,N,01418.952,E,04.5,132,120821,04,E,A*06
$IIGLL,5527.425,N,01418.953,E,083749,A,A*54
$IIMWV,042,R,11.5,N,A*10
$IIMWV,063,T,08.9,N,A*11
$IIRMC,083749,A,5527.425,N,01418.953,E,04.6,134,120821,04,E,A*00
$IIGLL,5527.425,N,01418.956,E,083750,A,A*59
$IIMWV,042,R,11.6,N,A*13
$IIMWV,063,T,08.6,N,A*1E
$IIRMC,083750,A,5527.425,N,01418.956,E,04.5,133,120821,04,E,A*09
$IIGLL,5527.424,N,01418.957,E,083751,A,A*58
$IIMWV,042,R,11.6,N,A*13
$IIMWV,063,T,08.6,N,A*1E
$IIRMC,083751,A,5527.424,N,01418.957,E,04.5,133,120821,04,E,A*08
$IIGLL,5527.423,N,01418.959,E,083752,A,A*52
$IIMWV,043,R,11.7,N,A*13
$IIMWV,063,T,08.6,N,A*1E
$IIRMC,083752,A,5527.423,N,01418.959,E,04.5,133,120821,04,E,A*02
$IIGLL,5527.422,N,01418.960,E,083753,A,A*58
$IIMWV,042,R,11.5,N,A*10
$IIMWV,063,T,08.8,N,A*10
$IIRMC,083753,A,5527.422,N,01418.960,E,04.5,133,120821,04,E,A*08
$IIGLL,5527.421,N,01418.962,E,083754,A,A*5E
$IIMWV,043,R,11.6,N,A*12
$IIMWV,063,T,08.6,N,A*1E
$IIRMC,083754,A,5527.421,N,01418.962,E,04.5,132,120821,04,E,A*0F
$IIGLL,5527.420,N,01418.963,E,083755,A,A*5F
$IIMWV,042,R,11.5,N,A*10
$IIMWV,063,T,08.7,N,A*1F
$IIRMC,083755,A,5527.420,N,01418.963,E,04.5,132,120821,04,E,A*0E
$IIGLL,5527.419,N,01418.965,E,083756,A,A*50
$IIMWV,043,R,11.5,N,A*11
$IIMWV,063,T,08.6,N,A*1E
$IIRMC,083756,A,5527.419,N,01418.965,E,04.5,132,120821,04,E,A*01
$IIGLL,5527.418,N,01418.966,E,083757,A,A*53
$IIMWV,041,R,11.4,N,A*12
$IIMWV,064,T,08.6,N,A*19
$IIRMC,083757,A,5527.418,N,01418.966,E,04.5,132,120821,04,E,A*02
$IIGLL,5527.417,N,01418.968,E,083758,A,A*5D
$IIMWV,043,R,11.3,N,A*17
$IIMWV,062,T,08.5,N,A*1C
$IIRMC,083758,A,5527.417,N,01418.968,E,04.5,133,120821,04,E,A*0D
$IIGLL,5527.416,N,01418.969,E,083759,A,A*5C
$IIMWV,042,R,11.3,N,A*16
$IIMWV,064,T,08.4,N,A*1B
$IIRMC,083759,A,5527.416,N,01418.969,E,04.5,131,120821,04,E,A*0E
$IIGLL,5527.416,N,01418.971,E,083800,A,A*56
$IIMWV,042,R,11.1,N,A*14
$IIMWV,063,T,08.4,N,A*1C
$IIRMC,083800,A,5527.416,N,01418.971,E,04.5,131,120821,04,E,A*04
$IIGLL,5527.415,N,01418.972,E,083801,A,A*57
$IIMWV,043,R,11.2,N,A*16
$IIMWV,063,T,08.2,N,A*1A
$IIRMC,083801,A,5527.415,N,01418.972,E,04.4,132,120821,04,E,A*07
$IIGLL,5527.414,N,01418.974,E,083802,A,A*53
$IIMWV,044,R,11.1,N,A*12
$IIMWV,064,T,08.4,N,A*1B
$IIRMC,083802,A,5527.414,N,01418.974,E,04.4,133,120821,04,E,A*02
$IIGLL,5527.414,N,01418.975,E,083803,A,A*53
$IIMWV,045,R,11.3,N,A*11
$IIMWV,065,T,08.3,N,A*1D
$IIRMC,083803,A,5527.414,N,01418.975,E,04.4,132,120821,04,E,A*03
$IIGLL,5527.413,N,01418.977,E,083804,A,A*51
$IIMWV,044,R,11.3,N,A*10
$IIMWV,066,T,08.7,N,A*1A
$IIRMC,083804,A,5527.413,N,01418.977,E,04.4,132,120821,04,E,A*01
$IIGLL,5527.412,N,01418.978,E,083805,A,A*5E
$IIMWV,045,R,11.3,N,A*11
$IIMWV,064,T,08.5,N,A*1A
$IIRMC,083805,A,5527.412,N,01418.978,E,04.5,132,120821,04,E,A*0F
$IIGLL,5527.411,N,01418.980,E,083806,A,A*59
$IIMWV,043,R,11.3,N,A*17
$IIMWV,066,T,08.7,N,A*1A
$IIRMC,083806,A,5527.411,N,01418.980,E,04.5,133,120821,04,E,A*09
$IIGLL,5527.410,N,01418.982,E,083807,A,A*5B
$IIMWV,045,R,11.3,N,A*11
$IIMWV,064,T,08.4,N,A*1B
$IIRMC,083807,A,5527.410,N,01418.982,E,04.4,131,120821,04,E,A*08
$IIGLL,5527.409,N,01418.983,E,083808,A,A*5D
$IIMWV,044,R,11.7,N,A*14
$IIMWV,066,T,08.7,N,A*1A
$IIRMC,083808,A,5527.409,N,01418.983,E,04.4,131,120821,04,E,A*0E
$IIGLL,5527.408,N,01418.985,E,083809,A,A*5B
$IIMWV,044,R,11.6,N,A*15
$IIMWV,063,T,08.9,N,A*11
$IIRMC,083809,A,5527.408,N,01418.985,E,04.4,133,120821,04,E,A*0A
$IIGLL,5527.407,N,01418.987,E,083810,A,A*5E
$IIMWV,043,R,11.7,N,A*13
$IIMWV,064,T,08.9,N,A*16
$IIRMC,083810,A,5527.407,N,01418.987,E,04.5,133,120821,04,E,A*0E
$IIGLL,5527.407,N,01418.989,E,083811,A,A*51
$IIMWV,043,R,11.7,N,A*13
$IIMWV,063,T,08.8,N,A*10
$IIRMC,083811,A,5527.407,N,01418.989,E,04.5,134,120821,04,E,A*06
$IIGLL,5527.406,N,01418.990,E,083812,A,A*5B
$IIMWV,042,R,11.8,N,A*1D
$IIMWV,063,T,08.8,N,A*10
$IIRMC,083812,A,5527.406,N,01418.990,E,04.5,133,120821,04,E,A*0B
$IIGLL,5527.405,N,01418.992,E,083813,A,A*5B
$IIMWV,042,R,11.5,N,A*10
$IIMWV,062,T,08.9,N,A*10
$IIRMC,083813,A,5527.405,N,01418.992,E,04.5,134,120821,04,E,A*0C
$IIGLL,5527.404,N,01418.993,E,083814,A,A*5C
$IIMWV,042,R,11.6,N,A*13
$IIMWV,063,T,08.6,N,A*1E
$IIRMC,083814,A,5527.404,N,01418.993,E,04.5,134,120821,04,E,A*0B
$IIGLL,5527.403,N,01418.995,E,083815,A,A*5C
$IIMWV,041,R,11.4,N,A*12
$IIMWV,063,T,08.6,N,A*1E
$IIRMC,083815,A,5527.403,N,01418.995,E,04.5,135,120821,04,E,A*0A
$IIGLL,5527.402,N,01418.996,E,083816,A,A*5D
$IIMWV,041,R,11.5,N,A*13
$IIMWV,062,T,08.5,N,A*1C
$IIRMC,083816,A,5527.402,N,01418.996,E,04.6,134,120821,04,E,A*09
$IIGLL,5527.401,N,01418.997,E,083817,A,A*5E
$IIMWV,040,R,11.5,N,A*12
$IIMWV,062,T,08.5,N,A*1C
$IIRMC,083817,A,5527.401,N,01418.997,E,04.5,134,120821,04,E,A*09
$IIGLL,5527.400,N,01418.999,E,083818,A,A*5E
$IIMWV,040,R,11.5,N,A*12
$IIMWV,059,T,08.4,N,A*15
$IIRMC,083818,A,5527.400,N,01418.999,E,04.6,135,120821,04,E,A*0B
$IIGLL,5527.399,N,01419.001,E,083819,A,A*51
$IIMWV,040,R,11.4,N,A*13
$IIMWV,060,T,08.4,N,A*1F
$IIRMC,083819,A,5527.399,N,01419.001,E,04.6,135,120821,04,E,A*04
$IIGLL,5527.399,N,01419.002,E,083820,A,A*58
$IIMWV,040,R,11.5,N,A*12
$IIMWV,060,T,08.2,N,A*19
$IIRMC,083820,A,5527.399,N,01419.002,E,04.6,135,120821,04,E,A*0D
$IIGLL,5527.398,N,01419.003,E,083821,A,A*59
$IIMWV,040,R,11.4,N,A*13
$IIMWV,060,T,08.4,N,A*1F
$IIRMC,083821,A,5527.398,N,01419.003,E,04.6,137,120821,04,E,A*0E
$IIGLL,5527.397,N,01419.005,E,083822,A,A*53
$IIMWV,040,R,11.3,N,A*14
$IIMWV,060,T,08.2,N,A*19
$IIRMC,083822,A,5527.397,N,01419.005,E,04.6,136,120821,04,E,A*05
$IIGLL,5527.396,N,01419.006,E,083823,A,A*50
$IIMWV,042,R,11.5,N,A*10
$IIMWV,060,T,08.2,N,A*19
$IIRMC,083823,A,5527.396,N,01419.006,E,04.6,135,120821,04,E,A*05
$IIGLL,5527.395,N,01419.008,E,083824,A,A*5A
$IIMWV,041,R,11.3,N,A*15
$IIMWV,063,T,08.6,N,A*1E
$IIRMC,083824,A,5527.395,N,01419.008,E,04.6,136,120821,04,E,A*0C
$IIGLL,5527.395,N,01419.010,E,083825,A,A*52
$IIMWV,042,R,11.5,N,A*10
$IIMWV,063,T,08.3,N,A*1B
$IIRMC,083825,A,5527.395,N,01419.010,E,04.6,135,120821,04,E,A*07
$IIGLL,5527.394,N,01419.012,E,083826,A,A*52
$IIMWV,042,R,11.4,N,A*11
$IIMWV,063,T,08.6,N,A*1E
$IIRMC,083826,A,5527.394,N,01419.012,E,04.5,134,120821,04,E,A*05
$IIGLL,5527.393,N,01419.013,E,083827,A,A*55
$IIMWV,043,R,11.6,N,A*12
$IIMWV,063,T,08.5,N,A*1D
$IIRMC,083827,A,5527.393,N,01419.013,E,04.5,133,120821,04,E,A*05
$IIGLL,5527.392,N,01419.015,E,083828,A,A*5D
$IIMWV,042,R,11.5,N,A*10
$IIMWV,063,T,08.7,N,A*1F
$IIRMC,083828,A,5527.392,N,01419.015,E,04.4,132,120821,04,E,A*0D
$IIGLL,5527.391,N,01419.016,E,083829,A,A*5C
$IIMWV,043,R,11.7,N,A*13
$IIMWV,062,T,08.7,N,A*1E
$IIRMC,083829,A,5527.391,N,01419.016,E,04.4,132,120821,04,E,A*0C
$IIGLL,5527.390,N,01419.018,E,083830,A,A*5B
$IIMWV,043,R,11.6,N,A*12
$IIMWV,063,T,08.9,N,A*11
$IIRMC,083830,A,5527.390,N,01419.018,E,04.5,132,120821,04,E,A*0A
$IIGLL,5527.389,N,01419.019,E,083831,A,A*53
$IIMWV,043,R,11.6,N,A*12
$IIMWV,063,T,08.7,N,A*1F
$IIRMC,083831,A,5527.389,N,01419.019,E,04.5,133,120821,04,E,A*03
$IIGLL,5527.388,N,01419.021,E,083832,A,A*5A
$IIMWV,043,R,11.7,N,A*13
$IIMWV,063,T,08.7,N,A*1F
$IIRMC,083832,A,5527.388,N,01419.021,E,04.5,132,120821,04,E,A*0B
$IIGLL,5527.388,N,01419.023,E,083833,A,A*59
$IIMWV,043,R,11.5,N,A*11
$IIMWV,063,T,08.8,N,A*10
$IIRMC,083833,A,5527.388,N,01419.023,E,04.5,134,120821,04,E,A*0E
$IIGLL,5527.387,N,01419.024,E,083834,A,A*56
$IIMWV,042,R,11.4,N,A*11
$IIMWV,064,T,08.6,N,A*19
$IIRMC,083834,A,5527.387,N,01419.024,E,04.5,133,120821,04,E,A*06
$IIGLL,5527.386,N,01419.026,E,083835,A,A*54
$IIMWV,044,R,11.3,N,A*10
$IIMWV,063,T,08.5,N,A*1D
$IIRMC,083835,A,5527.386,N,01419.026,E,04.5,134,120821,04,E,A*03
$IIGLL,5527.385,N,01419.028,E,083836,A,A*5A
$IIMWV,042,R,11.4,N,A*11
$IIMWV,065,T,08.5,N,A*1B
$IIRMC,083836,A,5527.385,N,01419.028,E,04.5,135,120821,04,E,A*0C
$IIGLL,5527.384,N,01419.029,E,083837,A,A*5B
$IIMWV,042,R,11.3,N,A*16
$IIMWV,063,T,08.5,N,A*1D
$IIRMC,083837,A,5527.384,N,01419.029,E,04.5,134,120821,04,E,A*0C
$IIGLL,5527.383,N,01419.031,E,083838,A,A*5A
$IIMWV,041,R,11.5,N,A*13
$IIMWV,063,T,08.4,N,A*1C
$IIRMC,083838,A,5527.383,N,01419.031,E,04.5,133,120821,04,E,A*0A
$IIGLL,5527.382,N,01419.034,E,083839,A,A*5F
$IIMWV,042,R,11.3,N,A*16
$IIMWV,061,T,08.5,N,A*1F
$IIRMC,083839,A,5527.382,N,01419.034,E,04.5,135,120821,04,E,A*09
$IIGLL,5527.381,N,01419.035,E,083840,A,A*53
$IIMWV,041,R,11.4,N,A*12
$IIMWV,063,T,08.4,N,A*1C
$IIRMC,083840,A,5527.381,N,01419.035,E,04.5,134,120821,04,E,A*04
$IIGLL,5527.381,N,01419.037,E,083841,A,A*50
$IIMWV,042,R,11.2,N,A*17
$IIMWV,062,T,08.5,N,A*1C
$IIRMC,083841,A,5527.381,N,01419.037,E,04.6,133,120821,04,E,A*03
$IIGLL,5527.380,N,01419.038,E,083842,A,A*5D
$IIMWV,042,R,11.2,N,A*17
$IIMWV,064,T,08.3,N,A*1C
$IIRMC,083842,A,5527.380,N,01419.038,E,04.5,133,120821,04,E,A*0D
$IIGLL,5527.379,N,01419.040,E,083843,A,A*55
$IIMWV,043,R,11.1,N,A*15
$IIMWV,064,T,08.3,N,A*1C
$IIRMC,083843,A,5527.379,N,01419.040,E,04.5,133,120821,04,E,A*05
$IIGLL,5527.378,N,01419.041,E,083844,A,A*52
$IIMWV,042,R,11.1,N,A*14
$IIMWV,064,T,08.3,N,A*1C
$IIRMC,083844,A,5527.378,N,01419.041,E,04.5,134,120821,04,E,A*05
$IIGLL,5527.377,N,01419.043,E,083845,A,A*5E
$IIMWV,043,R,11.0,N,A*14
$IIMWV,063,T,08.2,N,A*1A
$IIRMC,083845,A,5527.377,N,01419.043,E,04.5,133,120821,04,E,A*0E
$IIGLL,5527.376,N,01419.045,E,083846,A,A*5A
$IIMWV,043,R,11.0,N,A*14
$IIMWV,065,T,08.1,N,A*1F
$IIRMC,083846,A,5527.376,N,01419.045,E,04.4,134,120821,04,E,A*0C
$IIGLL,5527.375,N,01419.046,E,083847,A,A*5B
$IIMWV,043,R,10.9,N,A*1C
$IIMWV,064,T,08.2,N,A*1D
$IIRMC,083847,A,5527.375,N,01419.046,E,04.5,134,120821,04,E,A*0C
$IIGLL,5527.374,N,01419.048,E,083848,A,A*5B
$IIMWV,044,R,10.9,N,A*1B
$IIMWV,065,T,08.1,N,A*1F
$IIRMC,083848,A,5527.374,N,01419.048,E,04.5,132,120821,04,E,A*0A
$IIGLL,5527.373,N,01419.049,E,083849,A,A*5C
$IIMWV,044,R,10.9,N,A*1B
$IIMWV,066,T,08.1,N,A*1C
$IIRMC,083849,A,5527.373,N,01419.049,E,04.5,132,120821,04,E,A*0D
$IIGLL,5527.372,N,01419.051,E,083850,A,A*5C
$IIMWV,044,R,11.0,N,A*13
$IIMWV,066,T,08.1,N,A*1C
$IIRMC,083850,A,5527.372,N,01419.051,E,04.5,133,120821,04,E,A*0C
$IIGLL,5527.372,N,01419.052,E,083851,A,A*5E
$IIMWV,045,R,10.9,N,A*1A
$IIMWV,065,T,08.2,N,A*1C
$IIRMC,083851,A,5527.372,N,01419.052,E,04.5,133,120821,04,E,A*0E
$IIGLL,5527.371,N,01419.054,E,083852,A,A*58
$IIMWV,044,R,11.0,N,A*13
$IIMWV,067,T,08.3,N,A*1F
$IIRMC,083852,A,5527.371,N,01419.054,E,04.4,131,120821,04,E,A*0B
$IIGLL,5527.370,N,01419.055,E,083853,A,A*59
$IIMWV,045,R,11.0,N,A*12
$IIMWV,065,T,08.2,N,A*1C
$IIRMC,083853,A,5527.370,N,01419.055,E,04.5,135,120821,04,E,A*0F
$IIGLL,5527.369,N,01419.057,E,083854,A,A*54
$IIMWV,044,R,11.1,N,A*12
$IIMWV,067,T,08.4,N,A*18
$IIRMC,083854,A,5527.369,N,01419.057,E,04.5,134,120821,04,E,A*03
$IIGLL,5527.368,N,01419.058,E,083855,A,A*5B
$IIMWV,045,R,11.3,N,A*11
$IIMWV,066,T,08.3,N,A*1E
$IIRMC,083855,A,5527.368,N,01419.058,E,04.5,134,120821,04,E,A*0C
$IIGLL,5527.367,N,01419.060,E,083856,A,A*5C
$IIMWV,044,R,11.5,N,A*16
$IIMWV,066,T,08.7,N,A*1A
$IIRMC,083856,A,5527.367,N,01419.060,E,04.5,134,120821,04,E,A*0B
$IIGLL,5527.366,N,01419.061,E,083857,A,A*5D
$IIMWV,044,R,11.5,N,A*16
$IIMWV,065,T,08.7,N,A*19
$IIRMC,083857,A,5527.366,N,01419.061,E,04.5,134,120821,04,E,A*0A
$IIGLL,5527.365,N,01419.063,E,083858,A,A*53
$IIMWV,044,R,11.5,N,A*16
$IIMWV,065,T,08.7,N,A*19
$IIRMC,083858,A,5527.365,N,01419.063,E,04.5,135,120821,04,E,A*05
$IIGLL,5527.364,N,01419.065,E,083859,A,A*55
$IIMWV,043,R,11.6,N,A*12
$IIMWV,065,T,08.7,N,A*19
$IIRMC,083859,A,5527.364,N,01419.065,E,04.5,135,120821,04,E,A*03
$IIGLL,5527.364,N,01419.066,E,083900,A,A*5B
$IIMWV,043,R,11.6,N,A*12
$IIMWV,063,T,08.7,N,A*1F
$IIRMC,083900,A,5527.364,N,01419.066,E,04.6,135,120821,04,E,A*0E
$IIGLL,5527.363,N,01419.068,E,083901,A,A*53
$IIMWV,043,R,11.8,N,A*1C
$IIMWV,064,T,08.6,N,A*19
$IIRMC,083901,A,5527.363,N,01419.068,E,04.6,135,120821,04,E,A*06
$IIGLL,5527.362,N,01419.069,E,083902,A,A*50
$IIMWV,042,R,11.8,N,A*1D
$IIMWV,063,T,08.9,N,A*11
$IIRMC,083902,A,5527.362,N,01419.069,E,04.6,136,120821,04,E,A*06
$IIGLL,5527.361,N,01419.071,E,083903,A,A*5B
$IIMWV,042,R,11.9,N,A*1C
$IIMWV,063,T,08.9,N,A*11
$IIRMC,083903,A,5527.361,N,01419.071,E,04.6,136,120821,04,E,A*0D
$IIGLL,5527.360,N,01419.072,E,083904,A,A*5E
$IIMWV,042,R,12.0,N,A*16
$IIMWV,062,T,08.9,N,A*10
$IIRMC,083904,A,5527.360,N,01419.072,E,04.6,137,120821,04,E,A*09
$IIGLL,5527.359,N,01419.073,E,083905,A,A*54
$IIMWV,041,R,12.0,N,A*15
$IIMWV,062,T,09.0,N,A*18
$IIRMC,083905,A,5527.359,N,01419.073,E,04.7,138,120821,04,E,A*0D
$IIGLL,5527.358,N,01419.075,E,083906,A,A*50
$IIMWV,041,R,12.1,N,A*14
$IIMWV,061,T,08.9,N,A*13
$IIRMC,083907,A,5527.357,N,01419.077,E,04.6,138,120821,04,E,A*04
$IIGLL,5527.357,N,01419.077,E,083907,A,A*5C
$IIMWV,039,R,11.9,N,A*10
$IIMWV,061,T,08.9,N,A*13
$IIRMC,083908,A,5527.356,N,01419.078,E,04.6,138,120821,04,E,A*05
$IIGLL,5527.356,N,01419.078,E,083908,A,A*5D
$IIMWV,039,R,11.8,N,A*11
$IIMWV,058,T,08.7,N,A*17
$IIRMC,083909,A,5527.355,N,01419.080,E,04.6,138,120821,04,E,A*00
$IIGLL,5527.355,N,01419.080,E,083909,A,A*58
$IIMWV,039,R,11.8,N,A*11
$IIMWV,058,T,08.7,N,A*17
$IIRMC,083910,A,5527.354,N,01419.081,E,04.6,140,120821,04,E,A*07
$IIGLL,5527.354,N,01419.081,E,083910,A,A*50
$IIMWV,038,R,11.8,N,A*10
$IIMWV,058,T,08.7,N,A*17
$IIRMC,083911,A,5527.353,N,01419.082,E,04.7,140,120821,04,E,A*03
$IIGLL,5527.353,N,01419.082,E,083911,A,A*55
$IIMWV,038,R,11.6,N,A*1E
$IIMWV,057,T,08.6,N,A*19
$IIRMC,083912,A,5527.352,N,01419.084,E,04.7,141,120821,04,E,A*06
$IIGLL,5527.352,N,01419.084,E,083912,A,A*51
$IIMWV,037,R,11.6,N,A*11
$IIMWV,058,T,08.3,N,A*13
$IIRMC,083913,A,5527.351,N,01419.085,E,04.7,141,120821,04,E,A*05
$IIGLL,5527.351,N,01419.085,E,083913,A,A*52
$IIMWV,036,R,11.5,N,A*13
$IIMWV,057,T,08.2,N,A*1D
$IIRMC,083914,A,5527.350,N,01419.086,E,04.7,141,120821,04,E,A*00
$IIGLL,5527.350,N,01419.086,E,083914,A,A*57
$IIMWV,037,R,11.3,N,A*14
$IIMWV,056,T,08.1,N,A*1F
$IIRMC,083915,A,5527.349,N,01419.088,E,04.6,141,120821,04,E,A*06
$IIGLL,5527.349,N,01419.088,E,083915,A,A*50
$IIMWV,037,R,11.2,N,A*15
$IIMWV,057,T,07.9,N,A*19
$IIRMC,083916,A,5527.348,N,01419.089,E,04.6,140,120821,04,E,A*04
$IIGLL,5527.348,N,01419.089,E,083916,A,A*53
$IIMWV,038,R,11.2,N,A*1A
$IIMWV,057,T,07.9,N,A*19
$IIRMC,083917,A,5527.347,N,01419.091,E,04.6,141,120821,04,E,A*02
$IIGLL,5527.347,N,01419.091,E,083917,A,A*54
$IIMWV,037,R,11.0,N,A*17
$IIMWV,059,T,08.0,N,A*11
$IIRMC,083918,A,5527.346,N,01419.092,E,04.6,141,120821,04,E,A*0F
$IIGLL,5527.346,N,01419.092,E,083918,A,A*59
$IIMWV,037,R,10.9,N,A*1F
$IIMWV,057,T,07.8,N,A*18
$IIRMC,083919,A,5527.345,N,01419.093,E,04.5,141,120821,04,E,A*0F
$IIGLL,5527.345,N,01419.093,E,083919,A,A*5A
$IIMWV,038,R,10.7,N,A*1E
$IIMWV,058,T,07.6,N,A*19
$IIRMC,083920,A,5527.344,N,01419.095,E,04.5,140,120821,04,E,A*03
$IIGLL,5527.344,N,01419.095,E,083920,A,A*57
$IIMWV,037,R,10.9,N,A*1F
$IIMWV,059,T,07.6,N,A*18
$IIRMC,083921,A,5527.343,N,01419.096,E,04.4,138,120821,04,E,A*08
$IIGLL,5527.343,N,01419.096,E,083921,A,A*52
$IIMWV,038,R,11.0,N,A*18
$IIMWV,057,T,07.7,N,A*17
$IIRMC,083922,A,5527.342,N,01419.098,E,04.5,139,120821,04,E,A*04
$IIGLL,5527.342,N,01419.098,E,083922,A,A*5E
$IIMWV,038,R,10.9,N,A*10
$IIMWV,058,T,07.9,N,A*16
$IIRMC,083923,A,5527.342,N,01419.099,E,04.4,138,120821,04,E,A*04
$IIGLL,5527.342,N,01419.099,E,083923,A,A*5E
$IIMWV,039,R,10.9,N,A*11
$IIMWV,058,T,07.8,N,A*17
$IIRMC,083924,A,5527.341,N,01419.101,E,04.4,139,120821,04,E,A*01
$IIGLL,5527.341,N,01419.101,E,083924,A,A*5A
$IIMWV,039,R,11.2,N,A*1B
$IIMWV,059,T,07.9,N,A*17
$IIRMC,083925,A,5527.340,N,01419.102,E,04.4,139,120821,04,E,A*02
$IIGLL,5527.340,N,01419.102,E,083925,A,A*59
$IIMWV,040,R,11.3,N,A*14
$IIMWV,058,T,08.2,N,A*12
$IIRMC,083926,A,5527.339,N,01419.103,E,04.3,137,120821,04,E,A*07
$IIGLL,5527.339,N,01419.103,E,083926,A,A*55
$IIMWV,042,R,11.3,N,A*16
$IIMWV,059,T,08.3,N,A*12
$IIRMC,083927,A,5527.338,N,01419.105,E,04.4,138,120821,04,E,A*09
$IIGLL,5527.338,N,01419.105,E,083927,A,A*53
$IIMWV,041,R,11.3,N,A*15
$IIMWV,062,T,08.5,N,A*1C
$IIRMC,083928,A,5527.337,N,01419.106,E,04.4,138,120821,04,E,A*0A
$IIGLL,5527.337,N,01419.106,E,083928,A,A*50
$IIMWV,042,R,11.3,N,A*16
$IIMWV,061,T,08.4,N,A*1E
$IIRMC,083929,A,5527.336,N,01419.107,E,04.3,137,120821,04,E,A*03
$IIGLL,5527.336,N,01419.107,E,083929,A,A*51
$IIMWV,041,R,11.5,N,A*13
$IIMWV,063,T,08.4,N,A*1C
$IIRMC,083930,A,5527.335,N,01419.109,E,04.3,136,120821,04,E,A*07
$IIGLL,5527.335,N,01419.109,E,083930,A,A*54
$IIMWV,043,R,11.7,N,A*13
$IIMWV,060,T,08.6,N,A*1D
$IIRMC,083931,A,5527.334,N,01419.110,E,04.3,138,120821,04,E,A*01
$IIGLL,5527.334,N,01419.110,E,083931,A,A*5C
$IIMWV,041,R,11.8,N,A*1E
$IIMWV,062,T,08.9,N,A*10
$IIRMC,083932,A,5527.334,N,01419.111,E,04.4,137,120821,04,E,A*0B
$IIGLL,5527.334,N,01419.111,E,083932,A,A*5E
$IIMWV,043,R,11.9,N,A*1D
$IIMWV,060,T,08.9,N,A*12
$IIRMC,083933,A,5527.333,N,01419.113,E,04.3,139,120821,04,E,A*06
$IIGLL,5527.333,N,01419.113,E,083933,A,A*5A
$IIMWV,041,R,11.9,N,A*1F
$IIMWV,062,T,09.0,N,A*18
$IIRMC,083934,A,5527.332,N,01419.114,E,04.4,139,120821,04,E,A*00
$IIGLL,5527.332,N,01419.114,E,083934,A,A*5B
$IIMWV,042,R,11.8,N,A*1D
$IIMWV,059,T,09.0,N,A*10
$IIRMC,083935,A,5527.331,N,01419.115,E,04.3,138,120821,04,E,A*05
$IIGLL,5527.331,N,01419.115,E,083935,A,A*58
$IIMWV,042,R,11.9,N,A*1C
$IIMWV,061,T,08.9,N,A*13
$IIRMC,083936,A,5527.330,N,01419.117,E,04.3,138,120821,04,E,A*05
$IIGLL,5527.330,N,01419.117,E,083936,A,A*58
$IIMWV,042,R,11.8,N,A*1D
$IIMWV,060,T,09.0,N,A*1A
$IIRMC,083937,A,5527.329,N,01419.118,E,04.4,140,120821,04,E,A*0B
$IIGLL,5527.329,N,01419.118,E,083937,A,A*5E
$IIMWV,042,R,11.6,N,A*13
$IIMWV,061,T,09.0,N,A*1B
$IIRMC,083938,A,5527.328,N,01419.119,E,04.4,138,120821,04,E,A*0B
$IIGLL,5527.328,N,01419.119,E,083938,A,A*51
$IIMWV,041,R,11.8,N,A*1E
$IIMWV,062,T,08.7,N,A*1E
$IIRMC,083939,A,5527.327,N,01419.121,E,04.3,137,120821,04,E,A*06
$IIGLL,5527.327,N,01419.121,E,083939,A,A*54
$IIMWV,042,R,11.5,N,A*10
$IIMWV,060,T,08.8,N,A*13
$IIRMC,083940,A,5527.326,N,01419.122,E,04.4,139,120821,04,E,A*03
$IIGLL,5527.326,N,01419.122,E,083940,A,A*58
$IIMWV,041,R,11.6,N,A*10
$IIMWV,061,T,08.7,N,A*1D
$IIRMC,083941,A,5527.325,N,01419.123,E,04.4,138,120821,04,E,A*01
$IIGLL,5527.325,N,01419.123,E,083941,A,A*5B
$IIMWV,042,R,11.5,N,A*10
$IIMWV,060,T,08.7,N,A*1C
$IIRMC,083942,A,5527.324,N,01419.125,E,04.4,138,120821,04,E,A*05
$IIGLL,5527.324,N,01419.125,E,083942,A,A*5F
$IIMWV,041,R,11.5,N,A*13
$IIMWV,062,T,08.7,N,A*1E
$IIRMC,083943,A,5527.323,N,01419.127,E,04.4,138,120821,04,E,A*01
$IIGLL,5527.323,N,01419.127,E,083943,A,A*5B
$IIMWV,041,R,11.7,N,A*11
$IIMWV,061,T,08.5,N,A*1F
$IIRMC,083944,A,5527.322,N,01419.128,E,04.4,138,120821,04,E,A*08
$IIGLL,5527.322,N,01419.128,E,083944,A,A*52
$IIMWV,040,R,11.6,N,A*11
$IIMWV,061,T,08.8,N,A*12
$IIRMC,083945,A,5527.321,N,01419.129,E,04.3,140,120821,04,E,A*03
$IIGLL,5527.321,N,01419.129,E,083945,A,A*51
$IIMWV,039,R,11.6,N,A*1F
$IIMWV,059,T,08.6,N,A*17
$IIRMC,083946,A,5527.320,N,01419.130,E,04.4,140,120821,04,E,A*0E
$IIGLL,5527.320,N,01419.130,E,083946,A,A*5B
$IIMWV,040,R,11.4,N,A*13
$IIMWV,057,T,08.6,N,A*19
$IIRMC,083947,A,5527.319,N,01419.132,E,04.4,141,120821,04,E,A*06
$IIGLL,5527.319,N,01419.132,E,083947,A,A*52
$IIMWV,038,R,11.6,N,A*1E
$IIMWV,059,T,08.3,N,A*12
$IIRMC,083948,A,5527.318,N,01419.133,E,04.5,143,120821,04,E,A*0A
$IIGLL,5527.318,N,01419.133,E,083948,A,A*5D
$IIMWV,038,R,11.4,N,A*1C
$IIMWV,057,T,08.5,N,A*1A
$IIRMC,083949,A,5527.317,N,01419.134,E,04.4,142,120821,04,E,A*03
$IIGLL,5527.317,N,01419.134,E,083949,A,A*54
$IIMWV,037,R,11.5,N,A*12
$IIMWV,057,T,08.3,N,A*1C
$IIRMC,083950,A,5527.316,N,01419.135,E,04.3,142,120821,04,E,A*0C
$IIGLL,5527.316,N,01419.135,E,083950,A,A*5C
$IIMWV,038,R,11.3,N,A*1B
$IIMWV,055,T,08.4,N,A*19
$IIRMC,083951,A,5527.315,N,01419.137,E,04.4,143,120821,04,E,A*0A
$IIGLL,5527.315,N,01419.137,E,083951,A,A*5C
$IIMWV,037,R,11.3,N,A*14
$IIMWV,057,T,08.3,N,A*1C
$IIRMC,083952,A,5527.314,N,01419.138,E,04.4,143,120821,04,E,A*07
$IIGLL,5527.314,N,01419.138,E,083952,A,A*51
$IIMWV,037,R,11.2,N,A*15
$IIMWV,056,T,08.1,N,A*1F
$IIRMC,083953,A,5527.313,N,01419.139,E,04.3,141,120821,04,E,A*05
$IIGLL,5527.313,N,01419.139,E,083953,A,A*56
$IIMWV,038,R,11.1,N,A*19
$IIMWV,056,T,08.0,N,A*1E
$IIRMC,083954,A,5527.313,N,01419.141,E,04.3,141,120821,04,E,A*0D
$IIGLL,5527.313,N,01419.141,E,083954,A,A*5E
$IIMWV,038,R,11.2,N,A*1A
$IIMWV,057,T,08.0,N,A*1F
$IIRMC,083955,A,5527.312,N,01419.142,E,04.3,141,120821,04,E,A*0E
$IIGLL,5527.312,N,01419.142,E,083955,A,A*5D
$IIMWV,038,R,11.1,N,A*19
$IIMWV,057,T,08.2,N,A*1D
$IIRMC,083956,A,5527.311,N,01419.144,E,04.3,140,120821,04,E,A*09
$IIGLL,5527.311,N,01419.144,E,083956,A,A*5B
$IIMWV,038,R,11.2,N,A*1A
$IIMWV,057,T,08.0,N,A*1F
$IIRMC,083957,A,5527.310,N,01419.145,E,04.3,140,120821,04,E,A*08
$IIGLL,5527.310,N,01419.145,E,083957,A,A*5A
$IIMWV,040,R,11.1,N,A*16
$IIMWV,057,T,08.2,N,A*1D
$IIRMC,083958,A,5527.309,N,01419.146,E,04.3,141,120821,04,E,A*0D
$IIGLL,5527.309,N,01419.146,E,083958,A,A*5E
$IIMWV,039,R,11.3,N,A*1A
$IIMWV,059,T,08.2,N,A*13
$IIRMC,083959,A,5527.308,N,01419.147,E,04.3,140,120821,04,E,A*0D
$IIGLL,5527.308,N,01419.147,E,083959,A,A*5F
$IIMWV,040,R,11.3,N,A*14
$IIMWV,058,T,08.4,N,A*14
$IIRMC,084000,A,5527.307,N,01419.149,E,04.3,140,120821,04,E,A*0E
$IIGLL,5527.307,N,01419.149,E,084000,A,A*5C
$IIMWV,039,R,11.3,N,A*1A
$IIMWV,058,T,08.4,N,A*14
$IIRMC,084001,A,5527.306,N,01419.150,E,04.3,141,120821,04,E,A*07
$IIGLL,5527.306,N,01419.150,E,084001,A,A*54
$IIMWV,039,R,11.3,N,A*1A
$IIMWV,058,T,08.4,N,A*14
$IIRMC,084002,A,5527.305,N,01419.151,E,04.3,140,120821,04,E,A*07
$IIGLL,5527.305,N,01419.151,E,084002,A,A*55
$IIMWV,039,R,11.5,N,A*1C
$IIMWV,058,T,08.4,N,A*14
$IIRMC,084003,A,5527.304,N,01419.153,E,04.3,138,120821,04,E,A*0A
$IIGLL,5527.304,N,01419.153,E,084003,A,A*57
$IIMWV,040,R,11.5,N,A*12
$IIMWV,057,T,08.5,N,A*1A
$IIRMC,084004,A,5527.303,N,01419.154,E,04.2,138,120821,04,E,A*0C
$IIGLL,5527.303,N,01419.154,E,084004,A,A*50
$IIMWV,040,R,11.6,N,A*11
$IIMWV,058,T,08.5,N,A*15
$IIRMC,084005,A,5527.302,N,01419.156,E,04.3,138,120821,04,E,A*0F
$IIGLL,5527.302,N,01419.156,E,084005,A,A*52
$IIMWV,040,R,11.7,N,A*10
$IIMWV,057,T,08.7,N,A*18
$IIRMC,084006,A,5527.301,N,01419.157,E,04.3,139,120821,04,E,A*0F
$IIGLL,5527.301,N,01419.157,E,084006,A,A*53
$IIMWV,040,R,11.6,N,A*11
$IIMWV,057,T,08.7,N,A*18
$IIRMC,084007,A,5527.300,N,01419.159,E,04.3,139,120821,04,E,A*01
$IIGLL,5527.300,N,01419.159,E,084007,A,A*5D
$IIMWV,039,R,11.8,N,A*11
$IIMWV,058,T,08.7,N,A*17
$IIRMC,084008,A,5527.299,N,01419.160,E,04.3,138,120821,04,E,A*04
$IIGLL,5527.299,N,01419.160,E,084008,A,A*59
$IIMWV,040,R,11.7,N,A*10
$IIMWV,057,T,08.8,N,A*17
$IIRMC,084009,A,5527.298,N,01419.162,E,04.3,140,120821,04,E,A*09
$IIGLL,5527.298,N,01419.162,E,084009,A,A*5B
$IIMWV,039,R,11.8,N,A*11
$IIMWV,057,T,08.7,N,A*18
$IIRMC,084010,A,5527.298,N,01419.163,E,04.4,140,120821,04,E,A*07
$IIGLL,5527.298,N,01419.163,E,084010,A,A*52
$IIMWV,039,R,11.8,N,A*11
$IIMWV,057,T,08.8,N,A*17
$IIRMC,084011,A,5527.297,N,01419.165,E,04.3,140,120821,04,E,A*08
$IIGLL,5527.297,N,01419.165,E,084011,A,A*5A
$IIMWV,038,R,11.8,N,A*10
$IIMWV,057,T,08.8,N,A*17
$IIRMC,084012,A,5527.296,N,01419.166,E,04.3,141,120821,04,E,A*08
$IIGLL,5527.296,N,01419.166,E,084012,A,A*5B
$IIMWV,037,R,11.8,N,A*1F
$IIMWV,056,T,08.8,N,A*16
$IIRMC,084013,A,5527.295,N,01419.167,E,04.4,142,120821,04,E,A*0F
$IIGLL,5527.295,N,01419.167,E,084013,A,A*58
$IIMWV,038,R,11.8,N,A*10
$IIMWV,054,T,08.6,N,A*1A
$IIRMC,084014,A,5527.293,N,01419.168,E,04.4,141,120821,04,E,A*02
$IIGLL,5527.293,N,01419.168,E,084014,A,A*56
$IIMWV,037,R,11.8,N,A*1F
$IIMWV,056,T,08.7,N,A*19
$IIRMC,084015,A,5527.293,N,01419.170,E,04.4,141,120821,04,E,A*0A
$IIGLL,5527.293,N,01419.170,E,084015,A,A*5E
$IIMWV,038,R,11.7,N,A*1F
$IIMWV,054,T,08.6,N,A*1A
$IIRMC,084016,A,5527.292,N,01419.171,E,04.5,142,120821,04,E,A*0B
$IIGLL,5527.292,N,01419.171,E,084016,A,A*5D
$IIMWV,037,R,11.6,N,A*11
$IIMWV,056,T,08.6,N,A*18
$IIRMC,084017,A,5527.291,N,01419.172,E,04.4,142,120821,04,E,A*0B
$IIGLL,5527.291,N,01419.172,E,084017,A,A*5C
$IIMWV,037,R,11.6,N,A*11
$IIMWV,056,T,08.3,N,A*1D
$IIRMC,084018,A,5527.290,N,01419.174,E,04.4,142,120821,04,E,A*03
$IIGLL,5527.290,N,01419.174,E,084018,A,A*54
$IIMWV,037,R,11.7,N,A*10
$IIMWV,055,T,08.4,N,A*19
$IIRMC,084019,A,5527.289,N,01419.175,E,04.4,141,120821,04,E,A*08
$IIGLL,5527.289,N,01419.175,E,084019,A,A*5C
$IIMWV,038,R,11.7,N,A*1F
$IIMWV,055,T,08.5,N,A*18
$IIRMC,084020,A,5527.288,N,01419.176,E,04.4,142,120821,04,E,A*03
$IIGLL,5527.288,N,01419.176,E,084020,A,A*54
$IIMWV,037,R,11.5,N,A*12
$IIMWV,056,T,08.6,N,A*18
$IIRMC,084021,A,5527.287,N,01419.177,E,04.4,142,120821,04,E,A*0C
$IIGLL,5527.287,N,01419.177,E,084021,A,A*5B
$IIMWV,037,R,11.5,N,A*12
$IIMWV,055,T,08.4,N,A*19
$IIRMC,084022,A,5527.286,N,01419.178,E,04.4,141,120821,04,E,A*02
$IIGLL,5527.286,N,01419.178,E,084022,A,A*56
$IIMWV,037,R,11.4,N,A*13
$IIMWV,055,T,08.4,N,A*19
$IIRMC,084023,A,5527.285,N,01419.180,E,04.3,141,120821,04,E,A*00
$IIGLL,5527.285,N,01419.180,E,084023,A,A*53
$IIMWV,037,R,11.6,N,A*11
$IIMWV,055,T,08.2,N,A*1F
$IIRMC,084024,A,5527.284,N,01419.181,E,04.4,141,120821,04,E,A*00
$IIGLL,5527.284,N,01419.181,E,084024,A,A*54
$IIMWV,037,R,11.4,N,A*13
$IIMWV,055,T,08.4,N,A*19
$IIRMC,084025,A,5527.283,N,01419.182,E,04.4,141,120821,04,E,A*05
$IIGLL,5527.283,N,01419.182,E,084025,A,A*51
$IIMWV,037,R,11.4,N,A*13
$IIMWV,055,T,08.2,N,A*1F
$IIRMC,084026,A,5527.282,N,01419.183,E,04.3,140,120821,04,E,A*00
$IIGLL,5527.282,N,01419.183,E,084026,A,A*52
$IIMWV,037,R,11.4,N,A*13
$IIMWV,055,T,08.2,N,A*1F
$IIRMC,084027,A,5527.281,N,01419.184,E,04.3,140,120821,04,E,A*05
$IIGLL,5527.281,N,01419.184,E,084027,A,A*57
$IIMWV,038,R,11.4,N,A*1C
$IIMWV,055,T,08.3,N,A*1E
$IIRMC,084028,A,5527.280,N,01419.186,E,04.3,142,120821,04,E,A*0B
$IIGLL,5527.280,N,01419.186,E,084028,A,A*5B
$IIMWV,037,R,11.3,N,A*14
$IIMWV,056,T,08.4,N,A*1A
$IIRMC,084029,A,5527.280,N,01419.187,E,04.3,141,120821,04,E,A*08
$IIGLL,5527.280,N,01419.187,E,084029,A,A*5B
$IIMWV,037,R,11.3,N,A*14
$IIMWV,055,T,08.1,N,A*1C
$IIRMC,084030,A,5527.279,N,01419.189,E,04.2,141,120821,04,E,A*09
$IIGLL,5527.279,N,01419.189,E,084030,A,A*5B
$IIMWV,037,R,11.4,N,A*13
$IIMWV,055,T,08.1,N,A*1C
$IIRMC,084031,A,5527.278,N,01419.190,E,04.2,141,120821,04,E,A*01
$IIGLL,5527.278,N,01419.190,E,084031,A,A*53
$IIMWV,037,R,11.4,N,A*13
$IIMWV,054,T,08.3,N,A*1F
$IIRMC,084032,A,5527.277,N,01419.191,E,04.2,141,120821,04,E,A*0C
$IIGLL,5527.277,N,01419.191,E,084032,A,A*5E
$IIMWV,038,R,11.5,N,A*1D
$IIMWV,054,T,08.3,N,A*1F
$IIRMC,084033,A,5527.276,N,01419.193,E,04.3,141,120821,04,E,A*0F
$IIGLL,5527.276,N,01419.193,E,084033,A,A*5C
$IIMWV,038,R,11.4,N,A*1C
$IIMWV,056,T,08.5,N,A*1B
$IIRMC,084034,A,5527.275,N,01419.194,E,04.3,139,120821,04,E,A*03
$IIGLL,5527.275,N,01419.194,E,084034,A,A*5F
$IIMWV,038,R,11.6,N,A*1E
$IIMWV,056,T,08.4,N,A*1A
$IIRMC,084035,A,5527.274,N,01419.195,E,04.2,140,120821,04,E,A*0D
$IIGLL,5527.274,N,01419.195,E,084035,A,A*5E
$IIMWV,038,R,11.5,N,A*1D
$IIMWV,056,T,08.5,N,A*1B
$IIRMC,084036,A,5527.273,N,01419.197,E,04.3,140,120821,04,E,A*0A
$IIGLL,5527.273,N,01419.197,E,084036,A,A*58
$IIMWV,038,R,11.6,N,A*1E
$IIMWV,056,T,08.5,N,A*1B
$IIRMC,084037,A,5527.272,N,01419.198,E,04.3,141,120821,04,E,A*04
$IIGLL,5527.271,N,01419.201,E,084039,A,A*59
$IIMWV,037,R,11.8,N,A*1F
$IIMWV,056,T,08.5,N,A*1B
$IIRMC,084039,A,5527.271,N,01419.201,E,04.3,142,120821,04,E,A*09
$IIGLL,5527.270,N,01419.202,E,084040,A,A*55
$IIMWV,038,R,11.7,N,A*1F
$IIMWV,054,T,08.6,N,A*1A
$IIRMC,084040,A,5527.270,N,01419.202,E,04.3,141,120821,04,E,A*06
$IIGLL,5527.269,N,01419.203,E,084041,A,A*5D
$IIMWV,037,R,11.8,N,A*1F
$IIMWV,056,T,08.7,N,A*19
$IIRMC,084041,A,5527.269,N,01419.203,E,04.3,142,120821,04,E,A*0D
$IIGLL,5527.268,N,01419.205,E,084042,A,A*59
$IIMWV,038,R,11.7,N,A*1F
$IIMWV,054,T,08.6,N,A*1A
$IIRMC,084042,A,5527.268,N,01419.205,E,04.2,140,120821,04,E,A*0A
$IIGLL,5527.267,N,01419.206,E,084043,A,A*54
$IIMWV,038,R,11.7,N,A*1F
$IIMWV,055,T,08.7,N,A*1A
$IIRMC,084043,A,5527.267,N,01419.206,E,04.3,141,120821,04,E,A*07
$IIGLL,5527.266,N,01419.207,E,084044,A,A*53
$IIMWV,038,R,11.6,N,A*1E
$IIMWV,056,T,08.7,N,A*19
$IIRMC,084044,A,5527.266,N,01419.207,E,04.4,140,120821,04,E,A*06
$IIGLL,5527.265,N,01419.208,E,084045,A,A*5E
$IIMWV,038,R,11.5,N,A*1D
$IIMWV,057,T,08.5,N,A*1A
$IIRMC,084045,A,5527.265,N,01419.208,E,04.3,139,120821,04,E,A*02
$IIGLL,5527.264,N,01419.210,E,084046,A,A*55
$IIMWV,038,R,11.4,N,A*1C
$IIMWV,057,T,08.5,N,A*1A
$IIRMC,084046,A,5527.264,N,01419.210,E,04.3,138,120821,04,E,A*08
$IIGLL,5527.263,N,01419.211,E,084047,A,A*52
$IIMWV,038,R,11.4,N,A*1C
$IIMWV,056,T,08.4,N,A*1A
$IIRMC,084047,A,5527.263,N,01419.211,E,04.3,139,120821,04,E,A*0E
$IIGLL,5527.263,N,01419.213,E,084048,A,A*5F
$IIMWV,038,R,11.2,N,A*1A
$IIMWV,056,T,08.4,N,A*1A
$IIRMC,084048,A,5527.263,N,01419.213,E,04.3,139,120821,04,E,A*03
$IIGLL,5527.262,N,01419.214,E,084049,A,A*58
$IIMWV,038,R,11.1,N,A*19
$IIMWV,057,T,08.2,N,A*1D
$IIRMC,084049,A,5527.262,N,01419.214,E,04.3,139,120821,04,E,A*04
$IIGLL,5527.261,N,01419.215,E,084050,A,A*52
$IIMWV,038,R,11.1,N,A*19
$IIMWV,057,T,08.0,N,A*1F
$IIRMC,084050,A,5527.261,N,01419.215,E,04.3,138,120821,04,E,A*0F
$IIGLL,5527.260,N,01419.217,E,084051,A,A*50
$IIMWV,037,R,10.9,N,A*1F
$IIMWV,057,T,08.0,N,A*1F
$IIRMC,084051,A,5527.260,N,01419.217,E,04.3,140,120821,04,E,A*02
$IIGLL,5527.259,N,01419.218,E,084052,A,A*56
$IIMWV,038,R,10.8,N,A*11
$IIMWV,056,T,07.8,N,A*19
$IIRMC,084052,A,5527.259,N,01419.218,E,04.3,139,120821,04,E,A*0A
$IIGLL,5527.258,N,01419.219,E,084053,A,A*57
$IIMWV,037,R,10.6,N,A*10
$IIMWV,057,T,07.8,N,A*18
$IIRMC,084053,A,5527.258,N,01419.219,E,04.2,140,120821,04,E,A*04
$IIGLL,5527.257,N,01419.220,E,084054,A,A*55
$IIMWV,038,R,10.6,N,A*1F
$IIMWV,056,T,07.5,N,A*14
$IIRMC,084054,A,5527.257,N,01419.220,E,04.2,140,120821,04,E,A*06
$IIGLL,5527.256,N,01419.222,E,084055,A,A*57
$IIMWV,038,R,10.5,N,A*1C
$IIMWV,058,T,07.6,N,A*19
$IIRMC,084055,A,5527.256,N,01419.222,E,04.1,139,120821,04,E,A*09
$IIGLL,5527.256,N,01419.223,E,084056,A,A*55
$IIMWV,039,R,10.6,N,A*1E
$IIMWV,058,T,07.6,N,A*19
$IIRMC,084056,A,5527.256,N,01419.223,E,04.1,139,120821,04,E,A*0B
$IIGLL,5527.255,N,01419.223,E,084057,A,A*57
$IIMWV,040,R,10.6,N,A*10
$IIMWV,058,T,07.7,N,A*18
$IIRMC,084057,A,5527.255,N,01419.223,E,04.1,139,120821,04,E,A*09
$IIGLL,5527.254,N,01419.225,E,084058,A,A*5F
$IIMWV,040,R,10.6,N,A*10
$IIMWV,059,T,07.8,N,A*16
$IIRMC,084058,A,5527.254,N,01419.225,E,04.1,139,120821,04,E,A*01
$IIGLL,5527.253,N,01419.226,E,084059,A,A*5A
$IIMWV,040,R,10.6,N,A*10
$IIMWV,059,T,07.8,N,A*16
$IIRMC,084059,A,5527.253,N,01419.226,E,04.1,139,120821,04,E,A*04
$IIGLL,5527.252,N,01419.227,E,084100,A,A*57
$IIMWV,039,R,10.6,N,A*1E
$IIMWV,059,T,07.8,N,A*16
$IIRMC,084100,A,5527.252,N,01419.227,E,04.0,140,120821,04,E,A*06
$IIGLL,5527.251,N,01419.228,E,084101,A,A*5A
$IIMWV,039,R,10.7,N,A*1F
$IIMWV,057,T,07.8,N,A*18
$IIRMC,084101,A,5527.251,N,01419.228,E,04.0,139,120821,04,E,A*05
$IIGLL,5527.250,N,01419.230,E,084102,A,A*51
$IIMWV,039,R,10.7,N,A*1F
$IIMWV,057,T,07.9,N,A*19
$IIRMC,084102,A,5527.250,N,01419.230,E,04.0,139,120821,04,E,A*0E
$IIGLL,5527.249,N,01419.231,E,084103,A,A*59
$IIMWV,039,R,10.7,N,A*1F
$IIMWV,057,T,07.9,N,A*19
$IIRMC,084103,A,5527.249,N,01419.231,E,04.1,139,120821,04,E,A*07
$IIGLL,5527.248,N,01419.232,E,084104,A,A*5C
$IIMWV,040,R,10.9,N,A*1F
$IIMWV,058,T,07.9,N,A*16
$IIRMC,084104,A,5527.248,N,01419.232,E,04.1,139,120821,04,E,A*02
$IIGLL,5527.247,N,01419.234,E,084105,A,A*54
$IIMWV,039,R,10.9,N,A*11
$IIMWV,059,T,08.0,N,A*11
$IIRMC,084105,A,5527.247,N,01419.234,E,04.1,139,120821,04,E,A*0A
$IIGLL,5527.246,N,01419.235,E,084106,A,A*57
$IIMWV,040,R,11.0,N,A*17
$IIMWV,057,T,08.0,N,A*1F
$IIRMC,084106,A,5527.246,N,01419.235,E,04.1,138,120821,04,E,A*08
$IIGLL,5527.245,N,01419.236,E,084107,A,A*56
$IIMWV,040,R,11.1,N,A*16
$IIMWV,058,T,08.2,N,A*12
$IIRMC,084107,A,5527.245,N,01419.236,E,04.0,138,120821,04,E,A*08
$IIGLL,5527.245,N,01419.238,E,084108,A,A*57
$IIMWV,041,R,11.2,N,A*14
$IIMWV,058,T,08.4,N,A*14
$IIRMC,084108,A,5527.245,N,01419.238,E,04.1,138,120821,04,E,A*08
$IIGLL,5527.244,N,01419.239,E,084109,A,A*56
$IIMWV,040,R,11.1,N,A*16
$IIMWV,059,T,08.4,N,A*15
$IIRMC,084110,A,5527.243,N,01419.240,E,04.1,138,120821,04,E,A*08
$IIGLL,5527.243,N,01419.240,E,084110,A,A*57
$IIMWV,040,R,11.2,N,A*15
$IIMWV,058,T,08.3,N,A*13
$IIRMC,084111,A,5527.242,N,01419.242,E,04.1,139,120821,04,E,A*0B
$IIGLL,5527.242,N,01419.242,E,084111,A,A*55
$IIMWV,039,R,11.4,N,A*1D
$IIMWV,058,T,08.4,N,A*14
$IIRMC,084112,A,5527.241,N,01419.243,E,04.1,138,120821,04,E,A*0B
$IIGLL,5527.241,N,01419.243,E,084112,A,A*54
$IIMWV,041,R,11.4,N,A*12
$IIMWV,057,T,08.5,N,A*1A
$IIRMC,084113,A,5527.241,N,01419.245,E,04.1,140,120821,04,E,A*03
$IIGLL,5527.241,N,01419.245,E,084113,A,A*53
$IIMWV,040,R,11.5,N,A*12
$IIMWV,059,T,08.6,N,A*17
$IIRMC,084114,A,5527.240,N,01419.246,E,04.2,139,120821,04,E,A*0B
$IIGLL,5527.240,N,01419.246,E,084114,A,A*56
$IIMWV,039,R,11.5,N,A*1C
$IIMWV,057,T,08.6,N,A*19
$IIRMC,084115,A,5527.239,N,01419.247,E,04.1,138,120821,04,E,A*07
$IIGLL,5527.239,N,01419.247,E,084115,A,A*58
$IIMWV,040,R,11.4,N,A*13
$IIMWV,057,T,08.5,N,A*1A
$IIRMC,084116,A,5527.238,N,01419.249,E,04.1,141,120821,04,E,A*05
$IIGLL,5527.238,N,01419.249,E,084116,A,A*54
$IIMWV,039,R,11.5,N,A*1C
$IIMWV,057,T,08.5,N,A*1A
$IIRMC,084117,A,5527.237,N,01419.250,E,04.2,141,120821,04,E,A*00
$IIGLL,5527.237,N,01419.250,E,084117,A,A*52
$IIMWV,039,R,11.4,N,A*1D
$IIMWV,056,T,08.6,N,A*18
$IIRMC,084118,A,5527.236,N,01419.251,E,04.2,139,120821,04,E,A*00
$IIGLL,5527.236,N,01419.251,E,084118,A,A*5D
$IIMWV,039,R,11.5,N,A*1C
$IIMWV,057,T,08.4,N,A*1B
$IIRMC,084119,A,5527.236,N,01419.252,E,04.2,141,120821,04,E,A*0D
$IIGLL,5527.236,N,01419.252,E,084119,A,A*5F
$IIMWV,038,R,11.4,N,A*1C
$IIMWV,057,T,08.5,N,A*1A
$IIRMC,084120,A,5527.235,N,01419.253,E,04.2,142,120821,04,E,A*06
$IIGLL,5527.235,N,01419.253,E,084120,A,A*57
$IIMWV,037,R,11.3,N,A*14
$IIMWV,056,T,08.4,N,A*1A
$IIRMC,084121,A,5527.234,N,01419.255,E,04.2,141,120821,04,E,A*03
$IIGLL,5527.234,N,01419.255,E,084121,A,A*51
$IIMWV,038,R,11.3,N,A*1B
$IIMWV,054,T,08.2,N,A*1E
$IIRMC,084122,A,5527.233,N,01419.256,E,04.2,141,120821,04,E,A*04
$IIGLL,5527.233,N,01419.256,E,084122,A,A*56
$IIMWV,039,R,11.1,N,A*18
$IIMWV,056,T,08.4,N,A*1A
$IIRMC,084123,A,5527.232,N,01419.257,E,04.2,141,120821,04,E,A*05
$IIGLL,5527.232,N,01419.257,E,084123,A,A*57
$IIMWV,038,R,11.1,N,A*19
$IIMWV,057,T,08.1,N,A*1E
$IIRMC,084124,A,5527.231,N,01419.259,E,04.2,140,120821,04,E,A*0E
$IIGLL,5527.231,N,01419.259,E,084124,A,A*5D
$IIMWV,038,R,11.0,N,A*18
$IIMWV,057,T,08.1,N,A*1E
$IIRMC,084125,A,5527.231,N,01419.260,E,04.2,140,120821,04,E,A*05
$IIGLL,5527.231,N,01419.260,E,084125,A,A*56
$IIMWV,037,R,11.0,N,A*17
$IIMWV,057,T,08.0,N,A*1F
$IIRMC,084126,A,5527.230,N,01419.261,E,04.2,140,120821,04,E,A*06
$IIGLL,5527.230,N,01419.261,E,084126,A,A*55
$IIMWV,038,R,11.0,N,A*18
$IIMWV,055,T,08.0,N,A*1D
$IIRMC,084127,A,5527.229,N,01419.263,E,04.2,139,120821,04,E,A*03
$IIGLL,5527.229,N,01419.263,E,084127,A,A*5E
$IIMWV,037,R,10.9,N,A*1F
$IIMWV,057,T,08.0,N,A*1F
$IIRMC,084128,A,5527.228,N,01419.264,E,04.2,138,120821,04,E,A*0B
$IIGLL,5527.228,N,01419.264,E,084128,A,A*57
$IIMWV,039,R,11.0,N,A*19
$IIMWV,055,T,07.9,N,A*1B
$IIRMC,084129,A,5527.227,N,01419.265,E,04.2,138,120821,04,E,A*04
$IIGLL,5527.227,N,01419.265,E,084129,A,A*58
$IIMWV,039,R,10.9,N,A*11
$IIMWV,058,T,08.1,N,A*11
$IIRMC,084130,A,5527.226,N,01419.267,E,04.2,139,120821,04,E,A*0E
$IIGLL,5527.226,N,01419.267,E,084130,A,A*53
$IIMWV,038,R,11.0,N,A*18
$IIMWV,058,T,08.0,N,A*10
$IIRMC,084131,A,5527.226,N,01419.268,E,04.2,138,120821,04,E,A*01
$IIGLL,5527.226,N,01419.268,E,084131,A,A*5D
$IIMWV,039,R,10.7,N,A*1F
$IIMWV,057,T,08.0,N,A*1F
$IIRMC,084132,A,5527.225,N,01419.269,E,04.2,140,120821,04,E,A*0F
$IIGLL,5527.225,N,01419.269,E,084132,A,A*5C
$IIMWV,038,R,10.7,N,A*1E
$IIMWV,058,T,07.8,N,A*17
$IIRMC,084133,A,5527.224,N,01419.271,E,04.2,139,120821,04,E,A*08
$IIGLL,5527.224,N,01419.271,E,084133,A,A*55
$IIMWV,038,R,10.7,N,A*1E
$IIMWV,057,T,07.8,N,A*18
$IIRMC,084134,A,5527.223,N,01419.272,E,04.2,138,120821,04,E,A*0A
$IIGLL,5527.223,N,01419.272,E,084134,A,A*56
$IIMWV,039,R,10.7,N,A*1F
$IIMWV,057,T,07.8,N,A*18
$IIRMC,084135,A,5527.222,N,01419.273,E,04.1,138,120821,04,E,A*08
$IIGLL,5527.222,N,01419.273,E,084135,A,A*57
$IIMWV,038,R,10.8,N,A*11
$IIMWV,058,T,07.8,N,A*17
