$IIGLL,5413.825,N,01319.466,E,132924,A,A*5D
$IIMWV,333,R,13.5,N,A*17
$IIMWV,323,T,09.8,N,A*16
$IIRMC,132924,A,5413.825,N,01319.466,E,04.3,129,040821,03,E,A*00
$IIGLL,5413.824,N,01319.468,E,132925,A,A*53
$IIMWV,333,R,13.7,N,A*15
$IIMWV,322,T,09.7,N,A*18
$IIRMC,132925,A,5413.824,N,01319.468,E,04.3,129,040821,03,E,A*0E
$IIGLL,5413.824,N,01319.468,E,132925,A,A*53
$IIMWV,333,R,13.8,N,A*1A
$IIMWV,322,T,09.9,N,A*16
$IIRMC,132925,A,5413.824,N,01319.468,E,04.3,129,040821,03,E,A*0E
$IIGLL,5413.822,N,01319.470,E,132927,A,A*5E
$IIMWV,333,R,13.9,N,A*1B
$IIMWV,322,T,10.0,N,A*17
$IIRMC,132927,A,5413.822,N,01319.470,E,04.5,129,040821,03,E,A*05
$IIGLL,5413.822,N,01319.471,E,132928,A,A*50
$IIMWV,332,R,13.6,N,A*15
$IIMWV,322,T,09.9,N,A*16
$IIRMC,132928,A,5413.822,N,01319.471,E,04.5,129,040821,03,E,A*0B
$IIGLL,5413.822,N,01319.473,E,132929,A,A*53
$IIMWV,332,R,13.5,N,A*16
$IIMWV,320,T,09.7,N,A*1A
$IIRMC,132929,A,5413.822,N,01319.473,E,04.5,129,040821,03,E,A*08
$IIGLL,5413.821,N,01319.474,E,132930,A,A*5F
$IIMWV,334,R,13.7,N,A*12
$IIMWV,319,T,09.6,N,A*11
$IIRMC,132930,A,5413.821,N,01319.474,E,04.5,129,040821,03,E,A*04
$IIGLL,5413.820,N,01319.476,E,132931,A,A*5D
$IIMWV,335,R,13.5,N,A*11
$IIMWV,322,T,09.8,N,A*17
$IIRMC,132931,A,5413.820,N,01319.476,E,04.5,130,040821,03,E,A*0E
$IIGLL,5413.820,N,01319.478,E,132932,A,A*50
$IIMWV,335,R,13.8,N,A*1C
$IIMWV,324,T,09.5,N,A*1C
$IIRMC,132932,A,5413.820,N,01319.478,E,04.5,131,040821,03,E,A*02
$IIGLL,5413.819,N,01319.481,E,132933,A,A*5D
$IIMWV,336,R,13.9,N,A*1E
$IIMWV,325,T,09.8,N,A*10
$IIRMC,132933,A,5413.819,N,01319.481,E,04.5,129,040821,03,E,A*06
$IIGLL,5413.817,N,01319.482,E,132934,A,A*57
$IIMWV,336,R,14.0,N,A*10
$IIMWV,325,T,09.8,N,A*10
$IIRMC,132934,A,5413.817,N,01319.482,E,04.5,129,040821,03,E,A*0C
$IIGLL,5413.816,N,01319.483,E,132935,A,A*56
$IIMWV,335,R,14.1,N,A*12
$IIMWV,325,T,09.9,N,A*11
$IIRMC,132935,A,5413.816,N,01319.483,E,04.5,127,040821,03,E,A*03
$IIGLL,5413.816,N,01319.483,E,132935,A,A*56
$IIMWV,335,R,14.0,N,A*13
$IIMWV,325,T,10.1,N,A*11
$IIRMC,132935,A,5413.816,N,01319.483,E,04.5,127,040821,03,E,A*03
$IIGLL,5413.814,N,01319.486,E,132937,A,A*53
$IIMWV,335,R,14.0,N,A*13
$IIMWV,325,T,10.0,N,A*10
$IIRMC,132937,A,5413.814,N,01319.486,E,04.5,126,040821,03,E,A*07
$IIGLL,5413.812,N,01319.489,E,132938,A,A*55
$IIMWV,335,R,14.0,N,A*13
$IIMWV,325,T,10.0,N,A*10
$IIRMC,132939,A,5413.811,N,01319.491,E,04.5,126,040821,03,E,A*0A
$IIGLL,5413.811,N,01319.491,E,132939,A,A*5E
$IIMWV,335,R,13.2,N,A*16
$IIMWV,325,T,10.1,N,A*11
$IIRMC,132940,A,5413.811,N,01319.492,E,04.5,128,040821,03,E,A*09
$IIGLL,5413.811,N,01319.492,E,132940,A,A*53
$IIMWV,334,R,13.1,N,A*14
$IIMWV,324,T,09.3,N,A*1A
$IIRMC,132941,A,5413.810,N,01319.494,E,04.5,129,040821,03,E,A*0E
$IIGLL,5413.810,N,01319.494,E,132941,A,A*55
$IIMWV,335,R,12.8,N,A*1D
$IIMWV,322,T,09.1,N,A*1E
$IIRMC,132942,A,5413.808,N,01319.495,E,04.6,130,040821,03,E,A*0E
$IIGLL,5413.808,N,01319.495,E,132942,A,A*5E
$IIMWV,336,R,12.9,N,A*1F
$IIMWV,323,T,08.8,N,A*17
$IIRMC,132943,A,5413.807,N,01319.498,E,04.6,131,040821,03,E,A*0C
$IIGLL,5413.807,N,01319.498,E,132943,A,A*5D
$IIMWV,337,R,12.7,N,A*10
$IIMWV,324,T,08.8,N,A*10
$IIRMC,132944,A,5413.806,N,01319.499,E,04.6,130,040821,03,E,A*0A
$IIGLL,5413.806,N,01319.499,E,132944,A,A*5A
$IIMWV,337,R,12.8,N,A*1F
$IIMWV,325,T,08.5,N,A*1C
$IIRMC,132945,A,5413.805,N,01319.501,E,04.7,130,040821,03,E,A*09
$IIGLL,5413.805,N,01319.501,E,132945,A,A*58
$IIMWV,337,R,12.6,N,A*11
$IIMWV,325,T,08.6,N,A*1F
$IIRMC,132946,A,5413.804,N,01319.502,E,04.7,129,040821,03,E,A*00
$IIGLL,5413.804,N,01319.502,E,132946,A,A*59
$IIMWV,337,R,12.8,N,A*1F
$IIMWV,324,T,08.3,N,A*1B
$IIRMC,132947,A,5413.803,N,01319.503,E,04.7,127,040821,03,E,A*09
$IIGLL,5413.803,N,01319.503,E,132947,A,A*5E
$IIMWV,338,R,12.9,N,A*11
$IIMWV,325,T,08.5,N,A*1C
$IIRMC,132948,A,5413.803,N,01319.504,E,04.6,125,040821,03,E,A*02
$IIGLL,5413.803,N,01319.504,E,132948,A,A*56
$IIMWV,338,R,13.0,N,A*19
$IIMWV,327,T,08.5,N,A*1E
$IIRMC,132949,A,5413.803,N,01319.505,E,04.6,125,040821,03,E,A*02
$IIGLL,5413.802,N,01319.506,E,132950,A,A*5C
$IIMWV,339,R,13.0,N,A*18
$IIMWV,328,T,08.7,N,A*13
$IIRMC,132950,A,5413.802,N,01319.506,E,04.5,125,040821,03,E,A*0B
$IIGLL,5413.802,N,01319.506,E,132950,A,A*5C
$IIMWV,337,R,13.0,N,A*16
$IIMWV,328,T,08.7,N,A*13
$IIRMC,132950,A,5413.802,N,01319.506,E,04.5,125,040821,03,E,A*0B
$IIGLL,5413.801,N,01319.508,E,132952,A,A*53
$IIMWV,337,R,12.7,N,A*10
$IIMWV,326,T,08.9,N,A*13
$IIRMC,132952,A,5413.801,N,01319.508,E,04.4,127,040821,03,E,A*07
$IIGLL,5413.800,N,01319.510,E,132953,A,A*5A
$IIMWV,335,R,12.5,N,A*10
$IIMWV,326,T,08.7,N,A*1D
$IIRMC,132953,A,5413.800,N,01319.510,E,04.3,127,040821,03,E,A*09
$IIGLL,5413.798,N,01319.512,E,132954,A,A*51
$IIMWV,334,R,12.4,N,A*10
$IIMWV,323,T,08.7,N,A*18
$IIRMC,132954,A,5413.798,N,01319.512,E,04.3,127,040821,03,E,A*02
$IIGLL,5413.797,N,01319.513,E,132955,A,A*5E
$IIMWV,332,R,12.3,N,A*11
$IIMWV,322,T,08.6,N,A*18
$IIRMC,132955,A,5413.797,N,01319.513,E,04.3,130,040821,03,E,A*0B
$IIGLL,5413.797,N,01319.514,E,132956,A,A*5A
$IIMWV,331,R,12.6,N,A*17
$IIMWV,319,T,08.6,N,A*10
$IIRMC,132956,A,5413.797,N,01319.514,E,04.3,130,040821,03,E,A*0F
$IIGLL,5413.795,N,01319.515,E,132957,A,A*58
$IIMWV,330,R,12.5,N,A*15
$IIMWV,318,T,08.9,N,A*1E
$IIRMC,132957,A,5413.795,N,01319.515,E,04.3,130,040821,03,E,A*0D
$IIGLL,5413.795,N,01319.517,E,132958,A,A*55
$IIMWV,328,R,12.4,N,A*1D
$IIMWV,316,T,08.9,N,A*10
$IIRMC,132958,A,5413.795,N,01319.517,E,04.3,130,040821,03,E,A*00
$IIGLL,5413.795,N,01319.518,E,132959,A,A*5B
$IIMWV,327,R,12.3,N,A*15
$IIMWV,314,T,08.9,N,A*12
$IIRMC,132959,A,5413.795,N,01319.518,E,04.3,131,040821,03,E,A*0F
$IIGLL,5413.794,N,01319.519,E,133000,A,A*5F
$IIMWV,326,R,12.3,N,A*14
$IIMWV,312,T,08.9,N,A*14
$IIRMC,133000,A,5413.794,N,01319.519,E,04.3,133,040821,03,E,A*09
$IIGLL,5413.794,N,01319.521,E,133001,A,A*55
$IIMWV,327,R,12.2,N,A*14
$IIMWV,311,T,09.0,N,A*1F
$IIRMC,133001,A,5413.794,N,01319.521,E,04.3,133,040821,03,E,A*03
$IIGLL,5413.793,N,01319.522,E,133002,A,A*52
$IIMWV,328,R,12.2,N,A*1B
$IIMWV,312,T,08.7,N,A*1A
$IIRMC,133002,A,5413.793,N,01319.522,E,04.3,134,040821,03,E,A*03
$IIGLL,5413.792,N,01319.525,E,133003,A,A*55
$IIMWV,329,R,12.2,N,A*1A
$IIMWV,313,T,08.7,N,A*1B
$IIRMC,133003,A,5413.792,N,01319.525,E,04.3,135,040821,03,E,A*05
$IIGLL,5413.792,N,01319.526,E,133004,A,A*51
$IIMWV,328,R,12.2,N,A*1B
$IIMWV,314,T,08.7,N,A*1C
$IIRMC,133004,A,5413.792,N,01319.526,E,04.4,135,040821,03,E,A*06
$IIGLL,5413.791,N,01319.527,E,133005,A,A*52
$IIMWV,327,R,12.8,N,A*1E
$IIMWV,313,T,08.7,N,A*1B
$IIRMC,133005,A,5413.791,N,01319.527,E,04.4,135,040821,03,E,A*05
$IIGLL,5413.790,N,01319.528,E,133006,A,A*5F
$IIMWV,327,R,12.5,N,A*13
$IIMWV,312,T,09.3,N,A*1F
$IIRMC,133006,A,5413.790,N,01319.528,E,04.4,136,040821,03,E,A*0B
$IIGLL,5413.789,N,01319.530,E,133007,A,A*5F
$IIMWV,327,R,12.4,N,A*12
$IIMWV,312,T,09.0,N,A*1C
$IIRMC,133007,A,5413.789,N,01319.530,E,04.5,136,040821,03,E,A*0A
$IIGLL,5413.788,N,01319.531,E,133008,A,A*50
$IIMWV,325,R,12.7,N,A*13
$IIMWV,312,T,08.8,N,A*15
$IIRMC,133008,A,5413.788,N,01319.531,E,04.5,136,040821,03,E,A*05
$IIGLL,5413.788,N,01319.532,E,133009,A,A*52
$IIMWV,325,R,12.5,N,A*11
$IIMWV,309,T,09.3,N,A*15
$IIRMC,133009,A,5413.788,N,01319.532,E,04.6,135,040821,03,E,A*07
$IIGLL,5413.787,N,01319.534,E,133010,A,A*53
$IIMWV,327,R,12.7,N,A*11
$IIMWV,308,T,09.0,N,A*17
$IIRMC,133010,A,5413.787,N,01319.534,E,04.6,134,040821,03,E,A*07
$IIGLL,5413.786,N,01319.536,E,133011,A,A*51
$IIMWV,327,R,12.5,N,A*13
$IIMWV,311,T,09.0,N,A*1F
$IIRMC,133011,A,5413.786,N,01319.536,E,04.6,135,040821,03,E,A*04
$IIGLL,5413.785,N,01319.537,E,133012,A,A*50
$IIMWV,325,R,12.3,N,A*17
$IIMWV,311,T,08.9,N,A*17
$IIRMC,133012,A,5413.785,N,01319.537,E,04.6,135,040821,03,E,A*05
$IIGLL,5413.784,N,01319.539,E,133013,A,A*5E
$IIMWV,321,R,11.9,N,A*1A
$IIMWV,308,T,08.8,N,A*1E
$IIRMC,133013,A,5413.784,N,01319.539,E,04.6,137,040821,03,E,A*09
$IIGLL,5413.783,N,01319.540,E,133014,A,A*50
$IIMWV,317,R,12.0,N,A*15
$IIMWV,302,T,08.7,N,A*1B
$IIRMC,133014,A,5413.783,N,01319.540,E,04.7,136,040821,03,E,A*07
$IIGLL,5413.782,N,01319.543,E,133015,A,A*53
$IIMWV,316,R,11.7,N,A*10
$IIMWV,296,T,09.0,N,A*11
$IIRMC,133015,A,5413.782,N,01319.543,E,04.7,136,040821,03,E,A*04
$IIGLL,5413.782,N,01319.545,E,133016,A,A*56
$IIMWV,316,R,11.9,N,A*1E
$IIMWV,295,T,08.8,N,A*1B
$IIRMC,133016,A,5413.782,N,01319.545,E,04.6,134,040821,03,E,A*02
$IIGLL,5413.782,N,01319.548,E,133017,A,A*5A
$IIMWV,315,R,12.0,N,A*17
$IIMWV,295,T,09.0,N,A*12
$IIRMC,133017,A,5413.782,N,01319.548,E,04.8,135,040821,03,E,A*01
$IIGLL,5413.780,N,01319.550,E,133018,A,A*5E
$IIMWV,317,R,11.7,N,A*11
$IIMWV,293,T,09.2,N,A*16
$IIRMC,133018,A,5413.780,N,01319.550,E,04.7,131,040821,03,E,A*0E
$IIGLL,5413.780,N,01319.550,E,133018,A,A*5E
$IIMWV,319,R,12.0,N,A*1B
$IIMWV,296,T,08.7,N,A*17
$IIRMC,133018,A,5413.780,N,01319.550,E,04.7,131,040821,03,E,A*0E
$IIGLL,5413.781,N,01319.553,E,133020,A,A*57
$IIMWV,320,R,12.1,N,A*10
$IIMWV,299,T,08.9,N,A*16
$IIRMC,133020,A,5413.781,N,01319.553,E,04.8,130,040821,03,E,A*09
$IIGLL,5413.780,N,01319.555,E,133021,A,A*51
$IIMWV,320,R,12.5,N,A*14
$IIMWV,300,T,08.9,N,A*17
$IIRMC,133021,A,5413.780,N,01319.555,E,04.9,131,040821,03,E,A*0F
$IIGLL,5413.780,N,01319.556,E,133022,A,A*51
$IIMWV,322,R,12.7,N,A*14
$IIMWV,301,T,09.2,N,A*1C
$IIRMC,133022,A,5413.780,N,01319.556,E,04.9,131,040821,03,E,A*0F
$IIGLL,5413.779,N,01319.558,E,133023,A,A*58
$IIMWV,322,R,12.9,N,A*1A
$IIMWV,303,T,09.3,N,A*1F
$IIRMC,133023,A,5413.779,N,01319.558,E,04.9,130,040821,03,E,A*07
$IIGLL,5413.778,N,01319.561,E,133024,A,A*54
$IIMWV,322,R,12.7,N,A*14
$IIMWV,303,T,09.4,N,A*18
$IIRMC,133024,A,5413.778,N,01319.561,E,04.9,131,040821,03,E,A*0A
$IIGLL,5413.776,N,01319.562,E,133025,A,A*58
$IIMWV,321,R,12.9,N,A*19
$IIMWV,303,T,09.3,N,A*1F
$IIRMC,133025,A,5413.776,N,01319.562,E,04.9,131,040821,03,E,A*06
$IIGLL,5413.776,N,01319.562,E,133025,A,A*58
$IIMWV,320,R,12.6,N,A*17
$IIMWV,302,T,09.5,N,A*18
$IIRMC,133025,A,5413.776,N,01319.562,E,04.9,131,040821,03,E,A*06
$IIGLL,5413.774,N,01319.567,E,133027,A,A*5D
$IIMWV,322,R,12.4,N,A*17
$IIMWV,301,T,09.3,N,A*1D
$IIRMC,133027,A,5413.774,N,01319.567,E,05.0,131,040821,03,E,A*0B
$IIGLL,5413.772,N,01319.569,E,133028,A,A*5A
$IIMWV,324,R,11.7,N,A*11
$IIMWV,302,T,08.9,N,A*15
$IIRMC,133028,A,5413.772,N,01319.569,E,05.0,131,040821,03,E,A*0C
$IIGLL,5413.771,N,01319.570,E,133029,A,A*50
$IIMWV,325,R,11.1,N,A*16
$IIMWV,303,T,08.1,N,A*1C
$IIRMC,133029,A,5413.771,N,01319.570,E,04.9,131,040821,03,E,A*0E
$IIGLL,5413.770,N,01319.572,E,133030,A,A*5B
$IIMWV,324,R,11.1,N,A*17
$IIMWV,304,T,07.5,N,A*10
$IIRMC,133030,A,5413.770,N,01319.572,E,04.8,131,040821,03,E,A*04
$IIGLL,5413.769,N,01319.574,E,133031,A,A*54
$IIMWV,325,R,10.8,N,A*1E
$IIMWV,302,T,07.6,N,A*15
$IIRMC,133031,A,5413.769,N,01319.574,E,04.8,132,040821,03,E,A*08
$IIGLL,5413.767,N,01319.575,E,133032,A,A*58
$IIMWV,326,R,11.4,N,A*10
$IIMWV,303,T,07.2,N,A*10
$IIRMC,133032,A,5413.767,N,01319.575,E,04.8,134,040821,03,E,A*02
$IIGLL,5413.765,N,01319.578,E,133033,A,A*56
$IIMWV,324,R,11.8,N,A*1E
$IIMWV,306,T,07.8,N,A*1F
$IIRMC,133033,A,5413.765,N,01319.578,E,04.7,135,040821,03,E,A*02
$IIGLL,5413.764,N,01319.579,E,133034,A,A*51
$IIMWV,324,R,12.0,N,A*15
$IIMWV,305,T,08.4,N,A*1F
$IIRMC,133034,A,5413.764,N,01319.579,E,04.7,135,040821,03,E,A*05
$IIGLL,5413.763,N,01319.581,E,133035,A,A*50
$IIMWV,324,R,11.6,N,A*10
$IIMWV,306,T,08.6,N,A*1E
$IIRMC,133035,A,5413.763,N,01319.581,E,04.7,135,040821,03,E,A*04
$IIGLL,5413.761,N,01319.582,E,133036,A,A*52
$IIMWV,323,R,11.9,N,A*18
$IIMWV,304,T,08.2,N,A*18
$IIRMC,133036,A,5413.761,N,01319.582,E,04.7,134,040821,03,E,A*07
$IIGLL,5413.761,N,01319.584,E,133037,A,A*55
$IIMWV,323,R,11.6,N,A*17
$IIMWV,304,T,08.5,N,A*1F
$IIRMC,133037,A,5413.761,N,01319.584,E,04.7,133,040821,03,E,A*07
$IIGLL,5413.761,N,01319.586,E,133038,A,A*58
$IIMWV,323,R,11.5,N,A*14
$IIMWV,303,T,08.2,N,A*1F
$IIRMC,133038,A,5413.761,N,01319.586,E,04.7,131,040821,03,E,A*08
$IIGLL,5413.760,N,01319.589,E,133039,A,A*57
$IIMWV,325,R,11.0,N,A*17
$IIMWV,303,T,08.2,N,A*1F
$IIRMC,133039,A,5413.760,N,01319.589,E,04.7,130,040821,03,E,A*06
$IIGLL,5413.759,N,01319.591,E,133040,A,A*5A
$IIMWV,327,R,11.0,N,A*15
$IIMWV,305,T,07.5,N,A*11
$IIRMC,133040,A,5413.759,N,01319.591,E,04.7,128,040821,03,E,A*02
$IIGLL,5413.759,N,01319.592,E,133041,A,A*58
$IIMWV,327,R,11.1,N,A*14
$IIMWV,307,T,07.4,N,A*12
$IIRMC,133041,A,5413.759,N,01319.592,E,04.7,127,040821,03,E,A*0F
$IIGLL,5413.758,N,01319.594,E,133042,A,A*5C
$IIMWV,324,R,10.7,N,A*10
$IIMWV,308,T,07.4,N,A*1D
$IIRMC,133042,A,5413.758,N,01319.594,E,04.6,127,040821,03,E,A*0A
$IIGLL,5413.758,N,01319.596,E,133043,A,A*5F
$IIMWV,322,R,11.1,N,A*11
$IIMWV,303,T,07.4,N,A*16
$IIRMC,133043,A,5413.758,N,01319.596,E,04.6,128,040821,03,E,A*06
$IIGLL,5413.758,N,01319.596,E,133043,A,A*5F
$IIMWV,321,R,11.3,N,A*10
$IIMWV,301,T,07.9,N,A*19
$IIRMC,133043,A,5413.758,N,01319.596,E,04.6,128,040821,03,E,A*06
$IIGLL,5413.756,N,01319.600,E,133045,A,A*5B
$IIMWV,322,R,11.2,N,A*12
$IIMWV,301,T,08.2,N,A*1D
$IIRMC,133045,A,5413.756,N,01319.600,E,04.6,129,040821,03,E,A*03
$IIGLL,5413.756,N,01319.602,E,133046,A,A*5A
$IIMWV,324,R,10.8,N,A*1F
$IIMWV,301,T,08.0,N,A*1F
$IIRMC,133046,A,5413.756,N,01319.602,E,04.6,130,040821,03,E,A*0A
$IIGLL,5413.756,N,01319.602,E,133046,A,A*5A
$IIMWV,325,R,11.5,N,A*12
$IIMWV,303,T,07.5,N,A*17
$IIRMC,133046,A,5413.756,N,01319.602,E,04.6,130,040821,03,E,A*0A
$IIGLL,5413.755,N,01319.605,E,133048,A,A*50
$IIMWV,323,R,11.3,N,A*12
$IIMWV,307,T,08.0,N,A*19
$IIRMC,133048,A,5413.755,N,01319.605,E,04.7,130,040821,03,E,A*01
$IIGLL,5413.754,N,01319.607,E,133049,A,A*52
$IIMWV,321,R,11.8,N,A*1B
$IIMWV,303,T,07.9,N,A*1B
$IIRMC,133049,A,5413.754,N,01319.607,E,04.7,130,040821,03,E,A*03
$IIGLL,5413.754,N,01319.609,E,133050,A,A*54
$IIMWV,321,R,11.1,N,A*12
$IIMWV,301,T,08.6,N,A*19
$IIRMC,133050,A,5413.754,N,01319.609,E,04.8,130,040821,03,E,A*0A
$IIGLL,5413.752,N,01319.610,E,133051,A,A*5B
$IIMWV,320,R,10.7,N,A*14
$IIMWV,299,T,07.8,N,A*18
$IIRMC,133051,A,5413.752,N,01319.610,E,04.7,130,040821,03,E,A*0A
$IIGLL,5413.751,N,01319.612,E,133052,A,A*59
$IIMWV,318,R,10.5,N,A*1D
$IIMWV,297,T,07.6,N,A*18
$IIRMC,133052,A,5413.751,N,01319.612,E,04.7,130,040821,03,E,A*08
$IIGLL,5413.750,N,01319.614,E,133053,A,A*5F
$IIMWV,318,R,10.5,N,A*1D
$IIMWV,293,T,07.6,N,A*1C
$IIRMC,133053,A,5413.750,N,01319.614,E,04.7,130,040821,03,E,A*0E
$IIGLL,5413.749,N,01319.616,E,133054,A,A*52
$IIMWV,320,R,10.9,N,A*1A
$IIMWV,293,T,07.6,N,A*1C
$IIRMC,133054,A,5413.749,N,01319.616,E,04.7,128,040821,03,E,A*0A
$IIGLL,5413.748,N,01319.619,E,133055,A,A*5D
$IIMWV,318,R,11.6,N,A*1F
$IIMWV,297,T,07.7,N,A*19
$IIRMC,133055,A,5413.748,N,01319.619,E,04.7,129,040821,03,E,A*04
$IIGLL,5413.747,N,01319.621,E,133056,A,A*5A
$IIMWV,319,R,11.1,N,A*19
$IIMWV,296,T,08.5,N,A*15
$IIRMC,133056,A,5413.747,N,01319.621,E,04.7,128,040821,03,E,A*02
$IIGLL,5413.747,N,01319.621,E,133056,A,A*5A
$IIMWV,321,R,10.7,N,A*15
$IIMWV,296,T,08.1,N,A*11
$IIRMC,133056,A,5413.747,N,01319.621,E,04.7,128,040821,03,E,A*02
$IIGLL,5413.745,N,01319.624,E,133058,A,A*53
$IIMWV,323,R,10.6,N,A*16
$IIMWV,298,T,07.6,N,A*17
$IIRMC,133058,A,5413.745,N,01319.624,E,04.7,128,040821,03,E,A*0B
$IIGLL,5413.744,N,01319.626,E,133059,A,A*51
$IIMWV,323,R,10.5,N,A*15
$IIMWV,301,T,07.3,N,A*13
$IIRMC,133059,A,5413.744,N,01319.626,E,04.7,127,040821,03,E,A*06
$IIGLL,5413.744,N,01319.626,E,133059,A,A*51
$IIMWV,319,R,10.4,N,A*1D
$IIMWV,301,T,07.3,N,A*13
$IIRMC,133059,A,5413.744,N,01319.626,E,04.7,127,040821,03,E,A*06
$IIGLL,5413.744,N,01319.626,E,133059,A,A*51
$IIMWV,317,R,10.7,N,A*10
$IIMWV,295,T,07.4,N,A*18
$IIRMC,133059,A,5413.744,N,01319.626,E,04.7,127,040821,03,E,A*06
$IIGLL,5413.741,N,01319.631,E,133102,A,A*5D
$IIMWV,316,R,10.5,N,A*13
$IIMWV,293,T,07.8,N,A*12
$IIRMC,133102,A,5413.741,N,01319.631,E,04.7,128,040821,03,E,A*05
$IIGLL,5413.740,N,01319.632,E,133103,A,A*5E
$IIMWV,316,R,10.8,N,A*1E
$IIMWV,291,T,07.7,N,A*1F
$IIRMC,133103,A,5413.740,N,01319.632,E,04.7,127,040821,03,E,A*09
$IIGLL,5413.740,N,01319.634,E,133104,A,A*5F
$IIMWV,315,R,10.7,N,A*12
$IIMWV,292,T,07.9,N,A*12
$IIRMC,133104,A,5413.740,N,01319.634,E,04.7,125,040821,03,E,A*0A
$IIGLL,5413.739,N,01319.637,E,133105,A,A*53
$IIMWV,313,R,10.6,N,A*15
$IIMWV,290,T,08.0,N,A*16
$IIRMC,133105,A,5413.739,N,01319.637,E,04.6,126,040821,03,E,A*04
$IIGLL,5413.738,N,01319.638,E,133106,A,A*5E
$IIMWV,314,R,11.3,N,A*16
$IIMWV,289,T,08.1,N,A*1F
$IIRMC,133106,A,5413.738,N,01319.638,E,04.7,125,040821,03,E,A*0B
$IIGLL,5413.737,N,01319.639,E,133107,A,A*51
$IIMWV,322,R,10.9,N,A*18
$IIMWV,290,T,08.6,N,A*10
$IIRMC,133107,A,5413.737,N,01319.639,E,04.7,126,040821,03,E,A*07
$IIGLL,5413.737,N,01319.640,E,133108,A,A*50
$IIMWV,324,R,11.1,N,A*17
$IIMWV,300,T,07.7,N,A*16
$IIRMC,133108,A,5413.737,N,01319.640,E,04.7,126,040821,03,E,A*06
$IIGLL,5413.737,N,01319.642,E,133109,A,A*53
$IIMWV,325,R,11.7,N,A*10
$IIMWV,303,T,07.7,N,A*15
$IIRMC,133109,A,5413.737,N,01319.642,E,04.7,124,040821,03,E,A*07
$IIGLL,5413.738,N,01319.644,E,133110,A,A*52
$IIMWV,331,R,11.0,N,A*12
$IIMWV,306,T,08.1,N,A*19
$IIRMC,133110,A,5413.738,N,01319.644,E,04.6,123,040821,03,E,A*00
$IIGLL,5413.737,N,01319.646,E,133111,A,A*5E
$IIMWV,328,R,10.7,N,A*1C
$IIMWV,313,T,07.1,N,A*12
$IIRMC,133111,A,5413.737,N,01319.646,E,04.6,125,040821,03,E,A*0A
$IIGLL,5413.736,N,01319.648,E,133112,A,A*52
$IIMWV,326,R,10.2,N,A*17
$IIMWV,308,T,07.1,N,A*18
$IIRMC,133112,A,5413.736,N,01319.648,E,04.6,126,040821,03,E,A*05
$IIGLL,5413.735,N,01319.649,E,133113,A,A*51
$IIMWV,321,R,10.2,N,A*10
$IIMWV,304,T,06.8,N,A*1C
$IIRMC,133113,A,5413.735,N,01319.649,E,04.5,126,040821,03,E,A*05
$IIGLL,5413.735,N,01319.649,E,133113,A,A*51
$IIMWV,321,R,10.3,N,A*11
$IIMWV,298,T,07.2,N,A*13
$IIRMC,133113,A,5413.735,N,01319.649,E,04.5,126,040821,03,E,A*05
$IIGLL,5413.734,N,01319.653,E,133115,A,A*5D
$IIMWV,328,R,09.9,N,A*1A
$IIMWV,299,T,07.2,N,A*12
$IIRMC,133115,A,5413.734,N,01319.653,E,04.5,128,040821,03,E,A*07
$IIGLL,5413.733,N,01319.655,E,133116,A,A*5F
$IIMWV,329,R,09.6,N,A*14
$IIMWV,307,T,06.5,N,A*12
$IIRMC,133116,A,5413.733,N,01319.655,E,04.5,129,040821,03,E,A*04
$IIGLL,5413.733,N,01319.656,E,133117,A,A*5D
$IIMWV,333,R,10.1,N,A*10
$IIMWV,307,T,06.1,N,A*16
$IIRMC,133117,A,5413.733,N,01319.656,E,04.5,129,040821,03,E,A*06
$IIGLL,5413.732,N,01319.658,E,133118,A,A*5D
$IIMWV,335,R,09.9,N,A*16
$IIMWV,314,T,06.2,N,A*17
$IIRMC,133118,A,5413.732,N,01319.658,E,04.5,128,040821,03,E,A*07
$IIGLL,5413.731,N,01319.660,E,133119,A,A*54
$IIMWV,335,R,09.7,N,A*18
$IIMWV,318,T,06.0,N,A*19
$IIRMC,133119,A,5413.731,N,01319.660,E,04.4,131,040821,03,E,A*07
$IIGLL,5413.731,N,01319.660,E,133120,A,A*5E
$IIMWV,332,R,10.5,N,A*15
$IIMWV,318,T,05.9,N,A*13
$IIRMC,133121,A,5413.729,N,01319.661,E,04.3,131,040821,03,E,A*03
$IIGLL,5413.729,N,01319.661,E,133121,A,A*57
$IIMWV,331,R,11.0,N,A*12
$IIMWV,315,T,06.9,N,A*1D
$IIRMC,133122,A,5413.729,N,01319.662,E,04.2,132,040821,03,E,A*01
$IIGLL,5413.729,N,01319.662,E,133122,A,A*57
$IIMWV,330,R,10.8,N,A*1A
$IIMWV,315,T,07.3,N,A*16
$IIRMC,133123,A,5413.729,N,01319.663,E,04.1,133,040821,03,E,A*03
$IIGLL,5413.729,N,01319.663,E,133123,A,A*57
$IIMWV,328,R,10.6,N,A*1D
$IIMWV,313,T,07.4,N,A*17
$IIRMC,133124,A,5413.727,N,01319.665,E,04.1,133,040821,03,E,A*0C
$IIGLL,5413.727,N,01319.665,E,133124,A,A*58
$IIMWV,330,R,10.4,N,A*16
$IIMWV,311,T,07.4,N,A*15
$IIRMC,133125,A,5413.727,N,01319.667,E,04.1,134,040821,03,E,A*08
$IIGLL,5413.727,N,01319.667,E,133125,A,A*5B
$IIMWV,330,R,10.6,N,A*14
$IIMWV,313,T,07.1,N,A*12
$IIRMC,133126,A,5413.726,N,01319.668,E,04.1,134,040821,03,E,A*05
$IIGLL,5413.726,N,01319.668,E,133126,A,A*56
$IIMWV,331,R,10.6,N,A*15
$IIMWV,314,T,07.3,N,A*17
$IIRMC,133127,A,5413.725,N,01319.670,E,04.1,133,040821,03,E,A*09
$IIGLL,5413.725,N,01319.670,E,133127,A,A*5D
$IIMWV,333,R,10.6,N,A*17
$IIMWV,315,T,07.1,N,A*14
$IIRMC,133128,A,5413.725,N,01319.671,E,04.1,131,040821,03,E,A*05
$IIGLL,5413.725,N,01319.671,E,133128,A,A*53
$IIMWV,336,R,10.6,N,A*12
$IIMWV,318,T,07.0,N,A*18
$IIRMC,133129,A,5413.724,N,01319.673,E,04.1,131,040821,03,E,A*07
$IIGLL,5413.724,N,01319.673,E,133129,A,A*51
$IIMWV,336,R,09.8,N,A*14
$IIMWV,322,T,06.9,N,A*19
$IIRMC,133130,A,5413.723,N,01319.674,E,04.0,129,040821,03,E,A*07
$IIGLL,5413.723,N,01319.674,E,133130,A,A*59
$IIMWV,337,R,10.2,N,A*17
$IIMWV,320,T,06.2,N,A*10
$IIRMC,133131,A,5413.722,N,01319.676,E,04.0,129,040821,03,E,A*05
$IIGLL,5413.722,N,01319.676,E,133131,A,A*5B
$IIMWV,336,R,09.6,N,A*1A
$IIMWV,324,T,06.5,N,A*13
$IIRMC,133132,A,5413.721,N,01319.677,E,04.0,129,040821,03,E,A*04
$IIGLL,5413.721,N,01319.677,E,133132,A,A*5A
$IIMWV,335,R,10.1,N,A*16
$IIMWV,320,T,06.1,N,A*13
$IIRMC,133133,A,5413.721,N,01319.678,E,04.0,128,040821,03,E,A*0B
$IIGLL,5413.721,N,01319.678,E,133133,A,A*54
$IIMWV,331,R,10.5,N,A*16
$IIMWV,320,T,06.6,N,A*14
$IIRMC,133134,A,5413.720,N,01319.679,E,03.9,126,040821,03,E,A*0C
$IIGLL,5413.720,N,01319.679,E,133134,A,A*53
$IIMWV,331,R,09.9,N,A*12
$IIMWV,315,T,07.1,N,A*14
$IIRMC,133135,A,5413.720,N,01319.681,E,03.8,127,040821,03,E,A*0A
$IIGLL,5413.720,N,01319.681,E,133135,A,A*55
$IIMWV,332,R,09.0,N,A*18
$IIMWV,315,T,06.6,N,A*12
$IIRMC,133136,A,5413.720,N,01319.682,E,03.8,127,040821,03,E,A*0A
$IIGLL,5413.720,N,01319.682,E,133136,A,A*55
$IIMWV,330,R,09.1,N,A*1B
$IIMWV,314,T,05.8,N,A*1E
$IIRMC,133137,A,5413.719,N,01319.683,E,03.7,127,040821,03,E,A*0F
$IIGLL,5413.719,N,01319.683,E,133137,A,A*5F
$IIMWV,330,R,09.9,N,A*13
$IIMWV,312,T,06.0,N,A*13
$IIRMC,133138,A,5413.719,N,01319.684,E,03.7,129,040821,03,E,A*09
$IIGLL,5413.719,N,01319.684,E,133138,A,A*57
$IIMWV,327,R,09.5,N,A*19
$IIMWV,315,T,06.9,N,A*1D
$IIRMC,133139,A,5413.718,N,01319.686,E,03.7,131,040821,03,E,A*02
$IIGLL,5413.718,N,01319.686,E,133139,A,A*55
$IIMWV,328,R,09.3,N,A*10
$IIMWV,310,T,06.6,N,A*17
$IIRMC,133140,A,5413.716,N,01319.687,E,03.7,132,040821,03,E,A*00
$IIGLL,5413.716,N,01319.687,E,133140,A,A*54
$IIMWV,329,R,09.4,N,A*16
$IIMWV,311,T,06.4,N,A*14
$IIRMC,133141,A,5413.716,N,01319.688,E,03.8,132,040821,03,E,A*01
$IIGLL,5413.715,N,01319.690,E,133142,A,A*53
$IIMWV,332,R,09.8,N,A*10
$IIMWV,314,T,07.0,N,A*14
$IIRMC,133142,A,5413.715,N,01319.690,E,03.8,131,040821,03,E,A*0B
$IIGLL,5413.715,N,01319.690,E,133142,A,A*53
$IIMWV,332,R,10.3,N,A*13
$IIMWV,316,T,06.6,N,A*11
$IIRMC,133142,A,5413.715,N,01319.690,E,03.8,131,040821,03,E,A*0B
$IIGLL,5413.712,N,01319.692,E,133144,A,A*50
$IIMWV,331,R,11.2,N,A*10
$IIMWV,317,T,07.0,N,A*17
$IIRMC,133144,A,5413.712,N,01319.692,E,03.8,130,040821,03,E,A*09
$IIGLL,5413.712,N,01319.693,E,133145,A,A*50
$IIMWV,332,R,11.5,N,A*14
$IIMWV,318,T,07.9,N,A*11
$IIRMC,133145,A,5413.712,N,01319.693,E,03.8,130,040821,03,E,A*09
$IIGLL,5413.711,N,01319.694,E,133146,A,A*57
$IIMWV,329,R,11.6,N,A*1D
$IIMWV,319,T,08.2,N,A*14
$IIRMC,133146,A,5413.711,N,01319.694,E,03.8,130,040821,03,E,A*0E
$IIGLL,5413.711,N,01319.696,E,133147,A,A*54
$IIMWV,327,R,11.6,N,A*13
$IIMWV,315,T,08.5,N,A*1F
$IIRMC,133147,A,5413.711,N,01319.696,E,03.8,130,040821,03,E,A*0D
$IIGLL,5413.710,N,01319.697,E,133148,A,A*5B
$IIMWV,326,R,10.8,N,A*1D
$IIMWV,314,T,08.5,N,A*1E
$IIRMC,133148,A,5413.710,N,01319.697,E,03.9,130,040821,03,E,A*03
$IIGLL,5413.709,N,01319.699,E,133149,A,A*5C
$IIMWV,328,R,11.2,N,A*18
$IIMWV,310,T,07.8,N,A*18
$IIRMC,133149,A,5413.709,N,01319.699,E,03.9,130,040821,03,E,A*04
$IIGLL,5413.709,N,01319.699,E,133149,A,A*5C
$IIMWV,336,R,11.5,N,A*10
$IIMWV,314,T,08.1,N,A*1A
$IIRMC,133149,A,5413.709,N,01319.699,E,03.9,130,040821,03,E,A*04
$IIGLL,5413.707,N,01319.701,E,133151,A,A*5B
$IIMWV,336,R,12.0,N,A*16
$IIMWV,324,T,08.0,N,A*18
$IIRMC,133151,A,5413.707,N,01319.701,E,04.0,129,040821,03,E,A*05
$IIGLL,5413.706,N,01319.703,E,133152,A,A*5B
$IIMWV,337,R,12.7,N,A*10
$IIMWV,325,T,08.4,N,A*1D
$IIRMC,133152,A,5413.706,N,01319.703,E,04.1,128,040821,03,E,A*05
$IIGLL,5413.705,N,01319.705,E,133153,A,A*5F
$IIMWV,337,R,12.3,N,A*14
$IIMWV,327,T,08.9,N,A*12
$IIRMC,133153,A,5413.705,N,01319.705,E,04.1,126,040821,03,E,A*0F
$IIGLL,5413.705,N,01319.707,E,133154,A,A*5A
$IIMWV,337,R,12.2,N,A*15
$IIMWV,327,T,08.5,N,A*1E
$IIRMC,133154,A,5413.705,N,01319.707,E,04.2,125,040821,03,E,A*0A
$IIGLL,5413.705,N,01319.707,E,133154,A,A*5A
$IIMWV,338,R,12.2,N,A*1A
$IIMWV,326,T,08.4,N,A*1E
$IIRMC,133154,A,5413.705,N,01319.707,E,04.2,125,040821,03,E,A*0A
$IIGLL,5413.703,N,01319.710,E,133156,A,A*58
$IIMWV,339,R,11.6,N,A*1C
$IIMWV,328,T,08.4,N,A*10
$IIRMC,133156,A,5413.703,N,01319.710,E,04.1,124,040821,03,E,A*0A
$IIGLL,5413.703,N,01319.712,E,133157,A,A*5B
$IIMWV,341,R,12.0,N,A*16
$IIMWV,328,T,07.7,N,A*1C
$IIRMC,133157,A,5413.703,N,01319.712,E,04.1,123,040821,03,E,A*0E
$IIGLL,5413.702,N,01319.713,E,133158,A,A*54
$IIMWV,343,R,12.6,N,A*12
$IIMWV,332,T,08.2,N,A*1D
$IIRMC,133158,A,5413.702,N,01319.713,E,04.0,124,040821,03,E,A*07
$IIGLL,5413.702,N,01319.716,E,133159,A,A*50
$IIMWV,346,R,13.0,N,A*10
$IIMWV,336,T,08.7,N,A*1C
$IIRMC,133159,A,5413.702,N,01319.716,E,04.0,124,040821,03,E,A*03
$IIGLL,5413.702,N,01319.719,E,133200,A,A*50
$IIMWV,344,R,13.2,N,A*10
$IIMWV,340,T,09.1,N,A*1A
$IIRMC,133200,A,5413.702,N,01319.719,E,03.9,124,040821,03,E,A*0D
$IIGLL,5413.703,N,01319.720,E,133201,A,A*5A
$IIMWV,344,R,12.6,N,A*15
$IIMWV,337,T,09.4,N,A*1F
$IIRMC,133201,A,5413.703,N,01319.720,E,03.8,125,040821,03,E,A*07
$IIGLL,5413.702,N,01319.722,E,133202,A,A*5A
$IIMWV,340,R,13.2,N,A*14
$IIMWV,337,T,08.9,N,A*13
$IIRMC,133202,A,5413.702,N,01319.722,E,03.8,126,040821,03,E,A*04
$IIGLL,5413.701,N,01319.723,E,133203,A,A*59
$IIMWV,340,R,12.6,N,A*11
$IIMWV,333,T,09.6,N,A*19
$IIRMC,133203,A,5413.701,N,01319.723,E,03.8,127,040821,03,E,A*06
$IIGLL,5413.700,N,01319.724,E,133204,A,A*58
$IIMWV,340,R,12.7,N,A*10
$IIMWV,332,T,09.0,N,A*1E
$IIRMC,133204,A,5413.700,N,01319.724,E,03.8,128,040821,03,E,A*08
$IIGLL,5413.700,N,01319.725,E,133205,A,A*58
$IIMWV,342,R,12.4,N,A*11
$IIMWV,332,T,09.1,N,A*1F
$IIRMC,133205,A,5413.700,N,01319.725,E,03.7,128,040821,03,E,A*07
$IIGLL,5413.698,N,01319.726,E,133206,A,A*58
$IIMWV,342,R,12.3,N,A*16
$IIMWV,335,T,08.8,N,A*10
$IIRMC,133206,A,5413.698,N,01319.726,E,03.7,129,040821,03,E,A*06
$IIGLL,5413.698,N,01319.727,E,133207,A,A*58
$IIMWV,341,R,12.2,N,A*14
$IIMWV,334,T,08.7,N,A*1E
$IIRMC,133207,A,5413.698,N,01319.727,E,03.7,130,040821,03,E,A*0E
$IIGLL,5413.697,N,01319.728,E,133208,A,A*57
$IIMWV,342,R,11.5,N,A*13
$IIMWV,333,T,08.7,N,A*19
$IIRMC,133208,A,5413.697,N,01319.728,E,03.6,129,040821,03,E,A*08
$IIGLL,5413.696,N,01319.730,E,133209,A,A*5E
$IIMWV,342,R,12.3,N,A*16
$IIMWV,334,T,08.0,N,A*19
$IIRMC,133209,A,5413.696,N,01319.730,E,03.6,129,040821,03,E,A*01
$IIGLL,5413.696,N,01319.731,E,133210,A,A*57
$IIMWV,341,R,11.3,N,A*16
$IIMWV,335,T,08.8,N,A*10
$IIRMC,133210,A,5413.696,N,01319.731,E,03.6,129,040821,03,E,A*08
$IIGLL,5413.696,N,01319.733,E,133211,A,A*54
$IIMWV,340,R,11.2,N,A*16
$IIMWV,333,T,08.0,N,A*1E
$IIRMC,133211,A,5413.696,N,01319.733,E,03.6,128,040821,03,E,A*0A
$IIGLL,5413.696,N,01319.734,E,133212,A,A*50
$IIMWV,341,R,10.5,N,A*11
$IIMWV,331,T,07.8,N,A*1B
$IIRMC,133212,A,5413.696,N,01319.734,E,03.6,129,040821,03,E,A*0F
$IIGLL,5413.695,N,01319.735,E,133213,A,A*53
$IIMWV,339,R,11.0,N,A*1A
$IIMWV,331,T,07.1,N,A*12
$IIRMC,133213,A,5413.695,N,01319.735,E,03.6,130,040821,03,E,A*04
$IIGLL,5413.693,N,01319.736,E,133214,A,A*51
$IIMWV,340,R,11.0,N,A*14
$IIMWV,329,T,07.6,N,A*1C
$IIRMC,133214,A,5413.693,N,01319.736,E,03.6,130,040821,03,E,A*06
$IIGLL,5413.692,N,01319.737,E,133215,A,A*50
$IIMWV,340,R,11.8,N,A*1C
$IIMWV,331,T,07.6,N,A*15
$IIRMC,133215,A,5413.692,N,01319.737,E,03.6,130,040821,03,E,A*07
$IIGLL,5413.691,N,01319.739,E,133216,A,A*5E
$IIMWV,338,R,11.6,N,A*1D
$IIMWV,331,T,08.4,N,A*18
$IIRMC,133216,A,5413.691,N,01319.739,E,03.6,130,040821,03,E,A*09
$IIGLL,5413.690,N,01319.739,E,133217,A,A*5E
$IIMWV,340,R,11.6,N,A*12
$IIMWV,329,T,08.2,N,A*17
$IIRMC,133217,A,5413.690,N,01319.739,E,03.5,130,040821,03,E,A*0A
$IIGLL,5413.690,N,01319.741,E,133218,A,A*5E
$IIMWV,338,R,10.8,N,A*12
$IIMWV,332,T,08.3,N,A*1C
$IIRMC,133218,A,5413.690,N,01319.741,E,03.6,131,040821,03,E,A*08
$IIGLL,5413.689,N,01319.742,E,133219,A,A*54
$IIMWV,340,R,11.7,N,A*13
$IIMWV,329,T,07.4,N,A*1E
$IIRMC,133219,A,5413.689,N,01319.742,E,03.6,132,040821,03,E,A*01
$IIGLL,5413.688,N,01319.743,E,133220,A,A*5E
$IIMWV,340,R,12.7,N,A*10
$IIMWV,332,T,08.2,N,A*1D
$IIRMC,133220,A,5413.688,N,01319.743,E,03.6,132,040821,03,E,A*0B
$IIGLL,5413.687,N,01319.745,E,133221,A,A*56
$IIMWV,339,R,12.5,N,A*1C
$IIMWV,333,T,09.3,N,A*1C
$IIRMC,133221,A,5413.687,N,01319.745,E,03.6,132,040821,03,E,A*03
$IIGLL,5413.686,N,01319.746,E,133222,A,A*57
$IIMWV,338,R,11.8,N,A*13
$IIMWV,331,T,09.1,N,A*1C
$IIRMC,133222,A,5413.686,N,01319.746,E,03.6,133,040821,03,E,A*03
$IIGLL,5413.686,N,01319.747,E,133223,A,A*57
$IIMWV,338,R,11.9,N,A*12
$IIMWV,329,T,08.4,N,A*11
$IIRMC,133223,A,5413.686,N,01319.747,E,03.6,133,040821,03,E,A*03
$IIGLL,5413.685,N,01319.748,E,133224,A,A*5C
$IIMWV,337,R,12.1,N,A*16
$IIMWV,329,T,08.6,N,A*13
$IIRMC,133224,A,5413.685,N,01319.748,E,03.6,135,040821,03,E,A*0E
$IIGLL,5413.684,N,01319.749,E,133225,A,A*5D
$IIMWV,337,R,12.1,N,A*16
$IIMWV,328,T,08.8,N,A*1C
$IIRMC,133225,A,5413.684,N,01319.749,E,03.6,136,040821,03,E,A*0C
$IIGLL,5413.684,N,01319.750,E,133226,A,A*56
$IIMWV,336,R,12.2,N,A*14
$IIMWV,328,T,08.8,N,A*1C
$IIRMC,133226,A,5413.684,N,01319.750,E,03.7,136,040821,03,E,A*06
$IIGLL,5413.684,N,01319.751,E,133227,A,A*56
$IIMWV,336,R,12.2,N,A*14
$IIMWV,326,T,08.9,N,A*13
$IIRMC,133227,A,5413.684,N,01319.751,E,03.7,136,040821,03,E,A*06
$IIGLL,5413.683,N,01319.752,E,133228,A,A*5D
$IIMWV,336,R,12.2,N,A*14
$IIMWV,326,T,08.9,N,A*13
$IIRMC,133228,A,5413.683,N,01319.752,E,03.7,137,040821,03,E,A*0C
$IIGLL,5413.683,N,01319.753,E,133229,A,A*5D
$IIMWV,336,R,12.2,N,A*14
$IIMWV,326,T,08.9,N,A*13
$IIRMC,133229,A,5413.683,N,01319.753,E,03.7,137,040821,03,E,A*0C
$IIGLL,5413.682,N,01319.754,E,133230,A,A*53
$IIMWV,336,R,11.6,N,A*13
$IIMWV,326,T,08.9,N,A*13
$IIRMC,133230,A,5413.682,N,01319.754,E,03.7,137,040821,03,E,A*02
$IIGLL,5413.682,N,01319.754,E,133230,A,A*53
$IIMWV,336,R,11.9,N,A*1C
$IIMWV,325,T,08.2,N,A*1B
$IIRMC,133230,A,5413.682,N,01319.754,E,03.7,137,040821,03,E,A*02
$IIGLL,5413.681,N,01319.756,E,133232,A,A*50
$IIMWV,336,R,12.1,N,A*17
$IIMWV,326,T,08.5,N,A*1F
$IIRMC,133232,A,5413.681,N,01319.756,E,03.7,137,040821,03,E,A*01
$IIGLL,5413.680,N,01319.757,E,133233,A,A*51
$IIMWV,336,R,12.1,N,A*17
$IIMWV,326,T,08.7,N,A*1D
$IIRMC,133233,A,5413.680,N,01319.757,E,03.7,137,040821,03,E,A*00
$IIGLL,5413.679,N,01319.758,E,133234,A,A*5F
$IIMWV,336,R,11.5,N,A*10
$IIMWV,326,T,08.7,N,A*1D
$IIRMC,133234,A,5413.679,N,01319.758,E,03.7,137,040821,03,E,A*0E
$IIGLL,5413.677,N,01319.760,E,133235,A,A*5B
$IIMWV,335,R,11.9,N,A*1F
$IIMWV,325,T,08.1,N,A*18
$IIRMC,133235,A,5413.677,N,01319.760,E,03.8,138,040821,03,E,A*0A
$IIGLL,5413.677,N,01319.760,E,133235,A,A*5B
$IIMWV,336,R,12.1,N,A*17
$IIMWV,325,T,08.5,N,A*1C
$IIRMC,133235,A,5413.677,N,01319.760,E,03.8,138,040821,03,E,A*0A
$IIGLL,5413.675,N,01319.762,E,133237,A,A*59
$IIMWV,335,R,12.1,N,A*14
$IIMWV,326,T,08.7,N,A*1D
$IIRMC,133237,A,5413.675,N,01319.762,E,03.8,138,040821,03,E,A*08
$IIGLL,5413.674,N,01319.763,E,133238,A,A*56
$IIMWV,335,R,12.2,N,A*17
$IIMWV,325,T,08.7,N,A*1E
$IIRMC,133238,A,5413.674,N,01319.763,E,03.8,139,040821,03,E,A*06
$IIGLL,5413.673,N,01319.765,E,133239,A,A*56
$IIMWV,335,R,11.8,N,A*1E
$IIMWV,325,T,08.9,N,A*10
$IIRMC,133239,A,5413.673,N,01319.765,E,03.8,138,040821,03,E,A*07
$IIGLL,5413.673,N,01319.767,E,133240,A,A*5A
$IIMWV,335,R,11.6,N,A*10
$IIMWV,325,T,08.4,N,A*1D
$IIRMC,133240,A,5413.673,N,01319.767,E,03.7,138,040821,03,E,A*04
$IIGLL,5413.672,N,01319.768,E,133241,A,A*55
$IIMWV,334,R,11.8,N,A*1F
$IIMWV,325,T,08.3,N,A*1A
$IIRMC,133241,A,5413.672,N,01319.768,E,03.8,138,040821,03,E,A*04
$IIGLL,5413.671,N,01319.770,E,133242,A,A*5C
$IIMWV,335,R,11.6,N,A*10
$IIMWV,323,T,08.5,N,A*1A
$IIRMC,133242,A,5413.671,N,01319.770,E,03.8,138,040821,03,E,A*0D
$IIGLL,5413.671,N,01319.770,E,133242,A,A*5C
$IIMWV,332,R,11.5,N,A*14
$IIMWV,324,T,08.2,N,A*1A
$IIRMC,133242,A,5413.671,N,01319.770,E,03.8,138,040821,03,E,A*0D
$IIGLL,5413.671,N,01319.772,E,133244,A,A*58
$IIMWV,332,R,11.3,N,A*12
$IIMWV,319,T,08.2,N,A*14
$IIRMC,133244,A,5413.671,N,01319.772,E,03.7,137,040821,03,E,A*09
$IIGLL,5413.670,N,01319.773,E,133245,A,A*59
$IIMWV,330,R,11.0,N,A*13
$IIMWV,319,T,08.1,N,A*17
$IIRMC,133245,A,5413.670,N,01319.773,E,03.7,138,040821,03,E,A*07
$IIGLL,5413.670,N,01319.774,E,133246,A,A*5D
$IIMWV,330,R,11.1,N,A*12
$IIMWV,317,T,07.9,N,A*1E
$IIRMC,133246,A,5413.670,N,01319.774,E,03.8,139,040821,03,E,A*0D
$IIGLL,5413.669,N,01319.775,E,133247,A,A*55
$IIMWV,330,R,10.8,N,A*1A
$IIMWV,317,T,07.9,N,A*1E
$IIRMC,133247,A,5413.669,N,01319.775,E,03.8,140,040821,03,E,A*0B
$IIGLL,5413.668,N,01319.776,E,133248,A,A*58
$IIMWV,329,R,11.1,N,A*1A
$IIMWV,315,T,07.7,N,A*12
$IIRMC,133248,A,5413.668,N,01319.776,E,03.7,140,040821,03,E,A*09
$IIGLL,5413.667,N,01319.777,E,133249,A,A*57
$IIMWV,330,R,10.8,N,A*1A
$IIMWV,315,T,08.1,N,A*1B
$IIRMC,133249,A,5413.667,N,01319.777,E,03.8,141,040821,03,E,A*08
$IIGLL,5413.666,N,01319.777,E,133250,A,A*5E
$IIMWV,330,R,10.6,N,A*14
$IIMWV,315,T,07.7,N,A*12
$IIRMC,133250,A,5413.666,N,01319.777,E,03.7,142,040821,03,E,A*0D
$IIGLL,5413.666,N,01319.777,E,133250,A,A*5E
$IIMWV,330,R,10.8,N,A*1A
$IIMWV,316,T,07.6,N,A*10
$IIRMC,133250,A,5413.666,N,01319.777,E,03.7,142,040821,03,E,A*0D
$IIGLL,5413.663,N,01319.777,E,133252,A,A*59
$IIMWV,329,R,10.7,N,A*1D
$IIMWV,316,T,07.7,N,A*11
$IIRMC,133252,A,5413.663,N,01319.777,E,03.7,142,040821,03,E,A*0A
$IIGLL,5413.662,N,01319.778,E,133253,A,A*56
$IIMWV,328,R,10.9,N,A*12
$IIMWV,315,T,07.7,N,A*12
$IIRMC,133255,A,5413.660,N,01319.780,E,03.9,147,040821,03,E,A*0D
$IIGLL,5413.660,N,01319.780,E,133255,A,A*55
$IIMWV,330,R,10.9,N,A*1B
$IIMWV,315,T,07.6,N,A*13
$IIRMC,133255,A,5413.660,N,01319.780,E,03.9,147,040821,03,E,A*0D
$IIGLL,5413.660,N,01319.780,E,133255,A,A*55
$IIMWV,330,R,10.7,N,A*15
$IIMWV,315,T,07.7,N,A*12
$IIRMC,133257,A,5413.658,N,01319.782,E,04.0,147,040821,03,E,A*08
$IIGLL,5413.658,N,01319.782,E,133257,A,A*5E
$IIMWV,329,R,10.7,N,A*1D
$IIMWV,315,T,07.5,N,A*10
$IIRMC,133258,A,5413.657,N,01319.783,E,04.0,150,040821,03,E,A*0F
$IIGLL,5413.657,N,01319.783,E,133258,A,A*5F
$IIMWV,327,R,10.6,N,A*12
$IIMWV,313,T,07.5,N,A*16
$IIRMC,133259,A,5413.656,N,01319.784,E,04.0,148,040821,03,E,A*01
$IIGLL,5413.656,N,01319.784,E,133259,A,A*58
$IIMWV,324,R,10.5,N,A*12
$IIMWV,311,T,07.5,N,A*14
$IIRMC,133300,A,5413.655,N,01319.786,E,03.9,147,040821,03,E,A*0C
$IIGLL,5413.655,N,01319.786,E,133300,A,A*54
$IIMWV,324,R,10.7,N,A*10
$IIMWV,307,T,07.5,N,A*13
$IIRMC,133301,A,5413.655,N,01319.788,E,04.1,151,040821,03,E,A*0B
$IIGLL,5413.655,N,01319.788,E,133301,A,A*5B
$IIMWV,324,R,11.0,N,A*16
$IIMWV,307,T,07.8,N,A*1E
$IIRMC,133302,A,5413.653,N,01319.788,E,04.0,148,040821,03,E,A*07
$IIGLL,5413.653,N,01319.788,E,133302,A,A*5E
$IIMWV,322,R,11.1,N,A*11
$IIMWV,307,T,08.0,N,A*19
$IIRMC,133303,A,5413.652,N,01319.790,E,04.1,148,040821,03,E,A*0F
$IIGLL,5413.652,N,01319.790,E,133303,A,A*57
$IIMWV,321,R,10.9,N,A*1B
$IIMWV,305,T,08.2,N,A*19
$IIRMC,133304,A,5413.652,N,01319.791,E,04.1,147,040821,03,E,A*06
$IIGLL,5413.652,N,01319.791,E,133304,A,A*51
$IIMWV,320,R,11.0,N,A*12
$IIMWV,303,T,08.0,N,A*1D
$IIRMC,133305,A,5413.651,N,01319.791,E,04.2,146,040821,03,E,A*06
$IIGLL,5413.651,N,01319.791,E,133305,A,A*53
$IIMWV,321,R,10.5,N,A*17
$IIMWV,302,T,08.2,N,A*1E
$IIRMC,133306,A,5413.650,N,01319.792,E,04.3,149,040821,03,E,A*09
$IIGLL,5413.650,N,01319.792,E,133306,A,A*52
$IIMWV,322,R,10.5,N,A*14
$IIMWV,301,T,07.6,N,A*16
$IIRMC,133307,A,5413.649,N,01319.794,E,04.3,148,040821,03,E,A*07
$IIGLL,5413.649,N,01319.794,E,133307,A,A*5D
$IIMWV,323,R,10.7,N,A*17
$IIMWV,301,T,07.5,N,A*15
$IIRMC,133307,A,5413.649,N,01319.794,E,04.3,148,040821,03,E,A*07
$IIGLL,5413.649,N,01319.794,E,133307,A,A*5D
$IIMWV,324,R,11.3,N,A*15
$IIMWV,303,T,07.6,N,A*14
$IIRMC,133309,A,5413.647,N,01319.794,E,04.2,148,040821,03,E,A*06
$IIGLL,5413.647,N,01319.794,E,133309,A,A*5D
$IIMWV,323,R,11.3,N,A*12
$IIMWV,306,T,08.1,N,A*19
$IIRMC,133310,A,5413.646,N,01319.795,E,04.2,147,040821,03,E,A*01
$IIGLL,5413.646,N,01319.795,E,133310,A,A*55
$IIMWV,321,R,11.6,N,A*15
$IIMWV,306,T,08.2,N,A*1A
$IIRMC,133311,A,5413.644,N,01319.795,E,04.3,150,040821,03,E,A*05
$IIGLL,5413.644,N,01319.795,E,133311,A,A*56
$IIMWV,320,R,11.5,N,A*17
$IIMWV,303,T,08.7,N,A*1A
$IIRMC,133311,A,5413.644,N,01319.795,E,04.3,150,040821,03,E,A*05
$IIGLL,5413.644,N,01319.795,E,133311,A,A*56
$IIMWV,319,R,11.8,N,A*10
$IIMWV,302,T,08.5,N,A*19
$IIRMC,133313,A,5413.642,N,01319.797,E,04.4,148,040821,03,E,A*0D
$IIGLL,5413.642,N,01319.797,E,133313,A,A*50
$IIMWV,319,R,12.0,N,A*1B
$IIMWV,300,T,08.9,N,A*17
$IIRMC,133314,A,5413.641,N,01319.798,E,04.4,146,040821,03,E,A*08
$IIGLL,5413.641,N,01319.798,E,133314,A,A*5B
$IIMWV,319,R,12.1,N,A*1A
$IIMWV,300,T,09.1,N,A*1E
$IIRMC,133315,A,5413.641,N,01319.800,E,04.4,145,040821,03,E,A*04
$IIGLL,5413.641,N,01319.800,E,133315,A,A*54
$IIMWV,321,R,12.1,N,A*11
$IIMWV,300,T,09.1,N,A*1E
$IIRMC,133316,A,5413.640,N,01319.801,E,04.5,146,040821,03,E,A*05
$IIGLL,5413.640,N,01319.801,E,133316,A,A*57
$IIMWV,322,R,12.2,N,A*11
$IIMWV,303,T,09.0,N,A*1C
$IIRMC,133317,A,5413.639,N,01319.803,E,04.6,147,040821,03,E,A*0A
$IIGLL,5413.639,N,01319.803,E,133317,A,A*5A
$IIMWV,322,R,11.9,N,A*19
$IIMWV,304,T,09.0,N,A*1B
$IIRMC,133318,A,5413.638,N,01319.804,E,04.6,146,040821,03,E,A*02
$IIGLL,5413.638,N,01319.804,E,133318,A,A*53
$IIMWV,322,R,12.0,N,A*13
$IIMWV,303,T,08.7,N,A*1A
$IIRMC,133319,A,5413.636,N,01319.805,E,04.7,146,040821,03,E,A*0D
$IIGLL,5413.636,N,01319.805,E,133319,A,A*5D
$IIMWV,323,R,12.1,N,A*13
$IIMWV,303,T,08.8,N,A*15
$IIRMC,133320,A,5413.635,N,01319.806,E,04.6,144,040821,03,E,A*04
$IIGLL,5413.635,N,01319.806,E,133320,A,A*57
$IIMWV,324,R,12.1,N,A*14
$IIMWV,304,T,08.7,N,A*1D
$IIRMC,133321,A,5413.633,N,01319.808,E,04.7,144,040821,03,E,A*0C
$IIGLL,5413.633,N,01319.808,E,133321,A,A*5E
$IIMWV,324,R,12.1,N,A*14
$IIMWV,306,T,08.8,N,A*10
$IIRMC,133322,A,5413.632,N,01319.809,E,04.7,143,040821,03,E,A*08
$IIGLL,5413.632,N,01319.809,E,133322,A,A*5D
$IIMWV,324,R,12.1,N,A*14
$IIMWV,306,T,08.7,N,A*1F
$IIRMC,133323,A,5413.631,N,01319.811,E,04.7,142,040821,03,E,A*02
$IIGLL,5413.631,N,01319.811,E,133323,A,A*56
$IIMWV,324,R,12.1,N,A*14
$IIMWV,306,T,08.7,N,A*1F
$IIRMC,133324,A,5413.630,N,01319.813,E,04.8,143,040821,03,E,A*08
$IIGLL,5413.630,N,01319.813,E,133324,A,A*52
$IIMWV,324,R,11.8,N,A*1E
$IIMWV,306,T,08.7,N,A*1F
$IIRMC,133325,A,5413.630,N,01319.815,E,04.7,142,040821,03,E,A*01
$IIGLL,5413.630,N,01319.815,E,133325,A,A*55
$IIMWV,323,R,11.6,N,A*17
$IIMWV,304,T,08.3,N,A*19
$IIRMC,133326,A,5413.629,N,01319.818,E,04.8,142,040821,03,E,A*08
$IIGLL,5413.629,N,01319.818,E,133326,A,A*53
$IIMWV,324,R,11.8,N,A*1E
$IIMWV,303,T,08.2,N,A*1F
$IIRMC,133327,A,5413.629,N,01319.820,E,04.7,141,040821,03,E,A*0E
$IIGLL,5413.629,N,01319.820,E,133327,A,A*59
$IIMWV,324,R,11.6,N,A*10
$IIMWV,304,T,08.3,N,A*19
$IIRMC,133328,A,5413.627,N,01319.820,E,04.8,140,040821,03,E,A*01
$IIGLL,5413.627,N,01319.820,E,133328,A,A*58
$IIMWV,325,R,11.8,N,A*1F
$IIMWV,304,T,08.2,N,A*18
$IIRMC,133329,A,5413.626,N,01319.821,E,04.8,140,040821,03,E,A*00
$IIGLL,5413.626,N,01319.821,E,133329,A,A*59
$IIMWV,325,R,12.0,N,A*14
$IIMWV,306,T,08.2,N,A*1A
$IIRMC,133330,A,5413.625,N,01319.822,E,04.9,140,040821,03,E,A*09
$IIGLL,5413.625,N,01319.822,E,133330,A,A*51
$IIMWV,325,R,12.1,N,A*15
$IIMWV,306,T,08.4,N,A*1C
$IIRMC,133331,A,5413.623,N,01319.823,E,04.8,139,040821,03,E,A*00
$IIGLL,5413.623,N,01319.823,E,133331,A,A*57
$IIMWV,325,R,12.5,N,A*11
$IIMWV,306,T,08.4,N,A*1C
$IIRMC,133332,A,5413.624,N,01319.827,E,04.9,139,040821,03,E,A*01
$IIGLL,5413.624,N,01319.827,E,133332,A,A*57
$IIMWV,325,R,13.1,N,A*14
$IIMWV,307,T,08.9,N,A*10
$IIRMC,133333,A,5413.624,N,01319.830,E,04.9,137,040821,03,E,A*08
$IIGLL,5413.624,N,01319.830,E,133333,A,A*50
$IIMWV,326,R,13.2,N,A*14
$IIMWV,308,T,09.4,N,A*13
$IIRMC,133334,A,5413.623,N,01319.831,E,04.9,135,040821,03,E,A*0B
$IIGLL,5413.623,N,01319.831,E,133334,A,A*51
$IIMWV,326,R,13.1,N,A*17
$IIMWV,309,T,09.4,N,A*12
$IIRMC,133335,A,5413.622,N,01319.834,E,05.0,135,040821,03,E,A*06
$IIGLL,5413.622,N,01319.834,E,133335,A,A*54
$IIMWV,327,R,13.0,N,A*17
$IIMWV,309,T,09.3,N,A*15
$IIRMC,133336,A,5413.622,N,01319.836,E,04.9,131,040821,03,E,A*0B
$IIGLL,5413.622,N,01319.836,E,133336,A,A*55
$IIMWV,329,R,13.4,N,A*1D
$IIMWV,310,T,09.1,N,A*1F
$IIRMC,133337,A,5413.621,N,01319.838,E,04.9,132,040821,03,E,A*04
$IIGLL,5413.621,N,01319.838,E,133337,A,A*59
$IIMWV,329,R,14.0,N,A*1E
$IIMWV,314,T,09.5,N,A*1F
$IIRMC,133338,A,5413.620,N,01319.841,E,05.0,133,040821,03,E,A*0D
$IIGLL,5413.620,N,01319.841,E,133338,A,A*59
$IIMWV,330,R,14.1,N,A*17
$IIMWV,315,T,10.1,N,A*12
$IIRMC,133339,A,5413.619,N,01319.841,E,04.9,133,040821,03,E,A*0E
$IIGLL,5413.619,N,01319.841,E,133339,A,A*52
$IIMWV,331,R,14.4,N,A*13
$IIMWV,316,T,10.0,N,A*10
$IIRMC,133340,A,5413.618,N,01319.843,E,04.9,135,040821,03,E,A*05
$IIGLL,5413.618,N,01319.843,E,133340,A,A*5F
$IIMWV,331,R,14.6,N,A*11
$IIMWV,318,T,10.2,N,A*1C
$IIRMC,133341,A,5413.617,N,01319.845,E,04.9,135,040821,03,E,A*0D
$IIGLL,5413.617,N,01319.845,E,133341,A,A*57
$IIMWV,332,R,14.4,N,A*10
$IIMWV,318,T,10.4,N,A*1A
$IIRMC,133342,A,5413.615,N,01319.847,E,04.9,135,040821,03,E,A*0E
$IIGLL,5413.615,N,01319.847,E,133342,A,A*54
$IIMWV,333,R,14.6,N,A*13
$IIMWV,319,T,10.2,N,A*1D
$IIRMC,133343,A,5413.615,N,01319.847,E,04.9,134,040821,03,E,A*0E
$IIGLL,5413.615,N,01319.847,E,133343,A,A*55
$IIMWV,332,R,14.9,N,A*1D
$IIMWV,321,T,10.3,N,A*17
$IIRMC,133344,A,5413.614,N,01319.849,E,04.9,134,040821,03,E,A*06
$IIGLL,5413.614,N,01319.849,E,133344,A,A*5D
$IIMWV,332,R,14.9,N,A*1D
$IIMWV,320,T,10.7,N,A*12
$IIRMC,133345,A,5413.613,N,01319.851,E,04.9,134,040821,03,E,A*09
$IIGLL,5413.613,N,01319.851,E,133345,A,A*52
$IIMWV,332,R,15.3,N,A*16
$IIMWV,320,T,10.7,N,A*12
$IIRMC,133346,A,5413.612,N,01319.852,E,04.9,134,040821,03,E,A*08
$IIGLL,5413.612,N,01319.852,E,133346,A,A*53
$IIMWV,333,R,15.3,N,A*17
$IIMWV,320,T,11.0,N,A*14
$IIRMC,133347,A,5413.611,N,01319.853,E,04.9,134,040821,03,E,A*0B
$IIGLL,5413.611,N,01319.853,E,133347,A,A*50
$IIMWV,333,R,14.7,N,A*12
$IIMWV,322,T,11.0,N,A*16
$IIRMC,133348,A,5413.611,N,01319.856,E,04.8,133,040821,03,E,A*07
$IIGLL,5413.611,N,01319.856,E,133348,A,A*5A
$IIMWV,334,R,14.7,N,A*15
$IIMWV,321,T,10.4,N,A*10
$IIRMC,133349,A,5413.611,N,01319.858,E,04.8,132,040821,03,E,A*09
$IIGLL,5413.611,N,01319.858,E,133349,A,A*55
$IIMWV,333,R,14.8,N,A*1D
$IIMWV,323,T,10.5,N,A*13
$IIRMC,133349,A,5413.611,N,01319.858,E,04.8,132,040821,03,E,A*09
$IIGLL,5413.611,N,01319.858,E,133349,A,A*55
$IIMWV,332,R,14.8,N,A*1C
$IIMWV,322,T,10.6,N,A*11
$IIRMC,133351,A,5413.609,N,01319.862,E,04.9,132,040821,03,E,A*01
$IIGLL,5413.609,N,01319.862,E,133351,A,A*5C
$IIMWV,331,R,14.5,N,A*12
$IIMWV,320,T,10.7,N,A*12
$IIRMC,133352,A,5413.608,N,01319.864,E,04.9,132,040821,03,E,A*05
$IIGLL,5413.608,N,01319.864,E,133352,A,A*58
$IIMWV,331,R,14.8,N,A*1F
$IIMWV,318,T,10.3,N,A*1D
$IIRMC,133353,A,5413.607,N,01319.866,E,04.9,132,040821,03,E,A*09
$IIGLL,5413.607,N,01319.866,E,133353,A,A*54
$IIMWV,331,R,14.9,N,A*1E
$IIMWV,318,T,10.6,N,A*18
$IIRMC,133354,A,5413.606,N,01319.868,E,04.9,132,040821,03,E,A*01
$IIGLL,5413.606,N,01319.868,E,133354,A,A*5C
$IIMWV,334,R,14.6,N,A*14
$IIMWV,318,T,10.6,N,A*18
$IIRMC,133355,A,5413.605,N,01319.870,E,04.9,132,040821,03,E,A*0A
$IIGLL,5413.605,N,01319.870,E,133355,A,A*57
$IIMWV,337,R,14.3,N,A*12
$IIMWV,322,T,10.4,N,A*13
$IIRMC,133356,A,5413.604,N,01319.872,E,04.8,131,040821,03,E,A*08
$IIGLL,5413.604,N,01319.872,E,133356,A,A*57
$IIMWV,340,R,14.3,N,A*12
$IIMWV,326,T,09.8,N,A*13
$IIRMC,133357,A,5413.603,N,01319.873,E,04.8,132,040821,03,E,A*0C
$IIGLL,5413.603,N,01319.873,E,133357,A,A*50
$IIMWV,341,R,14.3,N,A*13
$IIMWV,331,T,09.8,N,A*15
$IIRMC,133358,A,5413.602,N,01319.875,E,04.7,133,040821,03,E,A*0A
$IIGLL,5413.602,N,01319.875,E,133358,A,A*58
$IIMWV,341,R,14.2,N,A*12
$IIMWV,331,T,09.8,N,A*15
$IIRMC,133359,A,5413.601,N,01319.877,E,04.6,132,040821,03,E,A*0A
$IIGLL,5413.601,N,01319.877,E,133359,A,A*58
$IIMWV,339,R,14.7,N,A*18
$IIMWV,332,T,09.8,N,A*16
$IIRMC,133400,A,5413.600,N,01319.878,E,04.6,132,040821,03,E,A*0F
$IIGLL,5413.600,N,01319.878,E,133400,A,A*5D
$IIMWV,340,R,14.8,N,A*19
$IIMWV,330,T,10.3,N,A*17
$IIRMC,133401,A,5413.600,N,01319.880,E,04.5,133,040821,03,E,A*0B
$IIGLL,5413.600,N,01319.880,E,133401,A,A*5B
$IIMWV,340,R,15.0,N,A*10
$IIMWV,332,T,10.5,N,A*13
$IIRMC,133402,A,5413.598,N,01319.881,E,04.5,132,040821,03,E,A*0A
$IIGLL,5413.598,N,01319.881,E,133402,A,A*5B
$IIMWV,339,R,15.2,N,A*1C
$IIMWV,332,T,10.8,N,A*1E
$IIRMC,133403,A,5413.597,N,01319.881,E,04.5,133,040821,03,E,A*05
$IIGLL,5413.597,N,01319.881,E,133403,A,A*55
$IIMWV,339,R,14.8,N,A*17
$IIMWV,331,T,11.0,N,A*14
$IIRMC,133404,A,5413.596,N,01319.882,E,04.5,134,040821,03,E,A*07
$IIGLL,5413.596,N,01319.882,E,133404,A,A*50
$IIMWV,339,R,15.5,N,A*1B
$IIMWV,330,T,10.6,N,A*12
$IIRMC,133405,A,5413.595,N,01319.884,E,04.6,134,040821,03,E,A*00
$IIGLL,5413.595,N,01319.884,E,133405,A,A*54
$IIMWV,338,R,15.3,N,A*1C
$IIMWV,331,T,11.3,N,A*17
$IIRMC,133406,A,5413.594,N,01319.886,E,04.6,135,040821,03,E,A*01
$IIGLL,5413.594,N,01319.886,E,133406,A,A*54
$IIMWV,340,R,15.2,N,A*12
$IIMWV,330,T,11.1,N,A*14
$IIRMC,133407,A,5413.593,N,01319.887,E,04.6,135,040821,03,E,A*06
$IIGLL,5413.593,N,01319.887,E,133407,A,A*53
$IIMWV,340,R,15.6,N,A*16
$IIMWV,332,T,10.8,N,A*1E
$IIRMC,133408,A,5413.592,N,01319.889,E,04.5,135,040821,03,E,A*05
$IIGLL,5413.592,N,01319.889,E,133408,A,A*53
$IIMWV,339,R,15.8,N,A*16
$IIMWV,332,T,11.3,N,A*14
$IIRMC,133409,A,5413.592,N,01319.889,E,04.5,135,040821,03,E,A*04
$IIGLL,5413.592,N,01319.889,E,133409,A,A*52
$IIMWV,338,R,15.4,N,A*1B
$IIMWV,331,T,11.5,N,A*11
$IIRMC,133410,A,5413.591,N,01319.890,E,04.5,135,040821,03,E,A*07
$IIGLL,5413.591,N,01319.890,E,133410,A,A*51
$IIMWV,338,R,15.2,N,A*1D
$IIMWV,330,T,11.2,N,A*17
$IIRMC,133411,A,5413.590,N,01319.891,E,04.4,136,040821,03,E,A*04
$IIGLL,5413.590,N,01319.891,E,133411,A,A*50
$IIMWV,338,R,15.0,N,A*1F
$IIMWV,330,T,11.1,N,A*14
$IIRMC,133411,A,5413.590,N,01319.891,E,04.4,136,040821,03,E,A*04
$IIGLL,5413.590,N,01319.891,E,133411,A,A*50
$IIMWV,338,R,14.5,N,A*1B
$IIMWV,330,T,10.9,N,A*1D
$IIRMC,133413,A,5413.589,N,01319.893,E,04.4,136,040821,03,E,A*0C
$IIGLL,5413.589,N,01319.893,E,133413,A,A*58
$IIMWV,337,R,13.7,N,A*11
$IIMWV,329,T,10.4,N,A*18
$IIRMC,133414,A,5413.588,N,01319.894,E,04.4,136,040821,03,E,A*0D
$IIGLL,5413.588,N,01319.894,E,133414,A,A*59
$IIMWV,338,R,14.5,N,A*1B
$IIMWV,327,T,09.7,N,A*1D
$IIRMC,133415,A,5413.587,N,01319.896,E,04.2,132,040821,03,E,A*03
$IIGLL,5413.587,N,01319.896,E,133415,A,A*55
$IIMWV,338,R,14.3,N,A*1D
$IIMWV,329,T,10.4,N,A*18
$IIRMC,133416,A,5413.587,N,01319.898,E,04.1,129,040821,03,E,A*07
$IIGLL,5413.587,N,01319.898,E,133416,A,A*58
$IIMWV,338,R,14.2,N,A*1C
$IIMWV,330,T,10.3,N,A*17
$IIRMC,133417,A,5413.586,N,01319.899,E,04.0,129,040821,03,E,A*07
$IIGLL,5413.586,N,01319.899,E,133417,A,A*59
$IIMWV,338,R,13.6,N,A*1F
$IIMWV,330,T,10.4,N,A*10
$IIRMC,133418,A,5413.585,N,01319.901,E,04.0,129,040821,03,E,A*0B
$IIGLL,5413.585,N,01319.901,E,133418,A,A*55
$IIMWV,339,R,13.9,N,A*11
$IIMWV,330,T,09.9,N,A*15
$IIRMC,133419,A,5413.583,N,01319.901,E,04.0,130,040821,03,E,A*04
$IIGLL,5413.583,N,01319.901,E,133419,A,A*52
$IIMWV,340,R,14.1,N,A*10
$IIMWV,331,T,10.2,N,A*17
$IIRMC,133420,A,5413.582,N,01319.903,E,04.0,129,040821,03,E,A*05
$IIGLL,5413.582,N,01319.903,E,133420,A,A*5B
$IIMWV,340,R,14.2,N,A*13
$IIMWV,333,T,10.3,N,A*14
$IIRMC,133421,A,5413.581,N,01319.904,E,04.1,129,040821,03,E,A*01
$IIGLL,5413.581,N,01319.904,E,133421,A,A*5E
$IIMWV,339,R,14.3,N,A*1C
$IIMWV,333,T,10.4,N,A*13
$IIRMC,133422,A,5413.580,N,01319.906,E,04.0,128,040821,03,E,A*01
$IIGLL,5413.580,N,01319.906,E,133422,A,A*5E
$IIMWV,342,R,14.4,N,A*17
$IIMWV,331,T,10.4,N,A*11
$IIRMC,133423,A,5413.579,N,01319.908,E,03.9,128,040821,03,E,A*06
$IIGLL,5413.579,N,01319.908,E,133423,A,A*57
$IIMWV,342,R,13.7,N,A*13
$IIMWV,335,T,10.5,N,A*14
$IIRMC,133424,A,5413.578,N,01319.909,E,03.9,130,040821,03,E,A*08
$IIGLL,5413.578,N,01319.909,E,133424,A,A*50
$IIMWV,342,R,13.8,N,A*1C
$IIMWV,335,T,10.0,N,A*11
$IIRMC,133425,A,5413.577,N,01319.911,E,03.9,129,040821,03,E,A*07
$IIGLL,5413.577,N,01319.911,E,133425,A,A*57
$IIMWV,342,R,13.8,N,A*1C
$IIMWV,335,T,10.1,N,A*10
$IIRMC,133426,A,5413.577,N,01319.912,E,03.8,128,040821,03,E,A*07
$IIGLL,5413.577,N,01319.912,E,133426,A,A*57
$IIMWV,343,R,13.8,N,A*1D
$IIMWV,335,T,10.1,N,A*10
$IIRMC,133427,A,5413.578,N,01319.914,E,03.7,129,040821,03,E,A*01
$IIGLL,5413.578,N,01319.914,E,133427,A,A*5F
$IIMWV,340,R,14.7,N,A*16
$IIMWV,337,T,10.2,N,A*11
$IIRMC,133428,A,5413.577,N,01319.915,E,03.7,130,040821,03,E,A*08
$IIGLL,5413.577,N,01319.915,E,133428,A,A*5E
$IIMWV,338,R,13.7,N,A*1E
$IIMWV,334,T,11.2,N,A*13
$IIRMC,133428,A,5413.577,N,01319.915,E,03.7,130,040821,03,E,A*08
$IIGLL,5413.577,N,01319.915,E,133428,A,A*5E
$IIMWV,338,R,13.2,N,A*1B
$IIMWV,331,T,10.2,N,A*17
$IIRMC,133430,A,5413.575,N,01319.918,E,03.6,130,040821,03,E,A*0F
$IIGLL,5413.575,N,01319.918,E,133430,A,A*58
$IIMWV,336,R,12.5,N,A*13
$IIMWV,330,T,09.7,N,A*1B
$IIRMC,133431,A,5413.574,N,01319.919,E,03.5,130,040821,03,E,A*0D
$IIGLL,5413.574,N,01319.919,E,133431,A,A*59
$IIMWV,332,R,12.3,N,A*11
$IIMWV,327,T,09.2,N,A*18
$IIRMC,133432,A,5413.574,N,01319.920,E,03.5,130,040821,03,E,A*04
$IIGLL,5413.574,N,01319.920,E,133432,A,A*50
$IIMWV,321,R,12.3,N,A*13
$IIMWV,322,T,09.2,N,A*1D
$IIRMC,133433,A,5413.572,N,01319.921,E,03.5,128,040821,03,E,A*0B
$IIGLL,5413.572,N,01319.921,E,133433,A,A*56
$IIMWV,318,R,12.8,N,A*12
$IIMWV,308,T,09.7,N,A*10
$IIRMC,133434,A,5413.572,N,01319.923,E,03.4,128,040821,03,E,A*0F
$IIGLL,5413.572,N,01319.923,E,133434,A,A*53
$IIMWV,324,R,12.8,N,A*1D
$IIMWV,305,T,10.3,N,A*11
$IIRMC,133435,A,5413.572,N,01319.924,E,03.3,130,040821,03,E,A*07
$IIGLL,5413.572,N,01319.924,E,133435,A,A*55
$IIMWV,325,R,12.9,N,A*1D
$IIMWV,313,T,10.1,N,A*14
$IIRMC,133436,A,5413.571,N,01319.926,E,03.3,129,040821,03,E,A*0D
$IIGLL,5413.571,N,01319.926,E,133436,A,A*57
$IIMWV,322,R,13.9,N,A*1B
$IIMWV,315,T,10.2,N,A*11
$IIRMC,133437,A,5413.570,N,01319.927,E,03.4,128,040821,03,E,A*0A
$IIGLL,5413.570,N,01319.927,E,133437,A,A*56
$IIMWV,324,R,14.0,N,A*13
$IIMWV,311,T,11.4,N,A*12
$IIRMC,133438,A,5413.569,N,01319.929,E,03.4,125,040821,03,E,A*0E
$IIGLL,5413.569,N,01319.929,E,133438,A,A*5F
$IIMWV,326,R,13.6,N,A*10
$IIMWV,314,T,11.3,N,A*10
$IIRMC,133439,A,5413.569,N,01319.931,E,03.4,125,040821,03,E,A*06
$IIGLL,5413.569,N,01319.931,E,133439,A,A*57
$IIMWV,327,R,13.4,N,A*13
$IIMWV,316,T,10.8,N,A*18
$IIRMC,133440,A,5413.568,N,01319.933,E,03.5,125,040821,03,E,A*0A
$IIGLL,5413.568,N,01319.933,E,133440,A,A*5A
$IIMWV,332,R,13.7,N,A*14
$IIMWV,317,T,10.6,N,A*17
$IIRMC,133441,A,5413.568,N,01319.935,E,03.6,124,040821,03,E,A*0F
$IIGLL,5413.568,N,01319.935,E,133441,A,A*5D
$IIMWV,332,R,13.4,N,A*17
$IIMWV,323,T,10.6,N,A*10
$IIRMC,133442,A,5413.567,N,01319.937,E,03.5,123,040821,03,E,A*05
$IIGLL,5413.567,N,01319.937,E,133442,A,A*53
$IIMWV,338,R,12.8,N,A*10
$IIMWV,323,T,10.2,N,A*14
$IIRMC,133443,A,5413.566,N,01319.938,E,03.4,124,040821,03,E,A*0C
$IIGLL,5413.566,N,01319.938,E,133443,A,A*5C
$IIMWV,340,R,11.7,N,A*13
$IIMWV,331,T,09.6,N,A*1B
$IIRMC,133444,A,5413.565,N,01319.939,E,03.4,126,040821,03,E,A*0B
$IIGLL,5413.565,N,01319.939,E,133444,A,A*59
$IIMWV,338,R,11.4,N,A*1F
$IIMWV,333,T,08.4,N,A*1A
$IIRMC,133445,A,5413.565,N,01319.940,E,03.4,127,040821,03,E,A*05
$IIGLL,5413.565,N,01319.940,E,133445,A,A*56
$IIMWV,336,R,10.2,N,A*16
$IIMWV,330,T,08.3,N,A*1E
$IIRMC,133446,A,5413.565,N,01319.941,E,03.3,130,040821,03,E,A*06
$IIGLL,5413.565,N,01319.941,E,133446,A,A*54
$IIMWV,333,R,09.8,N,A*11
$IIMWV,325,T,07.1,N,A*17
$IIRMC,133447,A,5413.565,N,01319.942,E,03.3,132,040821,03,E,A*06
$IIGLL,5413.565,N,01319.942,E,133447,A,A*56
$IIMWV,328,R,10.0,N,A*1B
$IIMWV,321,T,06.9,N,A*1A
$IIRMC,133448,A,5413.564,N,01319.943,E,03.3,134,040821,03,E,A*0F
$IIGLL,5413.564,N,01319.943,E,133448,A,A*59
$IIMWV,321,R,10.2,N,A*10
$IIMWV,315,T,07.4,N,A*11
$IIRMC,133449,A,5413.564,N,01319.945,E,03.3,133,040821,03,E,A*0F
$IIGLL,5413.564,N,01319.945,E,133449,A,A*5E
$IIMWV,318,R,10.7,N,A*1F
$IIMWV,306,T,07.8,N,A*1F
$IIRMC,133450,A,5413.563,N,01319.946,E,03.4,131,040821,03,E,A*06
$IIGLL,5413.563,N,01319.946,E,133450,A,A*52
$IIMWV,319,R,11.7,N,A*1F
$IIMWV,303,T,08.4,N,A*19
$IIRMC,133451,A,5413.563,N,01319.947,E,03.5,133,040821,03,E,A*05
$IIGLL,5413.563,N,01319.947,E,133451,A,A*52
$IIMWV,316,R,12.0,N,A*14
$IIMWV,304,T,09.3,N,A*18
$IIRMC,133452,A,5413.561,N,01319.948,E,03.6,133,040821,03,E,A*08
$IIGLL,5413.561,N,01319.948,E,133452,A,A*5C
$IIMWV,315,R,13.6,N,A*10
$IIMWV,302,T,09.6,N,A*1B
$IIRMC,133453,A,5413.561,N,01319.949,E,03.7,133,040821,03,E,A*09
$IIGLL,5413.561,N,01319.949,E,133453,A,A*5C
$IIMWV,316,R,12.7,N,A*13
$IIMWV,302,T,11.3,N,A*17
$IIRMC,133454,A,5413.560,N,01319.950,E,03.8,133,040821,03,E,A*08
$IIGLL,5413.560,N,01319.950,E,133454,A,A*52
$IIMWV,316,R,12.3,N,A*17
$IIMWV,302,T,10.2,N,A*17
$IIRMC,133455,A,5413.561,N,01319.951,E,03.8,129,040821,03,E,A*02
$IIGLL,5413.561,N,01319.951,E,133455,A,A*53
$IIMWV,316,R,12.8,N,A*1C
$IIMWV,301,T,09.7,N,A*19
$IIRMC,133456,A,5413.559,N,01319.951,E,03.9,130,040821,03,E,A*03
$IIGLL,5413.559,N,01319.951,E,133456,A,A*5B
$IIMWV,318,R,13.5,N,A*1E
$IIMWV,302,T,10.3,N,A*16
$IIRMC,133457,A,5413.558,N,01319.951,E,04.0,129,040821,03,E,A*05
$IIGLL,5413.558,N,01319.951,E,133457,A,A*5B
$IIMWV,319,R,13.8,N,A*12
$IIMWV,304,T,10.8,N,A*1B
$IIRMC,133458,A,5413.556,N,01319.952,E,04.1,127,040821,03,E,A*08
$IIGLL,5413.556,N,01319.952,E,133458,A,A*59
$IIMWV,319,R,13.5,N,A*1F
$IIMWV,305,T,11.0,N,A*13
$IIRMC,133459,A,5413.555,N,01319.953,E,04.2,128,040821,03,E,A*07
$IIGLL,5413.555,N,01319.953,E,133459,A,A*5A
$IIMWV,319,R,13.4,N,A*1E
$IIMWV,304,T,10.7,N,A*14
$IIRMC,133500,A,5413.554,N,01319.955,E,04.3,128,040821,03,E,A*0C
$IIGLL,5413.554,N,01319.955,E,133500,A,A*50
$IIMWV,319,R,12.7,N,A*1C
$IIMWV,303,T,10.5,N,A*11
$IIRMC,133501,A,5413.553,N,01319.957,E,04.4,128,040821,03,E,A*0F
$IIGLL,5413.553,N,01319.957,E,133501,A,A*54
$IIMWV,319,R,13.5,N,A*1F
$IIMWV,302,T,09.7,N,A*1A
$IIRMC,133502,A,5413.553,N,01319.958,E,04.4,127,040821,03,E,A*0C
$IIGLL,5413.553,N,01319.958,E,133502,A,A*58
$IIMWV,318,R,13.4,N,A*1F
$IIMWV,303,T,10.5,N,A*11
$IIRMC,133503,A,5413.554,N,01319.960,E,04.4,125,040821,03,E,A*03
$IIGLL,5413.554,N,01319.960,E,133503,A,A*55
$IIMWV,320,R,13.2,N,A*12
$IIMWV,302,T,10.4,N,A*11
$IIRMC,133504,A,5413.556,N,01319.963,E,04.4,120,040821,03,E,A*00
$IIGLL,5413.556,N,01319.963,E,133504,A,A*53
$IIMWV,324,R,13.0,N,A*14
$IIMWV,304,T,10.1,N,A*12
$IIRMC,133505,A,5413.555,N,01319.965,E,04.5,117,040821,03,E,A*01
$IIGLL,5413.555,N,01319.965,E,133505,A,A*57
$IIMWV,325,R,12.6,N,A*12
$IIMWV,309,T,09.7,N,A*11
$IIRMC,133506,A,5413.553,N,01319.967,E,04.5,120,040821,03,E,A*02
$IIGLL,5413.553,N,01319.967,E,133506,A,A*50
$IIMWV,323,R,12.4,N,A*16
$IIMWV,309,T,09.1,N,A*17
$IIRMC,133507,A,5413.552,N,01319.968,E,04.4,116,040821,03,E,A*09
$IIGLL,5413.552,N,01319.968,E,133507,A,A*5F
$IIMWV,320,R,12.3,N,A*12
$IIMWV,306,T,09.1,N,A*18
$IIRMC,133507,A,5413.552,N,01319.968,E,04.4,116,040821,03,E,A*09
$IIGLL,5413.552,N,01319.968,E,133507,A,A*5F
$IIMWV,318,R,12.2,N,A*18
$IIMWV,303,T,09.2,N,A*1E
$IIRMC,133509,A,5413.552,N,01319.973,E,04.4,118,040821,03,E,A*03
$IIGLL,5413.552,N,01319.973,E,133509,A,A*5B
$IIMWV,318,R,11.7,N,A*1E
$IIMWV,300,T,09.3,N,A*1C
$IIRMC,133510,A,5413.551,N,01319.975,E,04.4,120,040821,03,E,A*05
$IIGLL,5413.551,N,01319.975,E,133510,A,A*56
$IIMWV,319,R,11.6,N,A*1E
$IIMWV,298,T,08.8,N,A*16
$IIRMC,133511,A,5413.550,N,01319.976,E,04.5,120,040821,03,E,A*07
$IIGLL,5413.550,N,01319.976,E,133511,A,A*55
$IIMWV,319,R,12.1,N,A*1A
$IIMWV,300,T,08.7,N,A*19
$IIRMC,133511,A,5413.550,N,01319.976,E,04.5,120,040821,03,E,A*07
$IIGLL,5413.550,N,01319.976,E,133511,A,A*55
$IIMWV,322,R,12.6,N,A*15
$IIMWV,300,T,09.0,N,A*1F
$IIRMC,133513,A,5413.549,N,01319.981,E,04.6,121,040821,03,E,A*07
$IIGLL,5413.549,N,01319.981,E,133513,A,A*57
$IIMWV,321,R,12.8,N,A*18
$IIMWV,305,T,09.4,N,A*1E
$IIRMC,133514,A,5413.548,N,01319.983,E,04.7,120,040821,03,E,A*03
$IIGLL,5413.548,N,01319.983,E,133514,A,A*53
$IIMWV,325,R,12.8,N,A*1C
$IIMWV,303,T,09.5,N,A*19
$IIRMC,133515,A,5413.547,N,01319.984,E,04.8,120,040821,03,E,A*05
$IIGLL,5413.547,N,01319.984,E,133515,A,A*5A
$IIMWV,323,R,12.5,N,A*17
$IIMWV,308,T,09.1,N,A*16
$IIRMC,133516,A,5413.547,N,01319.986,E,04.8,122,040821,03,E,A*06
$IIGLL,5413.547,N,01319.986,E,133516,A,A*5B
$IIMWV,321,R,12.3,N,A*13
$IIMWV,305,T,09.1,N,A*1B
$IIRMC,133517,A,5413.546,N,01319.989,E,04.9,123,040821,03,E,A*09
$IIGLL,5413.546,N,01319.989,E,133517,A,A*54
$IIMWV,321,R,12.2,N,A*12
$IIMWV,302,T,09.0,N,A*1D
$IIRMC,133518,A,5413.545,N,01319.991,E,05.0,123,040821,03,E,A*04
$IIGLL,5413.545,N,01319.991,E,133518,A,A*51
$IIMWV,321,R,12.2,N,A*12
$IIMWV,301,T,08.8,N,A*17
$IIRMC,133519,A,5413.544,N,01319.993,E,05.0,120,040821,03,E,A*05
$IIGLL,5413.544,N,01319.993,E,133519,A,A*53
$IIMWV,321,R,12.2,N,A*12
$IIMWV,301,T,08.8,N,A*17
$IIRMC,133519,A,5413.544,N,01319.993,E,05.0,120,040821,03,E,A*05
$IIGLL,5413.544,N,01319.993,E,133519,A,A*53
$IIMWV,320,R,12.2,N,A*13
$IIMWV,301,T,08.8,N,A*17
$IIRMC,133521,A,5413.542,N,01319.996,E,04.9,118,040821,03,E,A*0E
$IIGLL,5413.542,N,01319.996,E,133521,A,A*5B
$IIMWV,320,R,12.8,N,A*19
$IIMWV,299,T,08.9,N,A*16
$IIRMC,133522,A,5413.543,N,01319.999,E,04.9,112,040821,03,E,A*09
$IIGLL,5413.543,N,01319.999,E,133522,A,A*56
$IIMWV,320,R,13.3,N,A*13
$IIMWV,301,T,09.4,N,A*1A
$IIRMC,133523,A,5413.542,N,01320.001,E,04.9,115,040821,03,E,A*0C
$IIGLL,5413.542,N,01320.001,E,133523,A,A*54
$IIMWV,319,R,12.6,N,A*1D
$IIMWV,302,T,10.0,N,A*15
$IIRMC,133524,A,5413.542,N,01320.004,E,05.0,115,040821,03,E,A*06
$IIGLL,5413.542,N,01320.004,E,133524,A,A*56
$IIMWV,317,R,11.8,N,A*1E
$IIMWV,299,T,09.4,N,A*1A
$IIRMC,133525,A,5413.541,N,01320.005,E,05.0,119,040821,03,E,A*09
$IIGLL,5413.541,N,01320.005,E,133525,A,A*55
$IIMWV,317,R,12.1,N,A*14
$IIMWV,294,T,08.7,N,A*15
$IIRMC,133526,A,5413.540,N,01320.007,E,05.0,121,040821,03,E,A*02
$IIGLL,5413.540,N,01320.007,E,133526,A,A*55
$IIMWV,318,R,12.6,N,A*1C
$IIMWV,295,T,09.0,N,A*12
$IIRMC,133527,A,5413.538,N,01320.009,E,05.0,115,040821,03,E,A*05
$IIGLL,5413.538,N,01320.009,E,133527,A,A*55
$IIMWV,317,R,13.2,N,A*16
$IIMWV,297,T,09.4,N,A*14
$IIRMC,133528,A,5413.537,N,01320.011,E,05.0,112,040821,03,E,A*0B
$IIGLL,5413.537,N,01320.011,E,133528,A,A*5C
$IIMWV,317,R,13.4,N,A*10
$IIMWV,297,T,10.0,N,A*18
$IIRMC,133529,A,5413.537,N,01320.012,E,05.0,115,040821,03,E,A*0E
$IIGLL,5413.537,N,01320.012,E,133529,A,A*5E
$IIMWV,319,R,12.6,N,A*1D
$IIMWV,297,T,10.2,N,A*1A
$IIRMC,133530,A,5413.537,N,01320.014,E,05.0,116,040821,03,E,A*03
$IIGLL,5413.537,N,01320.014,E,133530,A,A*50
$IIMWV,321,R,13.0,N,A*11
$IIMWV,298,T,09.3,N,A*1C
$IIRMC,133531,A,5413.535,N,01320.016,E,05.0,118,040821,03,E,A*0C
$IIGLL,5413.535,N,01320.016,E,133531,A,A*51
$IIMWV,324,R,12.2,N,A*17
$IIMWV,302,T,09.5,N,A*18
$IIRMC,133532,A,5413.533,N,01320.018,E,05.0,116,040821,03,E,A*09
$IIGLL,5413.533,N,01320.018,E,133532,A,A*5A
$IIMWV,325,R,11.4,N,A*13
$IIMWV,304,T,08.5,N,A*1F
$IIRMC,133533,A,5413.533,N,01320.020,E,05.0,116,040821,03,E,A*03
$IIGLL,5413.533,N,01320.020,E,133533,A,A*50
$IIMWV,326,R,11.3,N,A*17
$IIMWV,304,T,07.7,N,A*12
$IIRMC,133534,A,5413.534,N,01320.024,E,04.9,117,040821,03,E,A*0E
$IIGLL,5413.534,N,01320.024,E,133534,A,A*54
$IIMWV,327,R,10.8,N,A*1C
$IIMWV,304,T,07.6,N,A*13
$IIRMC,133535,A,5413.533,N,01320.027,E,04.9,115,040821,03,E,A*09
$IIGLL,5413.533,N,01320.029,E,133536,A,A*5C
$IIMWV,326,R,11.8,N,A*1C
$IIMWV,304,T,07.5,N,A*10
$IIRMC,133536,A,5413.533,N,01320.029,E,04.9,114,040821,03,E,A*05
$IIGLL,5413.532,N,01320.031,E,133537,A,A*55
$IIMWV,329,R,11.5,N,A*1E
$IIMWV,306,T,08.1,N,A*19
$IIRMC,133537,A,5413.532,N,01320.031,E,04.8,114,040821,03,E,A*0D
$IIGLL,5413.531,N,01320.034,E,133538,A,A*5C
$IIMWV,332,R,10.2,N,A*12
$IIMWV,310,T,07.7,N,A*17
$IIRMC,133538,A,5413.531,N,01320.034,E,04.8,115,040821,03,E,A*05
$IIGLL,5413.530,N,01320.035,E,133539,A,A*5D
$IIMWV,330,R,10.3,N,A*11
$IIMWV,311,T,06.2,N,A*12
$IIRMC,133539,A,5413.530,N,01320.035,E,04.7,117,040821,03,E,A*09
$IIGLL,5413.530,N,01320.037,E,133540,A,A*51
$IIMWV,332,R,11.1,N,A*10
$IIMWV,310,T,06.6,N,A*17
$IIRMC,133540,A,5413.530,N,01320.037,E,04.8,117,040821,03,E,A*0A
$IIGLL,5413.529,N,01320.038,E,133541,A,A*57
$IIMWV,339,R,11.0,N,A*1A
$IIMWV,313,T,07.1,N,A*12
$IIRMC,133541,A,5413.529,N,01320.038,E,04.7,118,040821,03,E,A*0C
$IIGLL,5413.529,N,01320.039,E,133542,A,A*55
$IIMWV,338,R,11.8,N,A*13
$IIMWV,325,T,06.7,N,A*10
$IIRMC,133542,A,5413.529,N,01320.039,E,04.7,118,040821,03,E,A*0E
$IIGLL,5413.528,N,01320.042,E,133543,A,A*59
$IIMWV,340,R,10.8,N,A*1D
$IIMWV,325,T,07.5,N,A*13
$IIRMC,133543,A,5413.528,N,01320.042,E,04.6,118,040821,03,E,A*03
$IIGLL,5413.528,N,01320.042,E,133543,A,A*59
$IIMWV,334,R,11.7,N,A*10
$IIMWV,327,T,06.5,N,A*10
$IIRMC,133543,A,5413.528,N,01320.042,E,04.6,118,040821,03,E,A*03
$IIGLL,5413.526,N,01320.045,E,133545,A,A*56
