$IIRMC,100049,A,5408.159,N,01328.728,E,04.5,023,050821,03,E,A*0C
$IIGLL,5408.159,N,01328.728,E,100049,A,A*5D
$IIMWV,034,R,18.3,N,A*1E
$IIMWV,044,T,14.6,N,A*16
$IIRMC,100050,A,5408.160,N,01328.729,E,04.4,025,050821,03,E,A*08
$IIGLL,5408.160,N,01328.729,E,100050,A,A*5E
$IIMWV,034,R,18.7,N,A*1A
$IIMWV,044,T,14.7,N,A*17
$IIRMC,100051,A,5408.161,N,01328.730,E,04.5,027,050821,03,E,A*03
$IIGLL,5408.161,N,01328.730,E,100051,A,A*56
$IIMWV,033,R,18.4,N,A*1E
$IIMWV,043,T,15.2,N,A*14
$IIRMC,100052,A,5408.162,N,01328.731,E,04.2,030,050821,03,E,A*03
$IIGLL,5408.162,N,01328.731,E,100052,A,A*57
$IIMWV,032,R,18.2,N,A*19
$IIMWV,042,T,14.7,N,A*11
$IIRMC,100053,A,5408.163,N,01328.733,E,04.2,031,050821,03,E,A*00
$IIGLL,5408.163,N,01328.733,E,100053,A,A*55
$IIMWV,030,R,18.4,N,A*1D
$IIMWV,041,T,14.7,N,A*12
$IIRMC,100054,A,5408.164,N,01328.734,E,04.0,034,050821,03,E,A*00
$IIGLL,5408.164,N,01328.734,E,100054,A,A*52
$IIMWV,030,R,18.2,N,A*1B
$IIMWV,038,T,14.9,N,A*12
$IIRMC,100055,A,5408.165,N,01328.735,E,03.8,037,050821,03,E,A*0D
$IIGLL,5408.165,N,01328.735,E,100055,A,A*53
$IIMWV,029,R,18.3,N,A*12
$IIMWV,038,T,14.9,N,A*12
$IIRMC,100056,A,5408.166,N,01328.736,E,03.7,036,050821,03,E,A*00
$IIGLL,5408.166,N,01328.736,E,100056,A,A*50
$IIMWV,031,R,17.6,N,A*11
$IIMWV,036,T,14.9,N,A*1C
$IIRMC,100057,A,5408.166,N,01328.737,E,03.5,034,050821,03,E,A*00
$IIGLL,5408.166,N,01328.737,E,100057,A,A*50
$IIMWV,033,R,17.8,N,A*1D
$IIMWV,038,T,14.5,N,A*1E
$IIRMC,100058,A,5408.167,N,01328.737,E,03.5,028,050821,03,E,A*03
$IIGLL,5408.167,N,01328.737,E,100058,A,A*5E
$IIMWV,035,R,17.0,N,A*13
$IIMWV,040,T,14.9,N,A*1D
$IIRMC,100059,A,5408.168,N,01328.738,E,03.2,023,050821,03,E,A*0E
$IIGLL,5408.168,N,01328.738,E,100059,A,A*5F
$IIMWV,036,R,17.8,N,A*18
$IIMWV,043,T,14.1,N,A*16
$IIRMC,100100,A,5408.169,N,01328.738,E,03.4,016,050821,03,E,A*02
$IIGLL,5408.169,N,01328.738,E,100100,A,A*53
$IIMWV,036,R,17.5,N,A*15
$IIMWV,043,T,15.3,N,A*15
$IIRMC,100101,A,5408.170,N,01328.738,E,03.5,016,050821,03,E,A*0A
$IIGLL,5408.170,N,01328.738,E,100101,A,A*5A
$IIMWV,035,R,18.1,N,A*1D
$IIMWV,044,T,14.8,N,A*18
$IIRMC,100102,A,5408.171,N,01328.739,E,03.5,016,050821,03,E,A*09
$IIGLL,5408.171,N,01328.739,E,100102,A,A*59
$IIMWV,035,R,18.3,N,A*1F
$IIMWV,042,T,15.2,N,A*15
$IIRMC,100103,A,5408.172,N,01328.739,E,03.5,020,050821,03,E,A*0E
$IIGLL,5408.172,N,01328.739,E,100103,A,A*5B
$IIMWV,034,R,18.7,N,A*1A
$IIMWV,042,T,15.5,N,A*12
$IIRMC,100104,A,5408.172,N,01328.740,E,03.6,024,050821,03,E,A*00
$IIGLL,5408.172,N,01328.740,E,100104,A,A*52
$IIMWV,032,R,18.4,N,A*1F
$IIMWV,041,T,15.8,N,A*1C
$IIRMC,100105,A,5408.173,N,01328.741,E,03.7,028,050821,03,E,A*0C
$IIGLL,5408.173,N,01328.741,E,100105,A,A*53
$IIMWV,031,R,18.4,N,A*1C
$IIMWV,039,T,15.4,N,A*1F
$IIRMC,100106,A,5408.174,N,01328.742,E,03.8,030,050821,03,E,A*0D
$IIGLL,5408.174,N,01328.742,E,100106,A,A*54
$IIMWV,031,R,18.5,N,A*1D
$IIMWV,038,T,15.3,N,A*19
$IIRMC,100107,A,5408.174,N,01328.743,E,03.8,031,050821,03,E,A*0C
$IIGLL,5408.174,N,01328.743,E,100107,A,A*54
$IIMWV,031,R,18.3,N,A*1B
$IIMWV,038,T,15.4,N,A*1E
$IIRMC,100108,A,5408.175,N,01328.743,E,03.8,028,050821,03,E,A*0A
$IIGLL,5408.175,N,01328.743,E,100108,A,A*5A
$IIMWV,035,R,17.8,N,A*1B
$IIMWV,038,T,15.2,N,A*18
$IIRMC,100108,A,5408.175,N,01328.743,E,03.8,028,050821,03,E,A*0A
$IIGLL,5408.175,N,01328.743,E,100108,A,A*5A
$IIMWV,035,R,17.8,N,A*1B
$IIMWV,043,T,14.7,N,A*10
$IIRMC,100110,A,5408.177,N,01328.745,E,03.9,019,050821,03,E,A*04
$IIGLL,5408.177,N,01328.745,E,100110,A,A*57
$IIMWV,039,R,17.5,N,A*1A
$IIMWV,043,T,14.7,N,A*10
$IIRMC,100110,A,5408.177,N,01328.745,E,03.9,019,050821,03,E,A*04
$IIGLL,5408.177,N,01328.745,E,100110,A,A*57
$IIMWV,038,R,17.9,N,A*17
$IIMWV,049,T,14.6,N,A*1B
$IIRMC,100112,A,5408.180,N,01328.746,E,04.1,013,050821,03,E,A*08
$IIGLL,5408.180,N,01328.746,E,100112,A,A*5E
$IIMWV,038,R,17.8,N,A*16
$IIMWV,047,T,15.0,N,A*12
$IIRMC,100113,A,5408.181,N,01328.747,E,04.2,015,050821,03,E,A*0C
$IIGLL,5408.181,N,01328.747,E,100113,A,A*5F
$IIMWV,038,R,18.1,N,A*10
$IIMWV,048,T,14.7,N,A*1B
$IIRMC,100114,A,5408.181,N,01328.747,E,04.1,017,050821,03,E,A*0A
$IIGLL,5408.181,N,01328.747,E,100114,A,A*58
$IIMWV,037,R,18.7,N,A*19
$IIMWV,048,T,15.0,N,A*1D
$IIRMC,100115,A,5408.183,N,01328.748,E,04.2,020,050821,03,E,A*01
$IIGLL,5408.183,N,01328.748,E,100115,A,A*54
$IIMWV,037,R,18.0,N,A*1E
$IIMWV,046,T,15.5,N,A*16
$IIRMC,100116,A,5408.184,N,01328.748,E,04.0,024,050821,03,E,A*03
$IIGLL,5408.184,N,01328.748,E,100116,A,A*50
$IIMWV,040,R,19.3,N,A*1C
$IIMWV,047,T,14.8,N,A*1B
$IIRMC,100117,A,5408.185,N,01328.749,E,04.2,022,050821,03,E,A*06
$IIGLL,5408.185,N,01328.749,E,100117,A,A*51
$IIMWV,040,R,17.9,N,A*18
$IIMWV,049,T,16.3,N,A*1C
$IIRMC,100118,A,5408.187,N,01328.750,E,03.9,023,050821,03,E,A*0E
$IIGLL,5408.187,N,01328.750,E,100118,A,A*54
$IIMWV,043,R,18.4,N,A*19
$IIMWV,050,T,14.8,N,A*1D
$IIRMC,100119,A,5408.188,N,01328.750,E,03.9,013,050821,03,E,A*03
$IIGLL,5408.188,N,01328.750,E,100119,A,A*5A
$IIMWV,045,R,17.4,N,A*10
$IIMWV,053,T,15.7,N,A*10
$IIRMC,100120,A,5408.190,N,01328.750,E,04.0,013,050821,03,E,A*0E
$IIGLL,5408.190,N,01328.750,E,100120,A,A*59
$IIMWV,044,R,17.7,N,A*12
$IIMWV,056,T,14.8,N,A*1B
$IIRMC,100120,A,5408.190,N,01328.750,E,04.0,013,050821,03,E,A*0E
$IIGLL,5408.190,N,01328.750,E,100120,A,A*59
$IIMWV,045,R,17.5,N,A*11
$IIMWV,054,T,14.9,N,A*18
$IIRMC,100122,A,5408.192,N,01328.750,E,03.9,007,050821,03,E,A*05
$IIGLL,5408.192,N,01328.750,E,100122,A,A*59
$IIMWV,043,R,18.2,N,A*1F
$IIMWV,056,T,14.9,N,A*1A
$IIRMC,100123,A,5408.193,N,01328.751,E,04.1,010,050821,03,E,A*0D
$IIGLL,5408.193,N,01328.751,E,100123,A,A*58
$IIMWV,043,R,18.1,N,A*1C
$IIMWV,053,T,15.4,N,A*13
$IIRMC,100124,A,5408.195,N,01328.751,E,04.3,015,050821,03,E,A*0B
$IIGLL,5408.195,N,01328.751,E,100124,A,A*59
$IIMWV,042,R,18.0,N,A*1C
$IIMWV,053,T,15.3,N,A*14
$IIRMC,100125,A,5408.196,N,01328.752,E,04.4,019,050821,03,E,A*01
$IIGLL,5408.199,N,01328.754,E,100127,A,A*53
$IIMWV,042,R,18.0,N,A*1C
$IIMWV,054,T,14.9,N,A*18
$IIRMC,100127,A,5408.199,N,01328.754,E,04.8,021,050821,03,E,A*0D
$IIGLL,5408.201,N,01328.755,E,100128,A,A*5F
$IIMWV,042,R,17.8,N,A*1B
$IIMWV,055,T,14.7,N,A*17
$IIRMC,100128,A,5408.201,N,01328.755,E,04.8,018,050821,03,E,A*0B
$IIGLL,5408.201,N,01328.756,E,100129,A,A*5D
$IIMWV,042,R,17.9,N,A*1A
$IIMWV,055,T,14.5,N,A*15
$IIRMC,100129,A,5408.201,N,01328.756,E,04.7,017,050821,03,E,A*09
$IIGLL,5408.203,N,01328.756,E,100130,A,A*57
$IIMWV,041,R,18.1,N,A*1E
$IIMWV,054,T,14.6,N,A*17
$IIRMC,100130,A,5408.203,N,01328.756,E,05.1,016,050821,03,E,A*05
$IIGLL,5408.204,N,01328.757,E,100131,A,A*50
$IIMWV,041,R,18.0,N,A*1F
$IIMWV,055,T,14.5,N,A*15
$IIRMC,100131,A,5408.204,N,01328.757,E,05.1,016,050821,03,E,A*02
$IIGLL,5408.204,N,01328.757,E,100132,A,A*53
$IIMWV,041,R,18.9,N,A*16
$IIMWV,055,T,14.4,N,A*14
$IIRMC,100132,A,5408.204,N,01328.757,E,05.2,019,050821,03,E,A*0D
$IIGLL,5408.204,N,01328.757,E,100133,A,A*52
$IIMWV,041,R,18.8,N,A*17
$IIMWV,054,T,15.2,N,A*12
$IIRMC,100133,A,5408.204,N,01328.757,E,05.3,018,050821,03,E,A*0C
$IIGLL,5408.206,N,01328.758,E,100134,A,A*58
$IIMWV,041,R,19.6,N,A*18
$IIMWV,055,T,15.2,N,A*13
$IIRMC,100134,A,5408.206,N,01328.758,E,05.1,021,050821,03,E,A*0E
$IIGLL,5408.206,N,01328.758,E,100135,A,A*59
$IIMWV,041,R,19.2,N,A*1C
$IIMWV,053,T,16.0,N,A*14
$IIRMC,100135,A,5408.206,N,01328.758,E,05.2,019,050821,03,E,A*07
$IIGLL,5408.208,N,01328.759,E,100136,A,A*55
$IIMWV,040,R,19.5,N,A*1A
$IIMWV,054,T,15.6,N,A*16
$IIRMC,100136,A,5408.208,N,01328.759,E,05.3,020,050821,03,E,A*00
$IIGLL,5408.209,N,01328.760,E,100137,A,A*5F
$IIMWV,041,R,19.1,N,A*1F
$IIMWV,052,T,15.7,N,A*11
$IIRMC,100137,A,5408.209,N,01328.760,E,05.2,015,050821,03,E,A*0D
$IIGLL,5408.211,N,01328.761,E,100138,A,A*58
$IIMWV,039,R,19.0,N,A*11
$IIMWV,054,T,15.5,N,A*15
$IIRMC,100138,A,5408.211,N,01328.761,E,05.3,015,050821,03,E,A*0B
$IIGLL,5408.212,N,01328.761,E,100139,A,A*5A
$IIMWV,042,R,18.7,N,A*1B
$IIMWV,052,T,15.2,N,A*14
$IIRMC,100139,A,5408.212,N,01328.761,E,06.1,012,050821,03,E,A*0F
$IIGLL,5408.212,N,01328.761,E,100139,A,A*5A
$IIMWV,041,R,18.9,N,A*16
$IIMWV,058,T,14.6,N,A*1B
$IIRMC,100139,A,5408.212,N,01328.761,E,06.1,012,050821,03,E,A*0F
$IIGLL,5408.215,N,01328.762,E,100141,A,A*51
$IIMWV,042,R,18.9,N,A*15
$IIMWV,057,T,14.7,N,A*15
$IIRMC,100141,A,5408.215,N,01328.762,E,06.1,005,050821,03,E,A*02
$IIGLL,5408.217,N,01328.762,E,100142,A,A*50
$IIMWV,041,R,19.0,N,A*1E
$IIMWV,058,T,14.8,N,A*15
$IIRMC,100142,A,5408.217,N,01328.762,E,05.0,009,050821,03,E,A*0D
$IIGLL,5408.218,N,01328.763,E,100143,A,A*5F
$IIMWV,041,R,18.8,N,A*17
$IIMWV,054,T,15.5,N,A*15
$IIRMC,100143,A,5408.218,N,01328.763,E,05.5,012,050821,03,E,A*0D
$IIGLL,5408.219,N,01328.764,E,100144,A,A*5E
$IIMWV,040,R,18.7,N,A*19
$IIMWV,055,T,15.0,N,A*11
$IIRMC,100144,A,5408.219,N,01328.764,E,05.1,016,050821,03,E,A*0C
$IIGLL,5408.220,N,01328.765,E,100145,A,A*54
$IIMWV,040,R,18.8,N,A*16
$IIMWV,052,T,15.0,N,A*16
$IIRMC,100145,A,5408.220,N,01328.765,E,05.3,018,050821,03,E,A*0A
$IIGLL,5408.222,N,01328.766,E,100146,A,A*56
$IIMWV,039,R,18.7,N,A*17
$IIMWV,053,T,15.0,N,A*17
$IIRMC,100146,A,5408.222,N,01328.766,E,05.2,020,050821,03,E,A*02
$IIGLL,5408.223,N,01328.767,E,100147,A,A*57
$IIMWV,037,R,19.1,N,A*1E
$IIMWV,052,T,14.9,N,A*1E
$IIRMC,100147,A,5408.223,N,01328.767,E,05.2,020,050821,03,E,A*03
$IIGLL,5408.223,N,01328.767,E,100147,A,A*57
$IIMWV,037,R,18.8,N,A*16
$IIMWV,049,T,15.1,N,A*1D
$IIRMC,100147,A,5408.223,N,01328.767,E,05.2,020,050821,03,E,A*03
$IIGLL,5408.224,N,01328.768,E,100149,A,A*51
$IIMWV,037,R,19.0,N,A*1F
$IIMWV,049,T,14.8,N,A*15
$IIRMC,100149,A,5408.224,N,01328.768,E,05.0,023,050821,03,E,A*04
$IIGLL,5408.226,N,01328.769,E,100150,A,A*5A
$IIMWV,037,R,18.5,N,A*1B
$IIMWV,048,T,15.2,N,A*1F
$IIRMC,100150,A,5408.226,N,01328.769,E,05.1,023,050821,03,E,A*0E
$IIGLL,5408.228,N,01328.770,E,100151,A,A*5D
$IIMWV,038,R,18.6,N,A*17
$IIMWV,049,T,14.7,N,A*1A
$IIRMC,100151,A,5408.228,N,01328.770,E,05.1,023,050821,03,E,A*09
$IIGLL,5408.229,N,01328.771,E,100152,A,A*5E
$IIMWV,038,R,18.1,N,A*10
$IIMWV,050,T,14.9,N,A*1C
$IIRMC,100152,A,5408.229,N,01328.771,E,05.3,022,050821,03,E,A*09
$IIGLL,5408.231,N,01328.772,E,100153,A,A*55
$IIMWV,039,R,18.1,N,A*11
$IIMWV,052,T,14.3,N,A*14
$IIRMC,100153,A,5408.231,N,01328.772,E,05.3,021,050821,03,E,A*01
$IIGLL,5408.233,N,01328.773,E,100154,A,A*51
$IIMWV,041,R,17.6,N,A*16
$IIMWV,052,T,14.4,N,A*13
$IIRMC,100154,A,5408.233,N,01328.773,E,05.2,016,050821,03,E,A*00
$IIGLL,5408.233,N,01328.773,E,100154,A,A*51
$IIMWV,042,R,17.6,N,A*15
$IIMWV,055,T,14.0,N,A*10
$IIRMC,100154,A,5408.233,N,01328.773,E,05.2,016,050821,03,E,A*00
$IIGLL,5408.236,N,01328.775,E,100156,A,A*50
$IIMWV,041,R,17.5,N,A*15
$IIMWV,056,T,14.0,N,A*13
$IIRMC,100156,A,5408.236,N,01328.775,E,05.4,010,050821,03,E,A*01
$IIGLL,5408.236,N,01328.775,E,100156,A,A*50
$IIMWV,042,R,17.3,N,A*10
$IIMWV,056,T,13.8,N,A*1C
$IIRMC,100156,A,5408.236,N,01328.775,E,05.4,010,050821,03,E,A*01
$IIGLL,5408.239,N,01328.776,E,100158,A,A*52
$IIMWV,041,R,17.8,N,A*18
$IIMWV,057,T,13.6,N,A*13
$IIRMC,100158,A,5408.239,N,01328.776,E,05.1,011,050821,03,E,A*07
$IIGLL,5408.240,N,01328.777,E,100159,A,A*5C
$IIMWV,042,R,18.0,N,A*1C
$IIMWV,055,T,14.2,N,A*12
$IIRMC,100159,A,5408.240,N,01328.777,E,05.0,010,050821,03,E,A*09
$IIGLL,5408.242,N,01328.778,E,100200,A,A*5E
$IIMWV,041,R,18.7,N,A*18
$IIMWV,055,T,14.5,N,A*15
$IIRMC,100200,A,5408.242,N,01328.778,E,04.9,016,050821,03,E,A*05
$IIGLL,5408.243,N,01328.779,E,100201,A,A*5F
$IIMWV,041,R,18.7,N,A*18
$IIMWV,053,T,15.3,N,A*14
$IIRMC,100201,A,5408.243,N,01328.779,E,05.3,016,050821,03,E,A*0F
$IIGLL,5408.245,N,01328.780,E,100202,A,A*5C
$IIMWV,040,R,18.9,N,A*17
$IIMWV,055,T,15.0,N,A*11
$IIRMC,100202,A,5408.245,N,01328.780,E,05.3,019,050821,03,E,A*03
$IIGLL,5408.246,N,01328.781,E,100203,A,A*5F
$IIMWV,041,R,18.5,N,A*1A
$IIMWV,053,T,15.1,N,A*16
$IIRMC,100203,A,5408.246,N,01328.781,E,05.5,018,050821,03,E,A*07
$IIGLL,5408.248,N,01328.782,E,100204,A,A*55
$IIMWV,040,R,18.9,N,A*17
$IIMWV,056,T,14.7,N,A*14
$IIRMC,100204,A,5408.248,N,01328.782,E,05.5,020,050821,03,E,A*06
$IIGLL,5408.250,N,01328.782,E,100205,A,A*5D
$IIMWV,040,R,18.9,N,A*17
$IIMWV,053,T,15.0,N,A*17
$IIRMC,100205,A,5408.250,N,01328.782,E,05.5,020,050821,03,E,A*0E
$IIGLL,5408.251,N,01328.783,E,100206,A,A*5E
$IIMWV,039,R,19.0,N,A*11
$IIMWV,053,T,15.0,N,A*17
$IIRMC,100206,A,5408.251,N,01328.783,E,05.4,021,050821,03,E,A*0D
$IIGLL,5408.252,N,01328.784,E,100207,A,A*5B
$IIMWV,040,R,18.9,N,A*17
$IIMWV,052,T,15.1,N,A*17
$IIRMC,100207,A,5408.252,N,01328.784,E,05.4,021,050821,03,E,A*08
$IIGLL,5408.254,N,01328.785,E,100208,A,A*53
$IIMWV,040,R,19.4,N,A*1B
$IIMWV,053,T,15.0,N,A*17
$IIRMC,100208,A,5408.254,N,01328.785,E,05.4,023,050821,03,E,A*02
$IIGLL,5408.255,N,01328.786,E,100209,A,A*50
$IIMWV,039,R,19.3,N,A*12
$IIMWV,053,T,15.6,N,A*11
$IIRMC,100209,A,5408.255,N,01328.786,E,05.5,023,050821,03,E,A*00
$IIGLL,5408.257,N,01328.787,E,100210,A,A*5B
$IIMWV,041,R,19.0,N,A*1E
$IIMWV,052,T,15.3,N,A*15
$IIRMC,100210,A,5408.257,N,01328.787,E,05.5,021,050821,03,E,A*09
$IIGLL,5408.258,N,01328.788,E,100211,A,A*5A
$IIMWV,040,R,18.9,N,A*17
$IIMWV,055,T,15.2,N,A*13
$IIRMC,100211,A,5408.258,N,01328.788,E,05.5,020,050821,03,E,A*09
$IIGLL,5408.260,N,01328.789,E,100212,A,A*53
$IIMWV,041,R,18.8,N,A*17
$IIMWV,053,T,15.0,N,A*17
$IIRMC,100212,A,5408.260,N,01328.789,E,06.0,016,050821,03,E,A*03
$IIGLL,5408.261,N,01328.789,E,100213,A,A*53
$IIMWV,041,R,18.8,N,A*17
$IIMWV,057,T,14.8,N,A*1A
$IIRMC,100213,A,5408.261,N,01328.789,E,05.7,017,050821,03,E,A*06
$IIGLL,5408.262,N,01328.789,E,100214,A,A*57
$IIMWV,041,R,18.5,N,A*1A
$IIMWV,056,T,14.9,N,A*1A
$IIRMC,100214,A,5408.262,N,01328.789,E,05.7,016,050821,03,E,A*03
$IIGLL,5408.263,N,01328.790,E,100215,A,A*5F
$IIMWV,042,R,18.8,N,A*14
$IIMWV,057,T,14.6,N,A*14
$IIRMC,100215,A,5408.263,N,01328.790,E,05.6,019,050821,03,E,A*05
$IIGLL,5408.264,N,01328.791,E,100216,A,A*5A
$IIMWV,041,R,18.5,N,A*1A
$IIMWV,057,T,15.0,N,A*13
$IIRMC,100216,A,5408.264,N,01328.791,E,05.6,018,050821,03,E,A*01
$IIGLL,5408.266,N,01328.792,E,100217,A,A*5A
$IIMWV,041,R,18.4,N,A*1B
$IIMWV,056,T,14.6,N,A*15
$IIRMC,100217,A,5408.266,N,01328.792,E,06.4,016,050821,03,E,A*0E
$IIGLL,5408.268,N,01328.792,E,100218,A,A*5B
$IIMWV,042,R,18.6,N,A*1A
$IIMWV,058,T,14.1,N,A*1C
$IIRMC,100218,A,5408.268,N,01328.792,E,05.7,015,050821,03,E,A*0C
$IIGLL,5408.269,N,01328.793,E,100219,A,A*5A
$IIMWV,043,R,18.8,N,A*15
$IIMWV,057,T,14.7,N,A*15
$IIRMC,100219,A,5408.269,N,01328.793,E,06.1,015,050821,03,E,A*08
$IIGLL,5408.271,N,01328.794,E,100220,A,A*5E
$IIMWV,041,R,19.4,N,A*1A
$IIMWV,059,T,14.8,N,A*14
$IIRMC,100220,A,5408.271,N,01328.794,E,05.4,015,050821,03,E,A*0A
$IIGLL,5408.272,N,01328.794,E,100221,A,A*5C
$IIMWV,040,R,19.5,N,A*1A
$IIMWV,055,T,15.7,N,A*16
$IIRMC,100221,A,5408.272,N,01328.794,E,05.6,016,050821,03,E,A*09
$IIGLL,5408.272,N,01328.795,E,100222,A,A*5E
$IIMWV,039,R,19.9,N,A*18
$IIMWV,053,T,15.5,N,A*12
$IIRMC,100222,A,5408.272,N,01328.795,E,05.2,020,050821,03,E,A*0A
$IIGLL,5408.274,N,01328.796,E,100223,A,A*5A
$IIMWV,038,R,19.7,N,A*17
$IIMWV,050,T,16.1,N,A*16
$IIRMC,100223,A,5408.274,N,01328.796,E,05.1,024,050821,03,E,A*09
$IIGLL,5408.276,N,01328.798,E,100224,A,A*51
$IIMWV,038,R,20.1,N,A*1B
$IIMWV,050,T,16.0,N,A*17
$IIRMC,100224,A,5408.276,N,01328.798,E,05.3,027,050821,03,E,A*03
$IIGLL,5408.276,N,01328.798,E,100224,A,A*51
$IIMWV,036,R,19.8,N,A*16
$IIMWV,050,T,16.2,N,A*15
$IIRMC,100224,A,5408.276,N,01328.798,E,05.3,027,050821,03,E,A*03
$IIGLL,5408.279,N,01328.800,E,100226,A,A*52
$IIMWV,035,R,20.0,N,A*17
$IIMWV,047,T,15.7,N,A*15
$IIRMC,100226,A,5408.279,N,01328.800,E,05.4,030,050821,03,E,A*01
$IIGLL,5408.280,N,01328.802,E,100227,A,A*57
$IIMWV,034,R,19.6,N,A*1A
$IIMWV,046,T,15.8,N,A*1B
$IIRMC,100227,A,5408.280,N,01328.802,E,05.4,030,050821,03,E,A*04
$IIGLL,5408.281,N,01328.803,E,100228,A,A*58
$IIMWV,035,R,19.1,N,A*1C
$IIMWV,045,T,15.3,N,A*13
$IIRMC,100228,A,5408.281,N,01328.803,E,05.3,030,050821,03,E,A*0C
$IIGLL,5408.282,N,01328.804,E,100229,A,A*5D
$IIMWV,033,R,19.0,N,A*1B
$IIMWV,046,T,14.9,N,A*1B
$IIRMC,100229,A,5408.282,N,01328.804,E,05.4,029,050821,03,E,A*06
$IIGLL,5408.283,N,01328.805,E,100230,A,A*55
$IIMWV,036,R,18.7,N,A*18
$IIMWV,044,T,14.6,N,A*16
$IIRMC,100230,A,5408.283,N,01328.805,E,05.0,030,050821,03,E,A*02
$IIGLL,5408.284,N,01328.806,E,100231,A,A*50
$IIMWV,035,R,18.7,N,A*1B
$IIMWV,047,T,14.9,N,A*1A
$IIRMC,100231,A,5408.284,N,01328.806,E,05.1,029,050821,03,E,A*0E
$IIGLL,5408.285,N,01328.807,E,100232,A,A*53
$IIMWV,037,R,18.2,N,A*1C
$IIMWV,046,T,14.7,N,A*15
$IIRMC,100232,A,5408.285,N,01328.807,E,04.8,027,050821,03,E,A*0B
$IIGLL,5408.285,N,01328.807,E,100232,A,A*53
$IIMWV,037,R,17.8,N,A*19
$IIMWV,048,T,14.5,N,A*19
$IIRMC,100232,A,5408.285,N,01328.807,E,04.8,027,050821,03,E,A*0B
$IIGLL,5408.288,N,01328.809,E,100234,A,A*56
$IIMWV,041,R,17.6,N,A*16
$IIMWV,048,T,14.1,N,A*1D
$IIRMC,100234,A,5408.288,N,01328.809,E,05.0,021,050821,03,E,A*01
$IIGLL,5408.290,N,01328.810,E,100235,A,A*56
$IIMWV,040,R,17.6,N,A*17
$IIMWV,055,T,14.2,N,A*12
$IIRMC,100235,A,5408.290,N,01328.810,E,05.0,020,050821,03,E,A*00
$IIGLL,5408.291,N,01328.811,E,100236,A,A*55
$IIMWV,040,R,17.7,N,A*16
$IIMWV,053,T,14.0,N,A*16
$IIRMC,100236,A,5408.291,N,01328.811,E,04.9,016,050821,03,E,A*0E
$IIGLL,5408.293,N,01328.812,E,100237,A,A*55
$IIMWV,039,R,18.2,N,A*12
$IIMWV,052,T,14.2,N,A*15
$IIRMC,100237,A,5408.293,N,01328.812,E,04.9,016,050821,03,E,A*0E
$IIGLL,5408.295,N,01328.813,E,100238,A,A*5D
$IIMWV,040,R,18.5,N,A*1B
$IIMWV,051,T,14.6,N,A*12
$IIRMC,100238,A,5408.295,N,01328.813,E,05.7,014,050821,03,E,A*0B
$IIGLL,5408.295,N,01328.813,E,100238,A,A*5D
$IIMWV,038,R,19.3,N,A*13
$IIMWV,054,T,14.5,N,A*14
$IIRMC,100238,A,5408.295,N,01328.813,E,05.7,014,050821,03,E,A*0B
$IIGLL,5408.298,N,01328.815,E,100240,A,A*59
$IIMWV,038,R,19.4,N,A*14
$IIMWV,052,T,15.2,N,A*14
$IIRMC,100240,A,5408.298,N,01328.815,E,04.9,022,050821,03,E,A*05
$IIGLL,5408.298,N,01328.815,E,100241,A,A*58
$IIMWV,037,R,19.7,N,A*18
$IIMWV,049,T,15.8,N,A*14
$IIRMC,100241,A,5408.298,N,01328.815,E,04.8,024,050821,03,E,A*03
$IIGLL,5408.299,N,01328.816,E,100242,A,A*59
$IIMWV,037,R,19.5,N,A*1A
$IIMWV,047,T,16.0,N,A*11
$IIRMC,100242,A,5408.299,N,01328.816,E,04.9,025,050821,03,E,A*02
$IIGLL,5408.299,N,01328.817,E,100243,A,A*59
$IIMWV,037,R,19.2,N,A*1D
$IIMWV,048,T,15.8,N,A*15
$IIRMC,100243,A,5408.299,N,01328.817,E,04.9,026,050821,03,E,A*01
$IIGLL,5408.301,N,01328.818,E,100244,A,A*51
$IIMWV,037,R,18.8,N,A*16
$IIMWV,048,T,15.5,N,A*18
$IIRMC,100244,A,5408.301,N,01328.818,E,05.0,024,050821,03,E,A*03
$IIGLL,5408.302,N,01328.819,E,100245,A,A*52
$IIMWV,038,R,18.6,N,A*17
$IIMWV,048,T,15.0,N,A*1D
$IIRMC,100245,A,5408.302,N,01328.819,E,04.9,023,050821,03,E,A*0F
$IIGLL,5408.303,N,01328.820,E,100246,A,A*5A
$IIMWV,037,R,18.3,N,A*1D
$IIMWV,050,T,15.0,N,A*14
$IIRMC,100246,A,5408.303,N,01328.820,E,05.1,020,050821,03,E,A*0D
$IIGLL,5408.305,N,01328.820,E,100247,A,A*5D
$IIMWV,040,R,17.8,N,A*19
$IIMWV,049,T,14.4,N,A*19
$IIRMC,100247,A,5408.305,N,01328.820,E,05.1,019,050821,03,E,A*00
$IIGLL,5408.306,N,01328.821,E,100248,A,A*50
$IIMWV,039,R,17.9,N,A*16
$IIMWV,053,T,14.2,N,A*14
$IIRMC,100248,A,5408.306,N,01328.821,E,04.9,018,050821,03,E,A*05
$IIGLL,5408.306,N,01328.821,E,100249,A,A*51
$IIMWV,040,R,17.8,N,A*19
$IIMWV,051,T,14.3,N,A*17
$IIRMC,100249,A,5408.306,N,01328.821,E,05.2,016,050821,03,E,A*00
$IIGLL,5408.308,N,01328.823,E,100250,A,A*55
$IIMWV,040,R,17.7,N,A*16
$IIMWV,053,T,14.1,N,A*17
$IIRMC,100250,A,5408.308,N,01328.823,E,05.1,018,050821,03,E,A*09
$IIGLL,5408.309,N,01328.823,E,100251,A,A*55
$IIMWV,042,R,17.6,N,A*15
$IIMWV,053,T,14.1,N,A*17
$IIRMC,100251,A,5408.309,N,01328.823,E,05.1,017,050821,03,E,A*06
$IIGLL,5408.311,N,01328.825,E,100252,A,A*59
$IIMWV,041,R,17.8,N,A*18
$IIMWV,056,T,14.1,N,A*12
$IIRMC,100252,A,5408.311,N,01328.825,E,05.2,019,050821,03,E,A*07
$IIGLL,5408.313,N,01328.825,E,100253,A,A*5A
$IIMWV,042,R,17.9,N,A*1A
$IIMWV,055,T,14.2,N,A*12
$IIRMC,100253,A,5408.313,N,01328.825,E,05.4,016,050821,03,E,A*0D
$IIGLL,5408.313,N,01328.826,E,100254,A,A*5E
$IIMWV,040,R,18.2,N,A*1C
$IIMWV,057,T,14.2,N,A*10
$IIRMC,100254,A,5408.313,N,01328.826,E,05.2,018,050821,03,E,A*01
$IIGLL,5408.315,N,01328.827,E,100255,A,A*58
$IIMWV,041,R,18.2,N,A*1D
$IIMWV,053,T,14.5,N,A*13
$IIRMC,100255,A,5408.315,N,01328.827,E,05.3,016,050821,03,E,A*08
$IIGLL,5408.316,N,01328.827,E,100256,A,A*58
$IIMWV,040,R,18.4,N,A*1A
$IIMWV,055,T,14.5,N,A*15
$IIRMC,100256,A,5408.316,N,01328.827,E,05.3,016,050821,03,E,A*08
$IIGLL,5408.318,N,01328.828,E,100257,A,A*58
$IIMWV,041,R,18.2,N,A*1D
$IIMWV,053,T,14.6,N,A*10
$IIRMC,100257,A,5408.318,N,01328.828,E,05.2,012,050821,03,E,A*0D
$IIGLL,5408.320,N,01328.829,E,100258,A,A*5D
$IIMWV,041,R,18.0,N,A*1F
$IIMWV,055,T,14.6,N,A*16
$IIRMC,100258,A,5408.320,N,01328.829,E,06.4,021,050821,03,E,A*0D
$IIGLL,5408.321,N,01328.830,E,100259,A,A*55
$IIMWV,041,R,18.2,N,A*1D
$IIMWV,059,T,13.7,N,A*1C
$IIRMC,100259,A,5408.321,N,01328.830,E,05.8,018,050821,03,E,A*00
$IIGLL,5408.321,N,01328.830,E,100259,A,A*55
$IIMWV,040,R,18.4,N,A*1A
$IIMWV,057,T,14.3,N,A*11
$IIRMC,100259,A,5408.321,N,01328.830,E,05.8,018,050821,03,E,A*00
$IIGLL,5408.325,N,01328.832,E,100301,A,A*5F
$IIMWV,041,R,18.9,N,A*16
$IIMWV,055,T,14.3,N,A*13
$IIRMC,100301,A,5408.325,N,01328.832,E,05.7,018,050821,03,E,A*05
$IIGLL,5408.326,N,01328.833,E,100302,A,A*5E
$IIMWV,039,R,18.8,N,A*18
$IIMWV,056,T,14.9,N,A*1A
$IIRMC,100302,A,5408.326,N,01328.833,E,05.6,019,050821,03,E,A*04
$IIGLL,5408.328,N,01328.833,E,100303,A,A*51
$IIMWV,041,R,18.9,N,A*16
$IIMWV,053,T,14.8,N,A*1E
$IIRMC,100303,A,5408.328,N,01328.833,E,05.5,017,050821,03,E,A*06
$IIGLL,5408.329,N,01328.834,E,100304,A,A*50
$IIMWV,040,R,18.6,N,A*18
$IIMWV,055,T,15.0,N,A*11
$IIRMC,100304,A,5408.329,N,01328.834,E,05.4,017,050821,03,E,A*06
$IIGLL,5408.331,N,01328.835,E,100305,A,A*59
$IIMWV,042,R,18.4,N,A*18
$IIMWV,053,T,14.8,N,A*1E
$IIRMC,100305,A,5408.331,N,01328.835,E,05.5,014,050821,03,E,A*0D
$IIGLL,5408.332,N,01328.835,E,100306,A,A*59
$IIMWV,043,R,17.9,N,A*1B
$IIMWV,057,T,14.7,N,A*15
$IIRMC,100306,A,5408.332,N,01328.835,E,05.4,013,050821,03,E,A*0B
$IIGLL,5408.334,N,01328.836,E,100307,A,A*5D
$IIMWV,047,R,17.9,N,A*1F
$IIMWV,058,T,14.2,N,A*1F
$IIRMC,100307,A,5408.334,N,01328.836,E,05.6,013,050821,03,E,A*0D
$IIGLL,5408.335,N,01328.836,E,100308,A,A*53
$IIMWV,047,R,17.8,N,A*1E
$IIMWV,063,T,14.5,N,A*10
$IIRMC,100308,A,5408.335,N,01328.836,E,05.7,006,050821,03,E,A*06
$IIGLL,5408.337,N,01328.836,E,100309,A,A*50
$IIMWV,047,R,18.0,N,A*19
$IIMWV,064,T,14.4,N,A*16
$IIRMC,100309,A,5408.337,N,01328.836,E,05.8,005,050821,03,E,A*09
$IIGLL,5408.338,N,01328.836,E,100310,A,A*57
$IIMWV,045,R,18.0,N,A*1B
$IIMWV,064,T,14.5,N,A*17
$IIRMC,100310,A,5408.338,N,01328.836,E,05.4,000,050821,03,E,A*07
$IIGLL,5408.340,N,01328.836,E,100311,A,A*59
$IIMWV,043,R,18.8,N,A*15
$IIMWV,060,T,14.6,N,A*10
$IIRMC,100311,A,5408.340,N,01328.836,E,05.3,004,050821,03,E,A*0A
$IIGLL,5408.341,N,01328.837,E,100312,A,A*5A
$IIMWV,042,R,19.0,N,A*1D
$IIMWV,057,T,15.2,N,A*11
$IIRMC,100312,A,5408.341,N,01328.837,E,05.4,008,050821,03,E,A*02
$IIGLL,5408.343,N,01328.838,E,100313,A,A*56
$IIMWV,042,R,19.4,N,A*19
$IIMWV,056,T,15.3,N,A*11
$IIRMC,100313,A,5408.343,N,01328.838,E,05.2,015,050821,03,E,A*04
$IIGLL,5408.345,N,01328.839,E,100314,A,A*56
$IIMWV,041,R,19.2,N,A*1C
$IIMWV,055,T,15.7,N,A*16
$IIRMC,100314,A,5408.345,N,01328.839,E,05.2,021,050821,03,E,A*03
$IIGLL,5408.346,N,01328.840,E,100315,A,A*5A
$IIMWV,043,R,18.9,N,A*14
$IIMWV,054,T,15.6,N,A*16
$IIRMC,100315,A,5408.346,N,01328.840,E,05.0,025,050821,03,E,A*09
$IIGLL,5408.348,N,01328.841,E,100316,A,A*56
$IIMWV,042,R,18.8,N,A*14
$IIMWV,056,T,15.4,N,A*16
$IIRMC,100316,A,5408.348,N,01328.841,E,05.2,025,050821,03,E,A*07
$IIGLL,5408.348,N,01328.840,E,100317,A,A*56
$IIMWV,045,R,18.3,N,A*18
$IIMWV,055,T,15.2,N,A*13
$IIRMC,100317,A,5408.348,N,01328.840,E,05.0,019,050821,03,E,A*0A
$IIGLL,5408.349,N,01328.841,E,100318,A,A*59
$IIMWV,043,R,18.5,N,A*18
$IIMWV,058,T,15.1,N,A*1D
$IIRMC,100318,A,5408.349,N,01328.841,E,05.0,016,050821,03,E,A*0A
$IIGLL,5408.351,N,01328.842,E,100319,A,A*52
$IIMWV,043,R,18.6,N,A*1B
$IIMWV,056,T,15.1,N,A*13
$IIRMC,100319,A,5408.351,N,01328.842,E,05.0,011,050821,03,E,A*06
$IIGLL,5408.353,N,01328.842,E,100320,A,A*5A
$IIMWV,041,R,18.8,N,A*17
$IIMWV,056,T,15.1,N,A*13
$IIRMC,100320,A,5408.353,N,01328.842,E,04.8,013,050821,03,E,A*05
$IIGLL,5408.354,N,01328.843,E,100321,A,A*5D
$IIMWV,042,R,18.6,N,A*1A
$IIMWV,053,T,15.5,N,A*12
$IIRMC,100321,A,5408.354,N,01328.843,E,04.9,016,050821,03,E,A*06
$IIGLL,5408.355,N,01328.844,E,100322,A,A*58
$IIMWV,041,R,19.0,N,A*1E
$IIMWV,055,T,15.2,N,A*13
$IIRMC,100322,A,5408.355,N,01328.844,E,04.9,019,050821,03,E,A*0C
$IIGLL,5408.356,N,01328.844,E,100323,A,A*5A
$IIMWV,041,R,18.9,N,A*16
$IIMWV,053,T,15.5,N,A*12
$IIRMC,100323,A,5408.356,N,01328.844,E,05.0,020,050821,03,E,A*0C
$IIGLL,5408.357,N,01328.846,E,100324,A,A*5E
$IIMWV,041,R,18.7,N,A*18
$IIMWV,054,T,15.3,N,A*13
$IIRMC,100324,A,5408.357,N,01328.846,E,05.0,020,050821,03,E,A*08
$IIGLL,5408.359,N,01328.847,E,100325,A,A*50
$IIMWV,041,R,18.5,N,A*1A
$IIMWV,054,T,15.2,N,A*12
$IIRMC,100325,A,5408.359,N,01328.847,E,05.1,019,050821,03,E,A*0D
$IIGLL,5408.361,N,01328.847,E,100326,A,A*58
$IIMWV,041,R,18.3,N,A*1C
$IIMWV,054,T,14.9,N,A*18
$IIRMC,100326,A,5408.361,N,01328.847,E,05.2,015,050821,03,E,A*0A
$IIGLL,5408.362,N,01328.848,E,100327,A,A*55
$IIMWV,040,R,18.4,N,A*1A
$IIMWV,055,T,14.7,N,A*17
$IIRMC,100328,A,5408.363,N,01328.848,E,05.1,013,050821,03,E,A*0C
$IIGLL,5408.363,N,01328.848,E,100328,A,A*5B
$IIMWV,039,R,18.6,N,A*16
$IIMWV,053,T,14.7,N,A*11
$IIRMC,100329,A,5408.365,N,01328.849,E,05.4,014,050821,03,E,A*08
$IIGLL,5408.365,N,01328.849,E,100329,A,A*5D
$IIMWV,039,R,19.0,N,A*11
$IIMWV,051,T,15.0,N,A*15
$IIRMC,100330,A,5408.366,N,01328.850,E,05.3,019,050821,03,E,A*01
$IIGLL,5408.366,N,01328.850,E,100330,A,A*5E
$IIMWV,038,R,19.2,N,A*12
$IIMWV,052,T,15.1,N,A*17
$IIRMC,100331,A,5408.368,N,01328.851,E,05.3,023,050821,03,E,A*06
$IIGLL,5408.368,N,01328.851,E,100331,A,A*50
$IIMWV,037,R,19.1,N,A*1E
$IIMWV,050,T,15.4,N,A*10
$IIRMC,100332,A,5408.368,N,01328.852,E,05.1,025,050821,03,E,A*02
$IIGLL,5408.368,N,01328.852,E,100332,A,A*50
$IIMWV,037,R,18.8,N,A*16
$IIMWV,049,T,15.0,N,A*1C
$IIRMC,100333,A,5408.369,N,01328.853,E,05.0,026,050821,03,E,A*01
$IIGLL,5408.369,N,01328.853,E,100333,A,A*51
$IIMWV,037,R,18.5,N,A*1B
$IIMWV,049,T,14.9,N,A*14
$IIRMC,100334,A,5408.371,N,01328.854,E,05.0,025,050821,03,E,A*0B
$IIGLL,5408.371,N,01328.854,E,100334,A,A*58
$IIMWV,038,R,18.1,N,A*10
$IIMWV,049,T,14.8,N,A*15
$IIRMC,100335,A,5408.372,N,01328.855,E,05.0,023,050821,03,E,A*0E
$IIGLL,5408.372,N,01328.855,E,100335,A,A*5B
$IIMWV,039,R,17.9,N,A*16
$IIMWV,051,T,14.4,N,A*10
$IIRMC,100336,A,5408.373,N,01328.855,E,04.9,021,050821,03,E,A*06
$IIGLL,5408.373,N,01328.855,E,100336,A,A*59
$IIMWV,040,R,17.8,N,A*19
$IIMWV,052,T,14.3,N,A*14
$IIRMC,100337,A,5408.374,N,01328.856,E,04.9,019,050821,03,E,A*08
$IIGLL,5408.374,N,01328.856,E,100337,A,A*5C
$IIMWV,039,R,17.5,N,A*1A
$IIMWV,052,T,14.3,N,A*14
$IIRMC,100338,A,5408.375,N,01328.856,E,04.9,018,050821,03,E,A*07
$IIGLL,5408.375,N,01328.856,E,100338,A,A*52
$IIMWV,040,R,17.9,N,A*18
$IIMWV,052,T,14.0,N,A*17
$IIRMC,100339,A,5408.377,N,01328.857,E,04.9,019,050821,03,E,A*04
$IIGLL,5408.377,N,01328.857,E,100339,A,A*50
$IIMWV,039,R,18.0,N,A*10
$IIMWV,052,T,14.4,N,A*13
$IIRMC,100340,A,5408.378,N,01328.858,E,04.8,020,050821,03,E,A*01
$IIGLL,5408.378,N,01328.858,E,100340,A,A*5E
$IIMWV,039,R,18.2,N,A*12
$IIMWV,051,T,14.5,N,A*11
$IIRMC,100341,A,5408.380,N,01328.859,E,04.7,022,050821,03,E,A*0B
$IIGLL,5408.380,N,01328.859,E,100341,A,A*59
$IIMWV,038,R,18.3,N,A*12
$IIMWV,051,T,14.7,N,A*13
$IIRMC,100342,A,5408.381,N,01328.860,E,04.7,023,050821,03,E,A*02
$IIGLL,5408.381,N,01328.860,E,100342,A,A*51
$IIMWV,038,R,18.2,N,A*13
$IIMWV,049,T,14.8,N,A*15
$IIRMC,100343,A,5408.383,N,01328.861,E,04.8,024,050821,03,E,A*08
$IIGLL,5408.383,N,01328.861,E,100343,A,A*53
$IIMWV,039,R,18.1,N,A*11
$IIMWV,049,T,14.7,N,A*1A
$IIRMC,100344,A,5408.384,N,01328.862,E,04.9,024,050821,03,E,A*0A
$IIGLL,5408.384,N,01328.862,E,100344,A,A*50
$IIMWV,039,R,17.8,N,A*17
$IIMWV,051,T,14.7,N,A*13
$IIRMC,100345,A,5408.385,N,01328.863,E,04.9,025,050821,03,E,A*0A
$IIGLL,5408.385,N,01328.863,E,100345,A,A*51
$IIMWV,038,R,17.5,N,A*1B
$IIMWV,052,T,14.3,N,A*14
$IIRMC,100346,A,5408.385,N,01328.864,E,04.9,025,050821,03,E,A*0E
$IIGLL,5408.385,N,01328.864,E,100346,A,A*55
$IIMWV,039,R,16.8,N,A*16
$IIMWV,050,T,13.9,N,A*1B
$IIRMC,100347,A,5408.387,N,01328.865,E,04.9,025,050821,03,E,A*0C
$IIGLL,5408.387,N,01328.865,E,100347,A,A*57
$IIMWV,039,R,16.7,N,A*19
$IIMWV,052,T,13.3,N,A*13
$IIRMC,100348,A,5408.388,N,01328.866,E,05.0,022,050821,03,E,A*00
$IIGLL,5408.388,N,01328.866,E,100348,A,A*54
$IIMWV,041,R,16.6,N,A*17
$IIMWV,052,T,13.2,N,A*12
$IIRMC,100349,A,5408.389,N,01328.867,E,04.9,019,050821,03,E,A*01
$IIGLL,5408.389,N,01328.867,E,100349,A,A*55
$IIMWV,042,R,16.6,N,A*14
$IIMWV,056,T,13.1,N,A*15
$IIRMC,100350,A,5408.391,N,01328.868,E,05.1,017,050821,03,E,A*08
$IIGLL,5408.391,N,01328.868,E,100350,A,A*5B
$IIMWV,043,R,16.7,N,A*14
$IIMWV,057,T,13.2,N,A*17
$IIRMC,100351,A,5408.392,N,01328.869,E,05.1,014,050821,03,E,A*08
$IIGLL,5408.392,N,01328.869,E,100351,A,A*58
$IIMWV,043,R,16.8,N,A*1B
$IIMWV,058,T,13.2,N,A*18
$IIRMC,100352,A,5408.394,N,01328.869,E,05.2,014,050821,03,E,A*0E
$IIGLL,5408.394,N,01328.869,E,100352,A,A*5D
$IIMWV,044,R,17.2,N,A*17
$IIMWV,058,T,13.4,N,A*1E
$IIRMC,100353,A,5408.395,N,01328.870,E,05.4,012,050821,03,E,A*06
$IIGLL,5408.395,N,01328.870,E,100353,A,A*55
$IIMWV,044,R,17.4,N,A*11
$IIMWV,059,T,13.7,N,A*1C
$IIRMC,100354,A,5408.397,N,01328.871,E,05.5,010,050821,03,E,A*01
$IIGLL,5408.397,N,01328.871,E,100354,A,A*51
$IIMWV,044,R,17.5,N,A*10
$IIMWV,059,T,13.9,N,A*12
$IIRMC,100355,A,5408.399,N,01328.871,E,05.5,011,050821,03,E,A*0F
$IIGLL,5408.399,N,01328.871,E,100355,A,A*5E
$IIMWV,044,R,17.9,N,A*1C
$IIMWV,059,T,13.9,N,A*12
$IIRMC,100356,A,5408.400,N,01328.872,E,05.4,012,050821,03,E,A*0A
$IIGLL,5408.400,N,01328.872,E,100356,A,A*59
$IIMWV,042,R,17.8,N,A*1B
$IIMWV,059,T,14.3,N,A*1F
$IIRMC,100357,A,5408.401,N,01328.872,E,05.5,013,050821,03,E,A*0A
$IIGLL,5408.401,N,01328.872,E,100357,A,A*59
$IIMWV,041,R,18.4,N,A*1B
$IIMWV,057,T,14.1,N,A*13
$IIRMC,100357,A,5408.401,N,01328.872,E,05.5,013,050821,03,E,A*0A
$IIGLL,5408.401,N,01328.872,E,100357,A,A*59
$IIMWV,040,R,18.5,N,A*1B
$IIMWV,056,T,14.6,N,A*15
$IIRMC,100359,A,5408.403,N,01328.873,E,05.3,019,050821,03,E,A*0B
$IIGLL,5408.403,N,01328.873,E,100359,A,A*54
$IIMWV,040,R,18.6,N,A*18
$IIMWV,053,T,14.6,N,A*10
$IIRMC,100400,A,5408.405,N,01328.875,E,05.1,021,050821,03,E,A*09
$IIGLL,5408.405,N,01328.875,E,100400,A,A*5F
$IIMWV,041,R,18.4,N,A*1B
$IIMWV,053,T,14.9,N,A*1F
$IIRMC,100401,A,5408.406,N,01328.876,E,05.3,022,050821,03,E,A*09
$IIGLL,5408.406,N,01328.876,E,100401,A,A*5E
$IIMWV,041,R,18.2,N,A*1D
$IIMWV,054,T,14.9,N,A*18
$IIRMC,100402,A,5408.408,N,01328.876,E,05.3,020,050821,03,E,A*06
$IIGLL,5408.408,N,01328.876,E,100402,A,A*53
$IIMWV,045,R,17.6,N,A*12
$IIMWV,055,T,14.5,N,A*15
$IIRMC,100402,A,5408.408,N,01328.876,E,05.3,020,050821,03,E,A*06
$IIGLL,5408.408,N,01328.876,E,100402,A,A*53
$IIMWV,044,R,18.1,N,A*1B
$IIMWV,060,T,14.2,N,A*14
$IIRMC,100404,A,5408.410,N,01328.877,E,05.7,014,050821,03,E,A*0B
$IIGLL,5408.410,N,01328.877,E,100404,A,A*5D
$IIMWV,044,R,17.6,N,A*13
$IIMWV,058,T,14.5,N,A*18
$IIRMC,100405,A,5408.412,N,01328.878,E,05.6,014,050821,03,E,A*06
$IIGLL,5408.412,N,01328.878,E,100405,A,A*51
$IIMWV,041,R,18.1,N,A*1E
$IIMWV,060,T,13.9,N,A*18
$IIRMC,100406,A,5408.413,N,01328.879,E,05.6,014,050821,03,E,A*05
$IIGLL,5408.413,N,01328.879,E,100406,A,A*52
$IIMWV,040,R,18.0,N,A*1E
$IIMWV,057,T,14.2,N,A*10
$IIRMC,100407,A,5408.414,N,01328.879,E,05.2,019,050821,03,E,A*0A
$IIGLL,5408.414,N,01328.879,E,100407,A,A*54
$IIMWV,040,R,18.1,N,A*1F
$IIMWV,054,T,14.1,N,A*10
$IIRMC,100408,A,5408.416,N,01328.881,E,05.5,023,050821,03,E,A*0E
$IIGLL,5408.416,N,01328.881,E,100408,A,A*5E
$IIMWV,039,R,18.3,N,A*13
$IIMWV,053,T,14.4,N,A*12
$IIRMC,100409,A,5408.417,N,01328.882,E,05.5,025,050821,03,E,A*0B
$IIGLL,5408.417,N,01328.882,E,100409,A,A*5D
$IIMWV,039,R,18.2,N,A*12
$IIMWV,053,T,14.4,N,A*12
$IIRMC,100410,A,5408.418,N,01328.883,E,05.4,026,050821,03,E,A*0F
$IIGLL,5408.418,N,01328.883,E,100410,A,A*5B
$IIMWV,039,R,18.1,N,A*11
$IIMWV,053,T,14.2,N,A*14
$IIRMC,100411,A,5408.420,N,01328.884,E,05.5,025,050821,03,E,A*00
$IIGLL,5408.420,N,01328.884,E,100411,A,A*56
$IIMWV,037,R,17.8,N,A*19
$IIMWV,053,T,14.3,N,A*15
$IIRMC,100412,A,5408.422,N,01328.885,E,05.4,024,050821,03,E,A*00
$IIGLL,5408.422,N,01328.885,E,100412,A,A*56
$IIMWV,035,R,18.0,N,A*1C
$IIMWV,051,T,13.7,N,A*14
$IIRMC,100413,A,5408.422,N,01328.886,E,05.2,023,050821,03,E,A*03
$IIGLL,5408.422,N,01328.886,E,100413,A,A*54
$IIMWV,034,R,18.2,N,A*1F
$IIMWV,048,T,13.8,N,A*13
$IIRMC,100414,A,5408.424,N,01328.887,E,05.2,024,050821,03,E,A*04
$IIGLL,5408.424,N,01328.887,E,100414,A,A*54
$IIMWV,033,R,18.5,N,A*1F
$IIMWV,046,T,14.1,N,A*13
$IIRMC,100415,A,5408.426,N,01328.888,E,05.3,027,050821,03,E,A*0A
$IIGLL,5408.426,N,01328.888,E,100415,A,A*58
$IIMWV,032,R,18.4,N,A*1F
$IIMWV,044,T,14.2,N,A*12
$IIRMC,100416,A,5408.427,N,01328.890,E,05.3,030,050821,03,E,A*07
$IIGLL,5408.427,N,01328.890,E,100416,A,A*53
$IIMWV,031,R,18.7,N,A*1F
$IIMWV,043,T,14.1,N,A*16
$IIRMC,100417,A,5408.429,N,01328.891,E,05.4,032,050821,03,E,A*0C
$IIGLL,5408.429,N,01328.891,E,100417,A,A*5D
$IIMWV,032,R,18.2,N,A*19
$IIMWV,042,T,14.4,N,A*12
$IIRMC,100418,A,5408.430,N,01328.892,E,05.3,031,050821,03,E,A*0C
$IIGLL,5408.430,N,01328.892,E,100418,A,A*59
$IIMWV,032,R,18.3,N,A*18
$IIMWV,044,T,13.8,N,A*1F
$IIRMC,100419,A,5408.431,N,01328.894,E,05.2,029,050821,03,E,A*02
$IIGLL,5408.431,N,01328.894,E,100419,A,A*5F
$IIMWV,032,R,18.1,N,A*1A
$IIMWV,043,T,14.0,N,A*17
$IIRMC,100420,A,5408.432,N,01328.895,E,05.1,026,050821,03,E,A*06
$IIGLL,5408.432,N,01328.895,E,100420,A,A*57
$IIMWV,032,R,18.1,N,A*1A
$IIMWV,043,T,13.8,N,A*18
$IIRMC,100421,A,5408.433,N,01328.896,E,05.0,025,050821,03,E,A*07
$IIGLL,5408.433,N,01328.896,E,100421,A,A*54
$IIMWV,033,R,18.3,N,A*19
$IIMWV,043,T,13.9,N,A*19
$IIRMC,100422,A,5408.435,N,01328.897,E,05.0,024,050821,03,E,A*02
$IIGLL,5408.435,N,01328.897,E,100422,A,A*50
$IIMWV,033,R,18.1,N,A*1B
$IIMWV,044,T,14.2,N,A*12
$IIRMC,100423,A,5408.436,N,01328.898,E,04.9,025,050821,03,E,A*06
$IIGLL,5408.436,N,01328.898,E,100423,A,A*5D
$IIMWV,033,R,18.0,N,A*1A
$IIMWV,044,T,14.0,N,A*10
$IIRMC,100424,A,5408.437,N,01328.899,E,04.8,027,050821,03,E,A*02
$IIGLL,5408.437,N,01328.899,E,100424,A,A*5A
$IIMWV,032,R,17.6,N,A*12
$IIMWV,044,T,14.0,N,A*10
$IIRMC,100425,A,5408.438,N,01328.900,E,04.8,025,050821,03,E,A*0F
$IIGLL,5408.438,N,01328.900,E,100425,A,A*55
$IIMWV,032,R,17.9,N,A*1D
$IIMWV,043,T,13.7,N,A*17
$IIRMC,100426,A,5408.439,N,01328.901,E,04.6,025,050821,03,E,A*02
$IIGLL,5408.439,N,01328.901,E,100426,A,A*56
$IIMWV,032,R,17.6,N,A*12
$IIMWV,042,T,14.0,N,A*16
$IIRMC,100427,A,5408.439,N,01328.902,E,04.6,025,050821,03,E,A*00
$IIGLL,5408.439,N,01328.902,E,100427,A,A*54
$IIMWV,030,R,18.0,N,A*19
$IIMWV,042,T,13.8,N,A*19
$IIRMC,100428,A,5408.441,N,01328.903,E,04.5,022,050821,03,E,A*05
$IIGLL,5408.441,N,01328.903,E,100428,A,A*55
$IIMWV,033,R,17.6,N,A*13
$IIMWV,039,T,14.2,N,A*18
$IIRMC,100429,A,5408.442,N,01328.903,E,04.2,024,050821,03,E,A*06
$IIGLL,5408.442,N,01328.903,E,100429,A,A*57
$IIMWV,033,R,17.9,N,A*1C
$IIMWV,043,T,13.9,N,A*19
$IIRMC,100430,A,5408.443,N,01328.904,E,04.2,024,050821,03,E,A*08
$IIGLL,5408.443,N,01328.904,E,100430,A,A*59
$IIMWV,032,R,17.9,N,A*1D
$IIMWV,042,T,14.4,N,A*12
$IIRMC,100431,A,5408.444,N,01328.905,E,04.1,026,050821,03,E,A*0E
$IIGLL,5408.444,N,01328.905,E,100431,A,A*5E
$IIMWV,032,R,17.6,N,A*12
$IIMWV,041,T,14.4,N,A*11
$IIRMC,100432,A,5408.444,N,01328.905,E,04.1,026,050821,03,E,A*0D
$IIGLL,5408.444,N,01328.905,E,100432,A,A*5D
$IIMWV,033,R,18.0,N,A*1A
$IIMWV,041,T,14.2,N,A*17
$IIRMC,100433,A,5408.445,N,01328.906,E,04.1,027,050821,03,E,A*0F
$IIGLL,5408.445,N,01328.906,E,100433,A,A*5E
$IIMWV,034,R,17.0,N,A*12
$IIMWV,041,T,14.6,N,A*13
$IIRMC,100434,A,5408.446,N,01328.907,E,04.1,025,050821,03,E,A*08
$IIGLL,5408.446,N,01328.907,E,100434,A,A*5B
$IIMWV,037,R,17.6,N,A*17
$IIMWV,044,T,13.7,N,A*10
$IIRMC,100435,A,5408.447,N,01328.908,E,04.1,021,050821,03,E,A*03
$IIGLL,5408.447,N,01328.908,E,100435,A,A*54
$IIMWV,040,R,16.8,N,A*18
$IIMWV,047,T,14.4,N,A*17
$IIRMC,100436,A,5408.448,N,01328.908,E,04.1,020,050821,03,E,A*0E
$IIGLL,5408.448,N,01328.908,E,100436,A,A*58
$IIMWV,040,R,16.8,N,A*18
$IIMWV,051,T,13.8,N,A*1B
$IIRMC,100437,A,5408.449,N,01328.909,E,04.2,015,050821,03,E,A*0A
$IIGLL,5408.449,N,01328.909,E,100437,A,A*59
$IIMWV,045,R,16.2,N,A*17
$IIMWV,051,T,13.8,N,A*1B
$IIRMC,100438,A,5408.450,N,01328.909,E,04.4,014,050821,03,E,A*0A
$IIGLL,5408.452,N,01328.910,E,100439,A,A*55
$IIMWV,047,R,16.3,N,A*14
$IIMWV,060,T,13.3,N,A*12
$IIRMC,100439,A,5408.452,N,01328.910,E,04.6,009,050821,03,E,A*0F
$IIGLL,5408.453,N,01328.910,E,100440,A,A*5A
$IIMWV,046,R,15.9,N,A*1C
$IIMWV,061,T,13.4,N,A*14
$IIRMC,100440,A,5408.453,N,01328.910,E,04.5,008,050821,03,E,A*02
$IIGLL,5408.454,N,01328.910,E,100441,A,A*5C
$IIMWV,044,R,16.1,N,A*15
$IIMWV,061,T,13.0,N,A*10
$IIRMC,100441,A,5408.454,N,01328.910,E,04.6,007,050821,03,E,A*08
$IIGLL,5408.455,N,01328.910,E,100442,A,A*5E
$IIMWV,044,R,16.1,N,A*15
$IIMWV,058,T,13.0,N,A*1A
$IIRMC,100442,A,5408.455,N,01328.910,E,04.6,006,050821,03,E,A*0B
$IIGLL,5408.456,N,01328.911,E,100443,A,A*5D
$IIMWV,043,R,16.3,N,A*10
$IIMWV,058,T,13.0,N,A*1A
$IIRMC,100443,A,5408.456,N,01328.911,E,04.6,007,050821,03,E,A*09
$IIGLL,5408.457,N,01328.911,E,100444,A,A*5B
$IIMWV,042,R,16.6,N,A*14
$IIMWV,057,T,13.1,N,A*14
$IIRMC,100444,A,5408.457,N,01328.911,E,04.8,011,050821,03,E,A*06
$IIGLL,5408.459,N,01328.912,E,100445,A,A*57
$IIMWV,041,R,16.6,N,A*17
$IIMWV,056,T,13.3,N,A*17
$IIRMC,100445,A,5408.459,N,01328.912,E,04.8,013,050821,03,E,A*08
$IIGLL,5408.459,N,01328.912,E,100446,A,A*54
$IIMWV,041,R,16.8,N,A*19
$IIMWV,055,T,13.2,N,A*15
$IIRMC,100446,A,5408.459,N,01328.912,E,04.9,015,050821,03,E,A*0C
$IIGLL,5408.461,N,01328.913,E,100447,A,A*5F
$IIMWV,040,R,16.5,N,A*15
$IIMWV,055,T,13.4,N,A*13
$IIRMC,100447,A,5408.461,N,01328.913,E,05.1,018,050821,03,E,A*03
$IIGLL,5408.462,N,01328.913,E,100448,A,A*53
$IIMWV,040,R,16.5,N,A*15
$IIMWV,054,T,12.9,N,A*1E
$IIRMC,100448,A,5408.462,N,01328.913,E,05.0,018,050821,03,E,A*0E
$IIGLL,5408.463,N,01328.914,E,100449,A,A*54
$IIMWV,040,R,16.3,N,A*13
$IIMWV,054,T,13.0,N,A*16
$IIRMC,100449,A,5408.463,N,01328.914,E,05.1,019,050821,03,E,A*09
$IIGLL,5408.464,N,01328.915,E,100450,A,A*5A
$IIMWV,040,R,16.5,N,A*15
$IIMWV,055,T,12.7,N,A*11
$IIRMC,100450,A,5408.464,N,01328.915,E,05.2,019,050821,03,E,A*04
$IIGLL,5408.466,N,01328.915,E,100451,A,A*59
$IIMWV,041,R,16.0,N,A*11
$IIMWV,054,T,12.9,N,A*1E
$IIRMC,100451,A,5408.466,N,01328.915,E,05.1,017,050821,03,E,A*0A
$IIGLL,5408.467,N,01328.916,E,100452,A,A*58
$IIMWV,043,R,15.8,N,A*18
$IIMWV,057,T,12.5,N,A*11
$IIRMC,100452,A,5408.467,N,01328.916,E,05.1,016,050821,03,E,A*0A
$IIGLL,5408.469,N,01328.917,E,100453,A,A*56
$IIMWV,045,R,16.2,N,A*17
$IIMWV,059,T,12.4,N,A*1E
$IIRMC,100453,A,5408.469,N,01328.917,E,05.6,016,050821,03,E,A*03
$IIGLL,5408.471,N,01328.917,E,100454,A,A*58
$IIMWV,045,R,16.1,N,A*14
$IIMWV,063,T,12.9,N,A*1A
$IIRMC,100454,A,5408.471,N,01328.917,E,05.2,011,050821,03,E,A*0E
$IIGLL,5408.471,N,01328.917,E,100454,A,A*58
$IIMWV,050,R,15.6,N,A*14
$IIMWV,061,T,12.9,N,A*18
$IIRMC,100454,A,5408.471,N,01328.917,E,05.2,011,050821,03,E,A*0E
$IIGLL,5408.475,N,01328.919,E,100456,A,A*50
$IIMWV,053,R,15.3,N,A*12
$IIMWV,069,T,12.8,N,A*11
$IIRMC,100456,A,5408.475,N,01328.919,E,05.3,011,050821,03,E,A*07
$IIGLL,5408.476,N,01328.919,E,100457,A,A*52
$IIMWV,058,R,15.5,N,A*1F
$IIMWV,073,T,12.7,N,A*15
$IIRMC,100457,A,5408.476,N,01328.919,E,05.3,007,050821,03,E,A*02
$IIGLL,5408.477,N,01328.920,E,100458,A,A*56
$IIMWV,056,R,15.3,N,A*17
$IIMWV,078,T,13.4,N,A*1C
$IIRMC,100458,A,5408.477,N,01328.920,E,05.5,003,050821,03,E,A*04
$IIGLL,5408.479,N,01328.919,E,100459,A,A*53
$IIMWV,053,R,15.5,N,A*14
$IIMWV,077,T,12.9,N,A*1F
$IIRMC,100500,A,5408.481,N,01328.919,E,05.2,350,050821,03,E,A*09
$IIGLL,5408.481,N,01328.919,E,100500,A,A*59
$IIMWV,054,R,15.3,N,A*15
$IIMWV,073,T,12.9,N,A*1B
$IIRMC,100501,A,5408.482,N,01328.919,E,05.3,358,050821,03,E,A*02
$IIGLL,5408.482,N,01328.919,E,100501,A,A*5B
$IIMWV,048,R,16.0,N,A*18
$IIMWV,073,T,12.8,N,A*1A
$IIRMC,100502,A,5408.484,N,01328.919,E,05.3,358,050821,03,E,A*07
$IIGLL,5408.484,N,01328.919,E,100502,A,A*5E
$IIMWV,049,R,15.6,N,A*1C
$IIMWV,065,T,12.9,N,A*1C
$IIRMC,100503,A,5408.486,N,01328.920,E,05.1,004,050821,03,E,A*06
$IIGLL,5408.486,N,01328.920,E,100503,A,A*57
$IIMWV,049,R,16.0,N,A*19
$IIMWV,067,T,12.6,N,A*11
$IIRMC,100504,A,5408.487,N,01328.920,E,05.2,007,050821,03,E,A*00
$IIGLL,5408.487,N,01328.920,E,100504,A,A*51
$IIMWV,047,R,16.3,N,A*14
$IIMWV,066,T,13.1,N,A*16
$IIRMC,100505,A,5408.489,N,01328.921,E,05.1,009,050821,03,E,A*03
$IIGLL,5408.489,N,01328.921,E,100505,A,A*5F
$IIMWV,047,R,16.5,N,A*12
$IIMWV,064,T,13.1,N,A*14
$IIRMC,100506,A,5408.490,N,01328.921,E,05.3,010,050821,03,E,A*02
$IIGLL,5408.490,N,01328.921,E,100506,A,A*54
$IIMWV,046,R,16.7,N,A*11
$IIMWV,063,T,13.4,N,A*16
$IIRMC,100507,A,5408.492,N,01328.922,E,05.7,012,050821,03,E,A*04
$IIGLL,5408.492,N,01328.922,E,100507,A,A*54
$IIMWV,045,R,16.4,N,A*11
$IIMWV,063,T,13.5,N,A*17
$IIRMC,100508,A,5408.494,N,01328.923,E,05.8,012,050821,03,E,A*03
$IIGLL,5408.494,N,01328.923,E,100508,A,A*5C
$IIMWV,044,R,16.5,N,A*11
$IIMWV,063,T,13.0,N,A*12
$IIRMC,100509,A,5408.495,N,01328.923,E,05.7,011,050821,03,E,A*0F
$IIGLL,5408.495,N,01328.923,E,100509,A,A*5C
$IIMWV,043,R,16.0,N,A*13
$IIMWV,062,T,12.7,N,A*15
$IIRMC,100510,A,5408.497,N,01328.924,E,05.4,010,050821,03,E,A*00
$IIGLL,5408.497,N,01328.924,E,100510,A,A*51
$IIMWV,043,R,16.6,N,A*15
$IIMWV,061,T,12.3,N,A*12
$IIRMC,100511,A,5408.498,N,01328.924,E,05.4,009,050821,03,E,A*06
$IIGLL,5408.498,N,01328.924,E,100511,A,A*5F
$IIMWV,043,R,16.0,N,A*13
$IIMWV,059,T,13.0,N,A*1B
$IIRMC,100512,A,5408.499,N,01328.925,E,05.5,011,050821,03,E,A*0D
$IIGLL,5408.499,N,01328.925,E,100512,A,A*5C
$IIMWV,042,R,16.8,N,A*1A
$IIMWV,060,T,12.4,N,A*14
$IIRMC,100513,A,5408.501,N,01328.925,E,05.4,012,050821,03,E,A*0E
$IIGLL,5408.501,N,01328.925,E,100513,A,A*5D
$IIMWV,043,R,16.3,N,A*10
$IIMWV,058,T,13.1,N,A*1B
$IIRMC,100514,A,5408.503,N,01328.927,E,05.4,016,050821,03,E,A*0D
$IIGLL,5408.503,N,01328.927,E,100514,A,A*5A
$IIMWV,041,R,16.7,N,A*16
$IIMWV,060,T,12.7,N,A*17
$IIRMC,100515,A,5408.505,N,01328.927,E,05.5,014,050821,03,E,A*09
$IIGLL,5408.505,N,01328.927,E,100515,A,A*5D
$IIMWV,042,R,16.2,N,A*10
$IIMWV,057,T,13.0,N,A*15
$IIRMC,100516,A,5408.506,N,01328.928,E,05.3,015,050821,03,E,A*01
$IIGLL,5408.506,N,01328.928,E,100516,A,A*52
$IIMWV,042,R,16.4,N,A*16
$IIMWV,059,T,12.5,N,A*1F
$IIRMC,100517,A,5408.507,N,01328.929,E,05.4,012,050821,03,E,A*00
$IIGLL,5408.507,N,01328.929,E,100517,A,A*53
$IIMWV,043,R,16.5,N,A*16
$IIMWV,058,T,12.8,N,A*13
$IIRMC,100518,A,5408.509,N,01328.929,E,05.3,012,050821,03,E,A*06
$IIGLL,5408.509,N,01328.929,E,100518,A,A*52
$IIMWV,041,R,16.3,N,A*12
$IIMWV,059,T,13.0,N,A*1B
$IIRMC,100519,A,5408.511,N,01328.930,E,05.3,008,050821,03,E,A*0D
$IIGLL,5408.511,N,01328.930,E,100519,A,A*52
$IIMWV,042,R,16.2,N,A*10
$IIMWV,057,T,12.7,N,A*13
$IIRMC,100520,A,5408.512,N,01328.930,E,05.1,011,050821,03,E,A*0E
$IIGLL,5408.513,N,01328.930,E,100521,A,A*5B
$IIMWV,041,R,16.3,N,A*12
$IIMWV,055,T,12.7,N,A*11
$IIRMC,100521,A,5408.513,N,01328.930,E,05.1,011,050821,03,E,A*0E
$IIGLL,5408.515,N,01328.931,E,100522,A,A*5F
$IIMWV,039,R,16.6,N,A*18
$IIMWV,057,T,12.8,N,A*1C
$IIRMC,100522,A,5408.515,N,01328.931,E,05.2,014,050821,03,E,A*0C
$IIGLL,5408.516,N,01328.932,E,100523,A,A*5E
$IIMWV,041,R,16.0,N,A*11
$IIMWV,053,T,12.9,N,A*19
$IIRMC,100523,A,5408.516,N,01328.932,E,05.3,016,050821,03,E,A*0E
$IIGLL,5408.518,N,01328.933,E,100524,A,A*56
$IIMWV,041,R,16.2,N,A*13
$IIMWV,057,T,12.4,N,A*10
$IIRMC,100524,A,5408.518,N,01328.933,E,05.2,018,050821,03,E,A*09
$IIGLL,5408.519,N,01328.933,E,100525,A,A*56
$IIMWV,043,R,16.1,N,A*12
$IIMWV,057,T,12.6,N,A*12
$IIRMC,100525,A,5408.519,N,01328.933,E,05.3,014,050821,03,E,A*04
$IIGLL,5408.519,N,01328.933,E,100526,A,A*55
$IIMWV,042,R,16.2,N,A*10
$IIMWV,059,T,12.6,N,A*1C
$IIRMC,100526,A,5408.519,N,01328.933,E,05.3,014,050821,03,E,A*07
$IIGLL,5408.521,N,01328.934,E,100527,A,A*58
$IIMWV,044,R,16.0,N,A*14
$IIMWV,058,T,12.6,N,A*1D
$IIRMC,100527,A,5408.521,N,01328.934,E,05.4,009,050821,03,E,A*01
$IIGLL,5408.522,N,01328.934,E,100528,A,A*54
$IIMWV,043,R,16.1,N,A*12
$IIMWV,061,T,12.5,N,A*14
$IIRMC,100528,A,5408.522,N,01328.934,E,05.5,010,050821,03,E,A*04
$IIGLL,5408.523,N,01328.934,E,100529,A,A*54
$IIMWV,043,R,16.3,N,A*10
$IIMWV,060,T,12.5,N,A*15
$IIRMC,100529,A,5408.523,N,01328.934,E,05.6,007,050821,03,E,A*01
$IIGLL,5408.524,N,01328.934,E,100530,A,A*5B
$IIMWV,042,R,16.4,N,A*16
$IIMWV,060,T,12.6,N,A*16
$IIRMC,100530,A,5408.524,N,01328.934,E,05.5,009,050821,03,E,A*03
$IIGLL,5408.525,N,01328.935,E,100531,A,A*5A
$IIMWV,042,R,16.5,N,A*17
$IIMWV,059,T,12.7,N,A*1D
$IIRMC,100531,A,5408.525,N,01328.935,E,05.4,010,050821,03,E,A*0B
$IIGLL,5408.526,N,01328.935,E,100532,A,A*5A
$IIMWV,041,R,16.6,N,A*17
$IIMWV,058,T,12.9,N,A*12
$IIRMC,100532,A,5408.526,N,01328.935,E,05.7,014,050821,03,E,A*0C
$IIGLL,5408.528,N,01328.936,E,100533,A,A*56
$IIMWV,041,R,17.0,N,A*10
$IIMWV,058,T,12.7,N,A*1C
$IIRMC,100533,A,5408.528,N,01328.936,E,05.6,016,050821,03,E,A*03
$IIGLL,5408.529,N,01328.936,E,100534,A,A*50
$IIMWV,041,R,16.8,N,A*19
$IIMWV,057,T,13.2,N,A*17
$IIRMC,100534,A,5408.529,N,01328.936,E,05.4,016,050821,03,E,A*07
$IIGLL,5408.530,N,01328.937,E,100535,A,A*58
$IIMWV,042,R,17.0,N,A*13
$IIMWV,057,T,13.1,N,A*14
$IIRMC,100535,A,5408.530,N,01328.937,E,05.2,020,050821,03,E,A*0C
$IIGLL,5408.532,N,01328.938,E,100536,A,A*56
$IIMWV,043,R,16.4,N,A*17
$IIMWV,057,T,13.4,N,A*11
$IIRMC,100536,A,5408.532,N,01328.938,E,05.3,019,050821,03,E,A*09
$IIGLL,5408.534,N,01328.939,E,100537,A,A*50
$IIMWV,043,R,16.4,N,A*17
$IIMWV,059,T,12.9,N,A*13
$IIRMC,100537,A,5408.534,N,01328.939,E,05.1,020,050821,03,E,A*07
$IIGLL,5408.535,N,01328.939,E,100538,A,A*5E
$IIMWV,046,R,16.0,N,A*16
$IIMWV,058,T,13.0,N,A*1A
$IIRMC,100538,A,5408.535,N,01328.939,E,05.3,014,050821,03,E,A*0C
$IIGLL,5408.537,N,01328.940,E,100539,A,A*53
$IIMWV,044,R,16.1,N,A*15
$IIMWV,064,T,12.8,N,A*1C
$IIRMC,100539,A,5408.537,N,01328.940,E,05.4,011,050821,03,E,A*03
$IIGLL,5408.537,N,01328.940,E,100539,A,A*53
$IIMWV,044,R,15.9,N,A*1E
$IIMWV,061,T,12.6,N,A*17
$IIRMC,100539,A,5408.537,N,01328.940,E,05.4,011,050821,03,E,A*03
$IIGLL,5408.540,N,01328.940,E,100541,A,A*5C
$IIMWV,042,R,16.4,N,A*16
$IIMWV,061,T,12.4,N,A*15
$IIRMC,100541,A,5408.540,N,01328.940,E,05.1,009,050821,03,E,A*00
$IIGLL,5408.540,N,01328.940,E,100542,A,A*5F
$IIMWV,042,R,16.9,N,A*1B
$IIMWV,057,T,12.9,N,A*1D
$IIRMC,100542,A,5408.540,N,01328.940,E,05.3,010,050821,03,E,A*09
$IIGLL,5408.542,N,01328.941,E,100543,A,A*5D
$IIMWV,040,R,16.9,N,A*19
$IIMWV,057,T,13.3,N,A*16
$IIRMC,100543,A,5408.542,N,01328.941,E,05.1,014,050821,03,E,A*0D
$IIGLL,5408.543,N,01328.941,E,100544,A,A*5B
$IIMWV,040,R,17.3,N,A*12
$IIMWV,054,T,13.3,N,A*15
$IIRMC,100544,A,5408.543,N,01328.941,E,05.0,019,050821,03,E,A*07
$IIGLL,5408.545,N,01328.942,E,100545,A,A*5F
$IIMWV,039,R,17.0,N,A*1F
$IIMWV,053,T,13.7,N,A*16
$IIRMC,100545,A,5408.545,N,01328.942,E,05.1,020,050821,03,E,A*08
$IIGLL,5408.546,N,01328.943,E,100546,A,A*5E
$IIMWV,038,R,17.5,N,A*1B
$IIMWV,053,T,13.4,N,A*15
$IIRMC,100546,A,5408.546,N,01328.943,E,05.0,022,050821,03,E,A*0A
$IIGLL,5408.547,N,01328.944,E,100547,A,A*59
$IIMWV,038,R,17.4,N,A*1A
$IIMWV,051,T,13.9,N,A*1A
$IIRMC,100547,A,5408.547,N,01328.944,E,05.0,020,050821,03,E,A*0F
$IIGLL,5408.549,N,01328.945,E,100548,A,A*59
$IIMWV,039,R,17.7,N,A*18
$IIMWV,051,T,13.7,N,A*14
$IIRMC,100548,A,5408.549,N,01328.945,E,04.9,018,050821,03,E,A*0C
$IIGLL,5408.550,N,01328.946,E,100549,A,A*53
$IIMWV,039,R,17.9,N,A*16
$IIMWV,051,T,14.2,N,A*16
$IIRMC,100549,A,5408.550,N,01328.946,E,04.9,014,050821,03,E,A*0A
$IIGLL,5408.552,N,01328.946,E,100550,A,A*59
$IIMWV,037,R,18.0,N,A*1E
$IIMWV,051,T,14.3,N,A*17
$IIRMC,100550,A,5408.552,N,01328.946,E,04.8,014,050821,03,E,A*01
$IIGLL,5408.553,N,01328.947,E,100551,A,A*58
$IIMWV,038,R,17.8,N,A*16
$IIMWV,048,T,14.4,N,A*18
$IIRMC,100551,A,5408.553,N,01328.947,E,04.7,014,050821,03,E,A*0F
$IIGLL,5408.554,N,01328.947,E,100552,A,A*5C
$IIMWV,037,R,18.4,N,A*1A
$IIMWV,050,T,14.4,N,A*11
$IIRMC,100552,A,5408.554,N,01328.947,E,04.7,016,050821,03,E,A*09
$IIGLL,5408.556,N,01328.948,E,100553,A,A*50
$IIMWV,041,R,17.9,N,A*19
$IIMWV,048,T,14.8,N,A*14
$IIRMC,100553,A,5408.556,N,01328.948,E,04.7,014,050821,03,E,A*07
$IIGLL,5408.556,N,01328.948,E,100553,A,A*50
$IIMWV,040,R,18.2,N,A*1C
$IIMWV,053,T,14.6,N,A*10
$IIRMC,100553,A,5408.556,N,01328.948,E,04.7,014,050821,03,E,A*07
$IIGLL,5408.556,N,01328.948,E,100553,A,A*50
$IIMWV,043,R,18.0,N,A*1D
$IIMWV,051,T,14.8,N,A*1C
$IIRMC,100553,A,5408.556,N,01328.948,E,04.7,014,050821,03,E,A*07
$IIGLL,5408.559,N,01328.950,E,100556,A,A*53
$IIMWV,041,R,18.0,N,A*1F
$IIMWV,056,T,14.8,N,A*1B
$IIRMC,100556,A,5408.559,N,01328.950,E,04.3,010,050821,03,E,A*04
$IIGLL,5408.560,N,01328.950,E,100557,A,A*58
$IIMWV,044,R,18.1,N,A*1B
$IIMWV,052,T,14.9,N,A*1E
$IIRMC,100557,A,5408.560,N,01328.950,E,04.3,011,050821,03,E,A*0E
$IIGLL,5408.561,N,01328.950,E,100558,A,A*56
$IIMWV,042,R,17.7,N,A*14
$IIMWV,055,T,15.1,N,A*10
$IIRMC,100558,A,5408.561,N,01328.950,E,04.2,013,050821,03,E,A*03
$IIGLL,5408.562,N,01328.951,E,100559,A,A*55
$IIMWV,046,R,17.6,N,A*11
$IIMWV,053,T,14.7,N,A*11
$IIRMC,100559,A,5408.562,N,01328.951,E,04.2,011,050821,03,E,A*02
$IIGLL,5408.563,N,01328.951,E,100600,A,A*5B
$IIMWV,044,R,17.2,N,A*17
$IIMWV,058,T,14.8,N,A*15
$IIRMC,100600,A,5408.563,N,01328.951,E,04.3,010,050821,03,E,A*0C
$IIGLL,5408.565,N,01328.952,E,100601,A,A*5F
$IIMWV,045,R,17.3,N,A*17
$IIMWV,056,T,14.2,N,A*11
$IIRMC,100601,A,5408.565,N,01328.952,E,04.2,011,050821,03,E,A*08
$IIGLL,5408.566,N,01328.953,E,100602,A,A*5E
$IIMWV,044,R,16.8,N,A*1C
$IIMWV,057,T,14.5,N,A*17
$IIRMC,100602,A,5408.566,N,01328.953,E,04.3,010,050821,03,E,A*09
$IIGLL,5408.567,N,01328.953,E,100603,A,A*5E
$IIMWV,043,R,17.2,N,A*10
$IIMWV,056,T,13.8,N,A*1C
$IIRMC,100603,A,5408.567,N,01328.953,E,04.3,012,050821,03,E,A*0B
$IIGLL,5408.568,N,01328.953,E,100604,A,A*56
$IIMWV,042,R,17.0,N,A*13
$IIMWV,055,T,14.2,N,A*12
$IIRMC,100604,A,5408.568,N,01328.953,E,04.4,012,050821,03,E,A*04
$IIGLL,5408.569,N,01328.954,E,100605,A,A*51
$IIMWV,042,R,17.3,N,A*10
$IIMWV,054,T,13.9,N,A*1F
$IIRMC,100605,A,5408.569,N,01328.954,E,04.3,018,050821,03,E,A*0E
$IIGLL,5408.570,N,01328.955,E,100606,A,A*5B
$IIMWV,041,R,16.8,N,A*19
$IIMWV,053,T,14.3,N,A*15
$IIRMC,100606,A,5408.570,N,01328.955,E,04.4,018,050821,03,E,A*03
$IIGLL,5408.572,N,01328.955,E,100607,A,A*58
$IIMWV,042,R,17.0,N,A*13
$IIMWV,053,T,13.7,N,A*16
$IIRMC,100607,A,5408.572,N,01328.955,E,04.5,021,050821,03,E,A*0B
$IIGLL,5408.573,N,01328.956,E,100608,A,A*55
$IIMWV,042,R,16.4,N,A*16
$IIMWV,055,T,13.8,N,A*1F
$IIRMC,100608,A,5408.573,N,01328.956,E,04.6,021,050821,03,E,A*05
$IIGLL,5408.574,N,01328.957,E,100609,A,A*52
$IIMWV,044,R,16.6,N,A*12
$IIMWV,056,T,13.2,N,A*16
$IIRMC,100609,A,5408.574,N,01328.957,E,04.5,020,050821,03,E,A*00
$IIGLL,5408.576,N,01328.958,E,100610,A,A*57
$IIMWV,042,R,16.5,N,A*17
$IIMWV,057,T,13.5,N,A*10
$IIRMC,100610,A,5408.576,N,01328.958,E,04.6,017,050821,03,E,A*02
$IIGLL,5408.577,N,01328.958,E,100611,A,A*57
$IIMWV,042,R,16.5,N,A*17
$IIMWV,055,T,13.3,N,A*14
$IIRMC,100611,A,5408.577,N,01328.958,E,04.5,016,050821,03,E,A*00
$IIGLL,5408.578,N,01328.958,E,100612,A,A*5B
$IIMWV,041,R,16.4,N,A*15
$IIMWV,055,T,13.4,N,A*13
$IIRMC,100612,A,5408.578,N,01328.958,E,04.6,017,050821,03,E,A*0E
$IIGLL,5408.579,N,01328.959,E,100613,A,A*5A
$IIMWV,040,R,16.5,N,A*15
$IIMWV,054,T,13.2,N,A*14
$IIRMC,100613,A,5408.579,N,01328.959,E,04.7,019,050821,03,E,A*00
$IIGLL,5408.580,N,01328.960,E,100614,A,A*51
$IIMWV,039,R,16.1,N,A*1F
$IIMWV,053,T,13.2,N,A*13
$IIRMC,100614,A,5408.580,N,01328.960,E,04.6,022,050821,03,E,A*02
$IIGLL,5408.581,N,01328.961,E,100615,A,A*50
$IIMWV,037,R,15.9,N,A*1A
$IIMWV,052,T,12.8,N,A*19
$IIRMC,100615,A,5408.581,N,01328.961,E,04.7,023,050821,03,E,A*03
$IIGLL,5408.582,N,01328.962,E,100616,A,A*53
$IIMWV,038,R,15.4,N,A*18
$IIMWV,050,T,12.4,N,A*17
$IIRMC,100616,A,5408.582,N,01328.962,E,04.7,024,050821,03,E,A*07
$IIGLL,5408.583,N,01328.963,E,100617,A,A*52
$IIMWV,037,R,15.0,N,A*13
$IIMWV,052,T,12.0,N,A*11
$IIRMC,100617,A,5408.583,N,01328.963,E,04.8,023,050821,03,E,A*0E
$IIGLL,5408.585,N,01328.964,E,100618,A,A*5C
$IIMWV,039,R,15.3,N,A*1E
$IIMWV,051,T,11.5,N,A*14
$IIRMC,100618,A,5408.585,N,01328.964,E,04.8,023,050821,03,E,A*00
$IIGLL,5408.586,N,01328.964,E,100619,A,A*5E
$IIMWV,037,R,15.5,N,A*16
$IIMWV,053,T,11.9,N,A*1A
$IIRMC,100619,A,5408.586,N,01328.964,E,04.9,023,050821,03,E,A*03
$IIGLL,5408.587,N,01328.965,E,100620,A,A*54
$IIMWV,038,R,15.4,N,A*18
$IIMWV,051,T,11.9,N,A*18
$IIRMC,100620,A,5408.587,N,01328.965,E,04.8,022,050821,03,E,A*09
$IIGLL,5408.588,N,01328.966,E,100621,A,A*59
$IIMWV,037,R,15.7,N,A*14
$IIMWV,052,T,11.9,N,A*1B
$IIRMC,100621,A,5408.588,N,01328.966,E,04.8,025,050821,03,E,A*03
$IIGLL,5408.589,N,01328.968,E,100622,A,A*55
$IIMWV,037,R,15.8,N,A*1B
$IIMWV,051,T,12.1,N,A*13
$IIRMC,100622,A,5408.589,N,01328.968,E,04.8,024,050821,03,E,A*0E
$IIGLL,5408.590,N,01328.968,E,100623,A,A*5C
$IIMWV,036,R,16.1,N,A*10
$IIMWV,050,T,12.2,N,A*11
$IIRMC,100623,A,5408.590,N,01328.968,E,04.8,025,050821,03,E,A*06
$IIGLL,5408.591,N,01328.969,E,100624,A,A*5B
$IIMWV,036,R,16.1,N,A*10
$IIMWV,049,T,12.4,N,A*1F
$IIRMC,100624,A,5408.591,N,01328.969,E,04.7,025,050821,03,E,A*0E
$IIGLL,5408.593,N,01328.970,E,100625,A,A*50
$IIMWV,035,R,16.2,N,A*10
$IIMWV,049,T,12.5,N,A*1E
$IIRMC,100625,A,5408.593,N,01328.970,E,04.7,026,050821,03,E,A*06
$IIGLL,5408.593,N,01328.970,E,100625,A,A*50
$IIMWV,034,R,15.7,N,A*17
$IIMWV,047,T,12.5,N,A*10
$IIRMC,100625,A,5408.593,N,01328.970,E,04.7,026,050821,03,E,A*06
$IIGLL,5408.595,N,01328.972,E,100627,A,A*56
$IIMWV,035,R,15.4,N,A*15
$IIMWV,046,T,12.0,N,A*14
$IIRMC,100627,A,5408.595,N,01328.972,E,04.7,023,050821,03,E,A*05
$IIGLL,5408.596,N,01328.973,E,100628,A,A*5B
$IIMWV,035,R,15.3,N,A*12
$IIMWV,048,T,11.7,N,A*1E
$IIRMC,100628,A,5408.596,N,01328.973,E,04.9,021,050821,03,E,A*04
$IIGLL,5408.597,N,01328.973,E,100629,A,A*5B
$IIMWV,036,R,15.5,N,A*17
$IIMWV,049,T,11.5,N,A*1D
$IIRMC,100629,A,5408.597,N,01328.973,E,04.9,019,050821,03,E,A*0F
$IIGLL,5408.598,N,01328.974,E,100630,A,A*5B
$IIMWV,037,R,15.1,N,A*12
$IIMWV,050,T,11.8,N,A*18
$IIRMC,100630,A,5408.598,N,01328.974,E,04.9,018,050821,03,E,A*0E
$IIGLL,5408.599,N,01328.974,E,100631,A,A*5B
$IIMWV,036,R,15.3,N,A*11
$IIMWV,052,T,11.4,N,A*16
$IIRMC,100631,A,5408.599,N,01328.974,E,05.0,019,050821,03,E,A*07
$IIGLL,5408.600,N,01328.975,E,100632,A,A*5A
$IIMWV,035,R,14.7,N,A*17
$IIMWV,051,T,11.5,N,A*14
$IIRMC,100632,A,5408.600,N,01328.975,E,04.9,019,050821,03,E,A*0E
$IIGLL,5408.601,N,01328.976,E,100633,A,A*59
$IIMWV,037,R,15.0,N,A*13
$IIMWV,049,T,10.9,N,A*10
$IIRMC,100633,A,5408.601,N,01328.976,E,04.9,021,050821,03,E,A*06
$IIGLL,5408.603,N,01328.977,E,100634,A,A*5D
$IIMWV,035,R,15.0,N,A*11
$IIMWV,052,T,11.4,N,A*16
$IIRMC,100634,A,5408.603,N,01328.977,E,05.1,020,050821,03,E,A*0A
$IIGLL,5408.604,N,01328.978,E,100635,A,A*54
$IIMWV,035,R,15.2,N,A*13
$IIMWV,050,T,11.1,N,A*11
$IIRMC,100635,A,5408.604,N,01328.978,E,04.9,021,050821,03,E,A*0B
$IIGLL,5408.606,N,01328.979,E,100636,A,A*54
$IIMWV,034,R,15.7,N,A*17
$IIMWV,049,T,11.4,N,A*1C
$IIRMC,100636,A,5408.606,N,01328.979,E,04.7,021,050821,03,E,A*05
$IIGLL,5408.607,N,01328.979,E,100637,A,A*54
$IIMWV,035,R,15.8,N,A*19
$IIMWV,046,T,12.0,N,A*14
$IIRMC,100637,A,5408.607,N,01328.979,E,04.7,020,050821,03,E,A*04
$IIGLL,5408.609,N,01328.980,E,100638,A,A*53
$IIMWV,034,R,16.1,N,A*12
$IIMWV,048,T,12.1,N,A*1B
$IIRMC,100638,A,5408.609,N,01328.980,E,04.6,019,050821,03,E,A*08
$IIGLL,5408.610,N,01328.981,E,100639,A,A*5B
$IIMWV,035,R,16.1,N,A*13
$IIMWV,046,T,12.5,N,A*11
$IIRMC,100639,A,5408.610,N,01328.981,E,04.5,017,050821,03,E,A*0D
$IIGLL,5408.611,N,01328.982,E,100640,A,A*57
$IIMWV,034,R,15.8,N,A*18
$IIMWV,046,T,12.5,N,A*11
$IIRMC,100640,A,5408.611,N,01328.982,E,04.5,017,050821,03,E,A*01
$IIGLL,5408.612,N,01328.983,E,100641,A,A*54
$IIMWV,037,R,16.6,N,A*16
$IIMWV,046,T,12.3,N,A*17
$IIRMC,100641,A,5408.612,N,01328.983,E,04.5,017,050821,03,E,A*02
$IIGLL,5408.612,N,01328.983,E,100641,A,A*54
$IIMWV,035,R,16.1,N,A*13
$IIMWV,049,T,13.1,N,A*1B
$IIRMC,100641,A,5408.612,N,01328.983,E,04.5,017,050821,03,E,A*02
$IIGLL,5408.614,N,01328.984,E,100643,A,A*57
$IIMWV,037,R,17.2,N,A*13
$IIMWV,046,T,12.5,N,A*11
$IIRMC,100643,A,5408.614,N,01328.984,E,04.4,018,050821,03,E,A*0F
$IIGLL,5408.615,N,01328.984,E,100644,A,A*51
$IIMWV,035,R,16.8,N,A*1A
$IIMWV,048,T,13.8,N,A*13
$IIRMC,100644,A,5408.615,N,01328.984,E,04.3,017,050821,03,E,A*01
$IIGLL,5408.616,N,01328.985,E,100645,A,A*52
$IIMWV,037,R,17.9,N,A*18
$IIMWV,045,T,13.3,N,A*15
$IIRMC,100645,A,5408.616,N,01328.985,E,04.0,019,050821,03,E,A*0F
$IIGLL,5408.617,N,01328.986,E,100646,A,A*53
$IIMWV,035,R,17.4,N,A*17
$IIMWV,046,T,14.8,N,A*1A
$IIRMC,100646,A,5408.617,N,01328.986,E,04.1,019,050821,03,E,A*0F
$IIGLL,5408.618,N,01328.986,E,100647,A,A*5D
$IIMWV,035,R,17.4,N,A*17
$IIMWV,044,T,14.1,N,A*11
$IIRMC,100647,A,5408.618,N,01328.986,E,03.9,020,050821,03,E,A*04
$IIGLL,5408.619,N,01328.988,E,100648,A,A*5D
$IIMWV,035,R,17.0,N,A*13
$IIMWV,044,T,14.2,N,A*12
$IIRMC,100648,A,5408.619,N,01328.988,E,03.7,020,050821,03,E,A*0A
$IIGLL,5408.621,N,01328.988,E,100649,A,A*57
$IIMWV,035,R,17.2,N,A*11
$IIMWV,043,T,14.0,N,A*17
$IIRMC,100649,A,5408.621,N,01328.988,E,03.8,016,050821,03,E,A*0A
$IIGLL,5408.622,N,01328.989,E,100650,A,A*5D
$IIMWV,036,R,17.1,N,A*11
$IIMWV,044,T,14.2,N,A*12
$IIRMC,100650,A,5408.622,N,01328.989,E,03.8,014,050821,03,E,A*02
$IIGLL,5408.623,N,01328.989,E,100651,A,A*5D
$IIMWV,036,R,17.2,N,A*12
$IIMWV,045,T,14.1,N,A*10
$IIRMC,100651,A,5408.623,N,01328.989,E,03.8,011,050821,03,E,A*07
$IIGLL,5408.624,N,01328.989,E,100652,A,A*59
$IIMWV,037,R,17.2,N,A*13
$IIMWV,045,T,14.2,N,A*13
$IIRMC,100652,A,5408.624,N,01328.989,E,04.0,012,050821,03,E,A*0F
$IIGLL,5408.626,N,01328.990,E,100653,A,A*52
$IIMWV,037,R,17.5,N,A*14
$IIMWV,047,T,14.1,N,A*12
$IIRMC,100653,A,5408.626,N,01328.990,E,03.9,011,050821,03,E,A*09
$IIGLL,5408.627,N,01328.990,E,100654,A,A*54
$IIMWV,036,R,17.6,N,A*16
$IIMWV,046,T,14.5,N,A*17
$IIRMC,100654,A,5408.627,N,01328.990,E,04.1,012,050821,03,E,A*03
$IIGLL,5408.627,N,01328.990,E,100655,A,A*55
$IIMWV,035,R,18.0,N,A*1C
$IIMWV,045,T,14.4,N,A*15
$IIRMC,100655,A,5408.627,N,01328.990,E,04.1,012,050821,03,E,A*02
$IIGLL,5408.628,N,01328.990,E,100656,A,A*59
$IIMWV,034,R,18.6,N,A*1B
$IIMWV,044,T,14.7,N,A*17
$IIRMC,100656,A,5408.628,N,01328.990,E,04.2,015,050821,03,E,A*0A
$IIGLL,5408.629,N,01328.991,E,100657,A,A*58
$IIMWV,032,R,18.6,N,A*1D
$IIMWV,043,T,15.2,N,A*14
$IIRMC,100657,A,5408.629,N,01328.991,E,04.1,017,050821,03,E,A*0A
$IIGLL,5408.630,N,01328.992,E,100658,A,A*5C
$IIMWV,030,R,18.4,N,A*1D
$IIMWV,040,T,15.2,N,A*17
$IIRMC,100658,A,5408.630,N,01328.992,E,04.1,020,050821,03,E,A*0A
$IIGLL,5408.630,N,01328.992,E,100659,A,A*5D
$IIMWV,029,R,18.7,N,A*16
$IIMWV,038,T,15.0,N,A*1A
$IIRMC,100659,A,5408.630,N,01328.992,E,03.9,024,050821,03,E,A*00
$IIGLL,5408.631,N,01328.993,E,100700,A,A*50
$IIMWV,029,R,18.2,N,A*13
$IIMWV,036,T,15.1,N,A*15
$IIRMC,100700,A,5408.631,N,01328.993,E,03.9,023,050821,03,E,A*0A
$IIGLL,5408.632,N,01328.993,E,100701,A,A*52
$IIMWV,027,R,18.9,N,A*16
$IIMWV,036,T,14.7,N,A*12
$IIRMC,100701,A,5408.632,N,01328.993,E,03.8,026,050821,03,E,A*0C
$IIGLL,5408.633,N,01328.994,E,100702,A,A*57
$IIMWV,028,R,18.1,N,A*11
$IIMWV,033,T,15.5,N,A*14
$IIRMC,100702,A,5408.633,N,01328.994,E,03.6,026,050821,03,E,A*07
$IIGLL,5408.634,N,01328.995,E,100703,A,A*50
$IIMWV,026,R,18.2,N,A*1C
$IIMWV,035,T,14.9,N,A*1F
$IIRMC,100703,A,5408.634,N,01328.995,E,03.5,026,050821,03,E,A*03
$IIGLL,5408.634,N,01328.996,E,100704,A,A*54
$IIMWV,027,R,17.7,N,A*17
$IIMWV,032,T,15.0,N,A*10
$IIRMC,100704,A,5408.634,N,01328.996,E,03.4,025,050821,03,E,A*05
$IIGLL,5408.634,N,01328.996,E,100705,A,A*55
$IIMWV,026,R,17.4,N,A*15
$IIMWV,033,T,14.6,N,A*16
$IIRMC,100705,A,5408.634,N,01328.996,E,03.2,024,050821,03,E,A*03
$IIGLL,5408.634,N,01328.996,E,100705,A,A*55
$IIMWV,027,R,17.6,N,A*16
$IIMWV,032,T,14.5,N,A*14
$IIRMC,100705,A,5408.634,N,01328.996,E,03.2,024,050821,03,E,A*03
$IIGLL,5408.637,N,01328.997,E,100707,A,A*55
$IIMWV,028,R,17.1,N,A*1E
$IIMWV,033,T,14.7,N,A*17
$IIRMC,100707,A,5408.637,N,01328.997,E,03.0,019,050821,03,E,A*0F
$IIGLL,5408.637,N,01328.998,E,100708,A,A*55
$IIMWV,026,R,16.8,N,A*18
$IIMWV,034,T,14.4,N,A*13
$IIRMC,100708,A,5408.637,N,01328.998,E,03.0,022,050821,03,E,A*07
$IIGLL,5408.638,N,01328.999,E,100709,A,A*5A
$IIMWV,028,R,17.3,N,A*1C
$IIMWV,031,T,14.1,N,A*13
