$IIMWV,338,R,12.6,N,A*1E
$IIMWV,332,T,09.2,N,A*1C
$IIRMC,112525,A,5523.233,N,01337.826,E,03.0,252,130821,04,E,A*0E
$IIGLL,5523.234,N,01337.827,E,112526,A,A*5C
$IIMWV,337,R,12.5,N,A*12
$IIMWV,332,T,09.8,N,A*16
$IIRMC,112526,A,5523.234,N,01337.827,E,03.1,251,130821,04,E,A*09
$IIGLL,5523.233,N,01337.825,E,112527,A,A*58
$IIMWV,339,R,12.4,N,A*1D
$IIMWV,330,T,09.6,N,A*1A
$IIRMC,112527,A,5523.233,N,01337.825,E,03.0,250,130821,04,E,A*0D
$IIGLL,5523.233,N,01337.824,E,112528,A,A*56
$IIMWV,339,R,12.4,N,A*1D
$IIMWV,333,T,09.5,N,A*1A
$IIRMC,112528,A,5523.233,N,01337.824,E,03.0,247,130821,04,E,A*05
$IIGLL,5523.233,N,01337.823,E,112529,A,A*50
$IIMWV,338,R,12.3,N,A*1B
$IIMWV,333,T,09.5,N,A*1A
$IIRMC,112529,A,5523.233,N,01337.823,E,03.1,250,130821,04,E,A*04
$IIGLL,5523.232,N,01337.821,E,112530,A,A*5B
$IIMWV,338,R,12.3,N,A*1B
$IIMWV,331,T,09.4,N,A*19
$IIRMC,112530,A,5523.232,N,01337.821,E,03.6,246,130821,04,E,A*0F
$IIGLL,5523.232,N,01337.819,E,112531,A,A*51
$IIMWV,339,R,12.3,N,A*1A
$IIMWV,330,T,09.0,N,A*1C
$IIRMC,112531,A,5523.232,N,01337.819,E,03.2,246,130821,04,E,A*01
$IIGLL,5523.231,N,01337.818,E,112532,A,A*50
$IIMWV,339,R,12.3,N,A*1A
$IIMWV,332,T,09.3,N,A*1D
$IIRMC,112532,A,5523.231,N,01337.818,E,03.0,246,130821,04,E,A*02
$IIGLL,5523.231,N,01337.817,E,112533,A,A*5E
$IIMWV,339,R,12.2,N,A*1B
$IIMWV,332,T,09.4,N,A*1A
$IIRMC,112533,A,5523.231,N,01337.817,E,03.1,247,130821,04,E,A*0C
$IIGLL,5523.231,N,01337.818,E,112534,A,A*56
$IIMWV,339,R,12.4,N,A*1D
$IIMWV,332,T,09.2,N,A*1C
$IIRMC,112534,A,5523.231,N,01337.818,E,03.2,251,130821,04,E,A*00
$IIGLL,5523.231,N,01337.816,E,112535,A,A*59
$IIMWV,339,R,12.4,N,A*1D
$IIMWV,332,T,09.3,N,A*1D
$IIRMC,112535,A,5523.231,N,01337.816,E,03.0,253,130821,04,E,A*0F
$IIGLL,5523.231,N,01337.816,E,112535,A,A*59
$IIMWV,340,R,12.3,N,A*14
$IIMWV,333,T,09.5,N,A*1A
$IIRMC,112535,A,5523.231,N,01337.816,E,03.0,253,130821,04,E,A*0F
$IIGLL,5523.231,N,01337.814,E,112537,A,A*59
$IIMWV,339,R,12.3,N,A*1A
$IIMWV,334,T,09.4,N,A*1C
$IIRMC,112537,A,5523.231,N,01337.814,E,02.9,251,130821,04,E,A*05
$IIGLL,5523.230,N,01337.813,E,112538,A,A*50
$IIMWV,339,R,12.3,N,A*1A
$IIMWV,333,T,09.5,N,A*1A
$IIRMC,112538,A,5523.230,N,01337.813,E,02.9,250,130821,04,E,A*0D
$IIGLL,5523.230,N,01337.811,E,112539,A,A*53
$IIMWV,339,R,12.5,N,A*1C
$IIMWV,333,T,09.5,N,A*1A
$IIRMC,112539,A,5523.230,N,01337.811,E,03.0,250,130821,04,E,A*06
$IIGLL,5523.229,N,01337.810,E,112540,A,A*54
$IIMWV,338,R,12.3,N,A*1B
$IIMWV,333,T,09.7,N,A*18
$IIRMC,112540,A,5523.229,N,01337.810,E,03.1,250,130821,04,E,A*00
$IIGLL,5523.229,N,01337.808,E,112541,A,A*5C
$IIMWV,339,R,12.6,N,A*1F
$IIMWV,331,T,09.4,N,A*19
$IIRMC,112541,A,5523.229,N,01337.808,E,03.1,251,130821,04,E,A*09
$IIGLL,5523.228,N,01337.805,E,112542,A,A*53
$IIMWV,337,R,12.4,N,A*13
$IIMWV,333,T,09.7,N,A*18
$IIRMC,112542,A,5523.228,N,01337.805,E,03.3,247,130821,04,E,A*03
$IIGLL,5523.228,N,01337.803,E,112543,A,A*54
$IIMWV,338,R,12.5,N,A*1D
$IIMWV,329,T,09.4,N,A*10
$IIRMC,112543,A,5523.228,N,01337.803,E,03.1,251,130821,04,E,A*01
$IIGLL,5523.228,N,01337.802,E,112544,A,A*52
$IIMWV,337,R,12.3,N,A*14
$IIMWV,331,T,09.6,N,A*1B
$IIRMC,112544,A,5523.228,N,01337.802,E,03.2,250,130821,04,E,A*05
$IIGLL,5523.227,N,01337.801,E,112545,A,A*5F
$IIMWV,338,R,12.4,N,A*1C
$IIMWV,330,T,09.3,N,A*1F
$IIRMC,112545,A,5523.227,N,01337.801,E,03.1,249,130821,04,E,A*03
$IIGLL,5523.227,N,01337.798,E,112546,A,A*53
$IIMWV,337,R,12.4,N,A*13
$IIMWV,332,T,09.5,N,A*1B
$IIRMC,112546,A,5523.227,N,01337.798,E,03.1,252,130821,04,E,A*05
$IIGLL,5523.227,N,01337.797,E,112547,A,A*5D
$IIMWV,337,R,12.4,N,A*13
$IIMWV,330,T,09.5,N,A*19
$IIRMC,112547,A,5523.227,N,01337.797,E,03.0,253,130821,04,E,A*0B
$IIGLL,5523.227,N,01337.795,E,112548,A,A*50
$IIMWV,337,R,12.2,N,A*15
$IIMWV,330,T,09.6,N,A*1A
$IIRMC,112548,A,5523.227,N,01337.795,E,03.1,251,130821,04,E,A*05
$IIGLL,5523.226,N,01337.794,E,112549,A,A*51
$IIMWV,338,R,12.3,N,A*1B
$IIMWV,330,T,09.3,N,A*1F
$IIRMC,112549,A,5523.226,N,01337.794,E,03.1,254,130821,04,E,A*01
$IIGLL,5523.226,N,01337.794,E,112549,A,A*51
$IIMWV,337,R,12.2,N,A*15
$IIMWV,331,T,09.4,N,A*19
$IIRMC,112549,A,5523.226,N,01337.794,E,03.1,254,130821,04,E,A*01
$IIGLL,5523.226,N,01337.792,E,112551,A,A*5E
$IIMWV,337,R,12.3,N,A*14
$IIMWV,330,T,09.3,N,A*1F
$IIRMC,112551,A,5523.226,N,01337.792,E,03.0,258,130821,04,E,A*03
$IIGLL,5523.226,N,01337.791,E,112552,A,A*5E
$IIMWV,337,R,12.2,N,A*15
$IIMWV,330,T,09.5,N,A*19
$IIRMC,112552,A,5523.226,N,01337.791,E,03.1,250,130821,04,E,A*0A
$IIGLL,5523.226,N,01337.791,E,112552,A,A*5E
$IIMWV,336,R,12.3,N,A*15
$IIMWV,330,T,09.3,N,A*1F
$IIRMC,112552,A,5523.226,N,01337.791,E,03.1,250,130821,04,E,A*0A
$IIGLL,5523.226,N,01337.788,E,112554,A,A*50
$IIMWV,336,R,12.3,N,A*15
$IIMWV,328,T,09.4,N,A*11
$IIRMC,112554,A,5523.226,N,01337.788,E,03.1,254,130821,04,E,A*00
$IIGLL,5523.226,N,01337.787,E,112555,A,A*5E
$IIMWV,336,R,12.4,N,A*12
$IIMWV,328,T,09.4,N,A*11
$IIRMC,112555,A,5523.226,N,01337.787,E,03.0,255,130821,04,E,A*0E
$IIGLL,5523.226,N,01337.785,E,112556,A,A*5F
$IIMWV,337,R,12.3,N,A*14
$IIMWV,329,T,09.6,N,A*12
$IIRMC,112556,A,5523.226,N,01337.785,E,03.1,247,130821,04,E,A*0D
$IIGLL,5523.226,N,01337.784,E,112557,A,A*5F
$IIMWV,337,R,12.4,N,A*13
$IIMWV,330,T,09.4,N,A*18
$IIRMC,112557,A,5523.226,N,01337.784,E,02.9,250,130821,04,E,A*02
$IIGLL,5523.225,N,01337.783,E,112558,A,A*54
$IIMWV,336,R,12.2,N,A*14
$IIMWV,330,T,09.7,N,A*1B
$IIRMC,112559,A,5523.225,N,01337.782,E,03.0,256,130821,04,E,A*07
$IIGLL,5523.225,N,01337.782,E,112559,A,A*54
$IIMWV,337,R,12.2,N,A*15
$IIMWV,329,T,09.6,N,A*12
$IIRMC,112600,A,5523.225,N,01337.780,E,02.9,252,130821,04,E,A*06
$IIGLL,5523.225,N,01337.780,E,112600,A,A*59
$IIMWV,337,R,12.3,N,A*14
$IIMWV,330,T,09.4,N,A*18
$IIRMC,112601,A,5523.225,N,01337.779,E,02.9,251,130821,04,E,A*02
$IIGLL,5523.225,N,01337.779,E,112601,A,A*5E
$IIMWV,337,R,12.2,N,A*15
$IIMWV,331,T,09.6,N,A*1B
$IIRMC,112602,A,5523.224,N,01337.778,E,03.0,253,130821,04,E,A*0B
$IIGLL,5523.224,N,01337.778,E,112602,A,A*5D
$IIMWV,337,R,12.2,N,A*15
$IIMWV,330,T,09.5,N,A*19
$IIRMC,112603,A,5523.224,N,01337.776,E,03.1,254,130821,04,E,A*02
$IIGLL,5523.224,N,01337.776,E,112603,A,A*52
$IIMWV,337,R,12.3,N,A*14
$IIMWV,330,T,09.4,N,A*18
$IIRMC,112604,A,5523.223,N,01337.775,E,03.1,250,130821,04,E,A*05
$IIGLL,5523.223,N,01337.775,E,112604,A,A*51
$IIMWV,338,R,12.2,N,A*1A
$IIMWV,330,T,09.4,N,A*18
$IIRMC,112605,A,5523.223,N,01337.773,E,03.0,253,130821,04,E,A*00
$IIGLL,5523.223,N,01337.773,E,112605,A,A*56
$IIMWV,338,R,12.3,N,A*1B
$IIMWV,331,T,09.3,N,A*1E
$IIRMC,112606,A,5523.223,N,01337.772,E,03.1,253,130821,04,E,A*03
$IIGLL,5523.223,N,01337.772,E,112606,A,A*54
$IIMWV,337,R,12.2,N,A*15
$IIMWV,332,T,09.5,N,A*1B
$IIRMC,112607,A,5523.223,N,01337.770,E,03.2,252,130821,04,E,A*02
$IIGLL,5523.223,N,01337.770,E,112607,A,A*57
$IIMWV,339,R,12.3,N,A*1A
$IIMWV,330,T,09.3,N,A*1F
$IIRMC,112608,A,5523.223,N,01337.770,E,03.0,252,130821,04,E,A*0F
$IIGLL,5523.223,N,01337.770,E,112608,A,A*58
$IIMWV,337,R,12.4,N,A*13
$IIMWV,332,T,09.3,N,A*1D
$IIRMC,112609,A,5523.223,N,01337.768,E,03.1,250,130821,04,E,A*04
$IIGLL,5523.223,N,01337.768,E,112609,A,A*50
$IIMWV,339,R,12.3,N,A*1A
$IIMWV,330,T,09.6,N,A*1A
$IIRMC,112610,A,5523.222,N,01337.766,E,03.0,251,130821,04,E,A*03
$IIGLL,5523.222,N,01337.766,E,112610,A,A*57
$IIMWV,337,R,12.4,N,A*13
$IIMWV,332,T,09.3,N,A*1D
$IIRMC,112611,A,5523.222,N,01337.765,E,03.1,251,130821,04,E,A*00
$IIGLL,5523.222,N,01337.765,E,112611,A,A*55
$IIMWV,338,R,12.6,N,A*1E
$IIMWV,330,T,09.6,N,A*1A
$IIRMC,112612,A,5523.222,N,01337.763,E,03.2,253,130821,04,E,A*04
$IIGLL,5523.222,N,01337.763,E,112612,A,A*50
$IIMWV,337,R,12.6,N,A*11
$IIMWV,332,T,09.7,N,A*19
$IIRMC,112613,A,5523.222,N,01337.761,E,03.0,248,130821,04,E,A*0F
$IIGLL,5523.222,N,01337.761,E,112613,A,A*53
$IIMWV,338,R,12.3,N,A*1B
$IIMWV,329,T,09.6,N,A*12
$IIRMC,112614,A,5523.221,N,01337.760,E,02.9,253,130821,04,E,A*08
$IIGLL,5523.221,N,01337.760,E,112614,A,A*56
$IIMWV,336,R,12.4,N,A*12
$IIMWV,332,T,09.5,N,A*1B
$IIRMC,112615,A,5523.221,N,01337.758,E,03.0,256,130821,04,E,A*0F
$IIGLL,5523.221,N,01337.758,E,112615,A,A*5C
$IIMWV,337,R,12.5,N,A*12
$IIMWV,329,T,09.6,N,A*12
$IIRMC,112616,A,5523.221,N,01337.757,E,02.9,250,130821,04,E,A*0D
$IIGLL,5523.221,N,01337.757,E,112616,A,A*50
$IIMWV,338,R,12.4,N,A*1C
$IIMWV,330,T,09.7,N,A*1B
$IIRMC,112617,A,5523.220,N,01337.756,E,02.9,249,130821,04,E,A*04
$IIGLL,5523.220,N,01337.756,E,112617,A,A*51
$IIMWV,338,R,12.3,N,A*1B
$IIMWV,333,T,09.7,N,A*18
$IIRMC,112618,A,5523.220,N,01337.755,E,03.0,252,130821,04,E,A*0A
$IIGLL,5523.220,N,01337.755,E,112618,A,A*5D
$IIMWV,337,R,12.3,N,A*14
$IIMWV,332,T,09.6,N,A*18
$IIRMC,112619,A,5523.220,N,01337.754,E,03.1,254,130821,04,E,A*0D
$IIGLL,5523.219,N,01337.752,E,112620,A,A*5B
$IIMWV,338,R,12.3,N,A*1B
$IIMWV,331,T,09.4,N,A*19
$IIRMC,112620,A,5523.219,N,01337.752,E,03.2,250,130821,04,E,A*0C
$IIGLL,5523.219,N,01337.750,E,112621,A,A*58
$IIMWV,338,R,12.3,N,A*1B
$IIMWV,331,T,09.3,N,A*1E
$IIRMC,112621,A,5523.219,N,01337.750,E,03.1,250,130821,04,E,A*0C
$IIGLL,5523.218,N,01337.749,E,112622,A,A*52
$IIMWV,339,R,12.2,N,A*1B
$IIMWV,331,T,09.4,N,A*19
$IIRMC,112622,A,5523.218,N,01337.749,E,03.0,248,130821,04,E,A*0E
$IIGLL,5523.218,N,01337.749,E,112622,A,A*52
$IIMWV,338,R,12.2,N,A*1A
$IIMWV,333,T,09.3,N,A*1C
$IIRMC,112622,A,5523.218,N,01337.749,E,03.0,248,130821,04,E,A*0E
$IIGLL,5523.218,N,01337.747,E,112624,A,A*5A
$IIMWV,338,R,12.4,N,A*1C
$IIMWV,331,T,09.4,N,A*19
$IIRMC,112624,A,5523.218,N,01337.747,E,03.1,251,130821,04,E,A*0F
$IIGLL,5523.218,N,01337.745,E,112625,A,A*59
$IIMWV,338,R,12.4,N,A*1C
$IIMWV,332,T,09.5,N,A*1B
$IIRMC,112625,A,5523.218,N,01337.745,E,03.1,253,130821,04,E,A*0E
$IIGLL,5523.218,N,01337.744,E,112626,A,A*5B
$IIMWV,339,R,12.4,N,A*1D
$IIMWV,332,T,09.5,N,A*1B
$IIRMC,112626,A,5523.218,N,01337.744,E,03.0,248,130821,04,E,A*07
$IIGLL,5523.217,N,01337.743,E,112627,A,A*52
$IIMWV,339,R,12.3,N,A*1A
$IIMWV,333,T,09.5,N,A*1A
$IIRMC,112627,A,5523.217,N,01337.743,E,03.1,246,130821,04,E,A*01
$IIGLL,5523.217,N,01337.741,E,112628,A,A*5F
$IIMWV,339,R,12.4,N,A*1D
$IIMWV,332,T,09.3,N,A*1D
$IIRMC,112628,A,5523.217,N,01337.741,E,03.1,251,130821,04,E,A*0A
$IIGLL,5523.217,N,01337.740,E,112629,A,A*5F
$IIMWV,338,R,12.4,N,A*1C
$IIMWV,332,T,09.4,N,A*1A
$IIRMC,112629,A,5523.217,N,01337.740,E,03.2,253,130821,04,E,A*0B
$IIGLL,5523.217,N,01337.739,E,112630,A,A*59
$IIMWV,340,R,12.5,N,A*12
$IIMWV,331,T,09.4,N,A*19
$IIRMC,112631,A,5523.217,N,01337.738,E,03.1,250,130821,04,E,A*0D
$IIGLL,5523.217,N,01337.738,E,112631,A,A*59
$IIMWV,337,R,12.9,N,A*1E
$IIMWV,333,T,09.3,N,A*1C
$IIRMC,112632,A,5523.216,N,01337.737,E,03.3,246,130821,04,E,A*05
$IIGLL,5523.216,N,01337.737,E,112632,A,A*54
$IIMWV,339,R,12.7,N,A*1E
$IIMWV,330,T,10.0,N,A*14
$IIRMC,112633,A,5523.216,N,01337.735,E,03.2,250,130821,04,E,A*00
$IIGLL,5523.216,N,01337.735,E,112633,A,A*57
$IIMWV,339,R,13.0,N,A*18
$IIMWV,332,T,09.6,N,A*18
$IIRMC,112634,A,5523.216,N,01337.735,E,03.4,245,130821,04,E,A*05
$IIGLL,5523.216,N,01337.735,E,112634,A,A*50
$IIMWV,338,R,12.5,N,A*1D
$IIMWV,333,T,09.9,N,A*16
$IIRMC,112635,A,5523.215,N,01337.732,E,03.2,247,130821,04,E,A*04
$IIGLL,5523.215,N,01337.732,E,112635,A,A*55
$IIMWV,339,R,12.8,N,A*11
$IIMWV,331,T,09.4,N,A*19
$IIRMC,112636,A,5523.214,N,01337.730,E,03.0,247,130821,04,E,A*06
$IIGLL,5523.214,N,01337.730,E,112636,A,A*55
$IIMWV,339,R,12.5,N,A*1C
$IIMWV,332,T,09.8,N,A*16
$IIRMC,112637,A,5523.215,N,01337.728,E,03.0,248,130821,04,E,A*00
$IIGLL,5523.215,N,01337.728,E,112637,A,A*5C
$IIMWV,338,R,12.5,N,A*1D
$IIMWV,333,T,09.7,N,A*18
$IIRMC,112638,A,5523.215,N,01337.727,E,03.0,249,130821,04,E,A*01
$IIGLL,5523.215,N,01337.727,E,112638,A,A*5C
$IIMWV,339,R,12.5,N,A*1C
$IIMWV,332,T,09.7,N,A*19
$IIRMC,112639,A,5523.214,N,01337.726,E,03.0,251,130821,04,E,A*09
$IIGLL,5523.214,N,01337.726,E,112639,A,A*5D
$IIMWV,338,R,12.5,N,A*1D
$IIMWV,333,T,09.7,N,A*18
$IIRMC,112640,A,5523.214,N,01337.725,E,03.0,251,130821,04,E,A*04
$IIGLL,5523.214,N,01337.725,E,112640,A,A*50
$IIMWV,338,R,12.5,N,A*1D
$IIMWV,332,T,09.7,N,A*19
$IIRMC,112641,A,5523.213,N,01337.724,E,02.9,248,130821,04,E,A*03
$IIGLL,5523.213,N,01337.724,E,112641,A,A*57
$IIMWV,340,R,12.5,N,A*12
$IIMWV,332,T,09.7,N,A*19
$IIRMC,112642,A,5523.213,N,01337.723,E,02.9,251,130821,04,E,A*0F
$IIGLL,5523.213,N,01337.723,E,112642,A,A*53
$IIMWV,337,R,12.5,N,A*12
$IIMWV,334,T,09.7,N,A*1F
$IIRMC,112643,A,5523.212,N,01337.721,E,03.1,252,130821,04,E,A*07
$IIGLL,5523.212,N,01337.721,E,112643,A,A*51
$IIMWV,337,R,12.3,N,A*14
$IIMWV,331,T,09.8,N,A*15
$IIRMC,112643,A,5523.212,N,01337.721,E,03.1,252,130821,04,E,A*07
$IIGLL,5523.212,N,01337.721,E,112643,A,A*51
$IIMWV,338,R,12.4,N,A*1C
$IIMWV,330,T,09.4,N,A*18
$IIRMC,112643,A,5523.212,N,01337.721,E,03.1,252,130821,04,E,A*07
$IIGLL,5523.212,N,01337.721,E,112643,A,A*51
$IIMWV,338,R,12.4,N,A*1C
$IIMWV,332,T,09.5,N,A*1B
$IIRMC,112646,A,5523.211,N,01337.718,E,02.6,248,130821,04,E,A*06
$IIGLL,5523.211,N,01337.718,E,112646,A,A*5D
$IIMWV,340,R,12.2,N,A*15
$IIMWV,332,T,09.5,N,A*1B
$IIRMC,112647,A,5523.211,N,01337.716,E,02.7,254,130821,04,E,A*05
$IIGLL,5523.211,N,01337.716,E,112647,A,A*52
$IIMWV,339,R,12.3,N,A*1A
$IIMWV,335,T,09.7,N,A*1E
$IIRMC,112648,A,5523.211,N,01337.716,E,03.0,259,130821,04,E,A*01
$IIGLL,5523.211,N,01337.716,E,112648,A,A*5D
$IIMWV,338,R,12.5,N,A*1D
$IIMWV,333,T,09.7,N,A*18
$IIRMC,112648,A,5523.211,N,01337.716,E,03.0,259,130821,04,E,A*01
$IIGLL,5523.211,N,01337.716,E,112648,A,A*5D
$IIMWV,340,R,12.3,N,A*14
$IIMWV,332,T,09.7,N,A*19
$IIRMC,112650,A,5523.210,N,01337.713,E,02.9,247,130821,04,E,A*0B
$IIGLL,5523.210,N,01337.713,E,112650,A,A*50
$IIMWV,340,R,12.4,N,A*13
$IIMWV,334,T,09.4,N,A*1C
$IIRMC,112651,A,5523.210,N,01337.711,E,03.0,250,130821,04,E,A*06
$IIGLL,5523.210,N,01337.711,E,112651,A,A*53
$IIMWV,339,R,12.5,N,A*1C
$IIMWV,333,T,09.5,N,A*1A
$IIRMC,112651,A,5523.210,N,01337.711,E,03.0,250,130821,04,E,A*06
$IIGLL,5523.210,N,01337.709,E,112653,A,A*58
$IIMWV,340,R,12.7,N,A*10
$IIMWV,333,T,09.7,N,A*18
$IIRMC,112653,A,5523.210,N,01337.709,E,03.2,249,130821,04,E,A*07
$IIGLL,5523.209,N,01337.707,E,112654,A,A*59
$IIMWV,339,R,12.4,N,A*1D
$IIMWV,334,T,09.7,N,A*1F
$IIRMC,112654,A,5523.209,N,01337.707,E,03.1,246,130821,04,E,A*0A
$IIGLL,5523.209,N,01337.706,E,112655,A,A*59
$IIMWV,340,R,12.4,N,A*13
$IIMWV,332,T,09.4,N,A*1A
$IIRMC,112655,A,5523.209,N,01337.706,E,03.2,246,130821,04,E,A*09
$IIGLL,5523.209,N,01337.704,E,112656,A,A*58
$IIMWV,339,R,12.7,N,A*1E
$IIMWV,333,T,09.3,N,A*1C
$IIRMC,112656,A,5523.209,N,01337.704,E,03.2,253,130821,04,E,A*0C
$IIGLL,5523.209,N,01337.702,E,112657,A,A*5F
$IIMWV,339,R,12.6,N,A*1F
$IIMWV,333,T,09.7,N,A*18
$IIRMC,112657,A,5523.209,N,01337.702,E,03.2,250,130821,04,E,A*08
$IIGLL,5523.208,N,01337.701,E,112658,A,A*52
$IIMWV,339,R,12.6,N,A*1F
$IIMWV,332,T,09.6,N,A*18
$IIRMC,112658,A,5523.208,N,01337.701,E,03.2,251,130821,04,E,A*04
$IIGLL,5523.208,N,01337.699,E,112659,A,A*53
$IIMWV,339,R,12.6,N,A*1F
$IIMWV,332,T,09.6,N,A*18
$IIRMC,112659,A,5523.208,N,01337.699,E,03.2,250,130821,04,E,A*04
$IIGLL,5523.207,N,01337.699,E,112700,A,A*51
$IIMWV,339,R,12.8,N,A*11
$IIMWV,332,T,09.6,N,A*18
$IIRMC,112700,A,5523.207,N,01337.699,E,03.1,251,130821,04,E,A*04
$IIGLL,5523.207,N,01337.697,E,112701,A,A*5E
$IIMWV,340,R,12.5,N,A*12
$IIMWV,333,T,09.9,N,A*16
$IIRMC,112701,A,5523.207,N,01337.697,E,03.2,250,130821,04,E,A*09
$IIGLL,5523.207,N,01337.696,E,112702,A,A*5C
$IIMWV,339,R,12.6,N,A*1F
$IIMWV,334,T,09.4,N,A*1C
$IIRMC,112702,A,5523.207,N,01337.696,E,03.3,253,130821,04,E,A*09
$IIGLL,5523.206,N,01337.694,E,112703,A,A*5E
$IIMWV,339,R,12.7,N,A*1E
$IIMWV,332,T,09.5,N,A*1B
$IIRMC,112703,A,5523.206,N,01337.694,E,03.4,255,130821,04,E,A*0A
$IIGLL,5523.206,N,01337.692,E,112704,A,A*5F
$IIMWV,340,R,12.7,N,A*10
$IIMWV,332,T,09.5,N,A*1B
$IIRMC,112704,A,5523.206,N,01337.692,E,03.2,249,130821,04,E,A*00
$IIGLL,5523.206,N,01337.691,E,112705,A,A*5D
$IIMWV,340,R,12.7,N,A*10
$IIMWV,334,T,09.7,N,A*1F
$IIRMC,112705,A,5523.206,N,01337.691,E,03.2,248,130821,04,E,A*03
$IIGLL,5523.206,N,01337.691,E,112705,A,A*5D
$IIMWV,339,R,12.7,N,A*1E
$IIMWV,334,T,09.7,N,A*1F
$IIRMC,112705,A,5523.206,N,01337.691,E,03.2,248,130821,04,E,A*03
$IIGLL,5523.205,N,01337.686,E,112707,A,A*5A
$IIMWV,340,R,12.8,N,A*1F
$IIMWV,333,T,09.7,N,A*18
$IIRMC,112707,A,5523.205,N,01337.686,E,03.4,253,130821,04,E,A*08
$IIGLL,5523.204,N,01337.684,E,112708,A,A*56
$IIMWV,340,R,12.8,N,A*1F
$IIMWV,333,T,09.6,N,A*19
$IIRMC,112708,A,5523.204,N,01337.684,E,03.4,250,130821,04,E,A*07
$IIGLL,5523.204,N,01337.682,E,112709,A,A*51
$IIMWV,341,R,12.6,N,A*10
$IIMWV,333,T,09.6,N,A*19
$IIRMC,112709,A,5523.204,N,01337.682,E,03.3,246,130821,04,E,A*00
$IIGLL,5523.204,N,01337.680,E,112710,A,A*5B
$IIMWV,340,R,12.9,N,A*1E
$IIMWV,334,T,09.5,N,A*1D
$IIRMC,112710,A,5523.204,N,01337.680,E,03.3,248,130821,04,E,A*04
$IIGLL,5523.204,N,01337.680,E,112710,A,A*5B
$IIMWV,340,R,12.6,N,A*11
$IIMWV,334,T,09.7,N,A*1F
$IIRMC,112710,A,5523.204,N,01337.680,E,03.3,248,130821,04,E,A*04
$IIGLL,5523.203,N,01337.677,E,112712,A,A*56
$IIMWV,340,R,12.8,N,A*1F
$IIMWV,334,T,09.4,N,A*1C
$IIRMC,112713,A,5523.203,N,01337.676,E,03.1,251,130821,04,E,A*03
$IIGLL,5523.203,N,01337.676,E,112713,A,A*56
$IIMWV,341,R,13.0,N,A*17
$IIMWV,334,T,09.7,N,A*1F
$IIRMC,112713,A,5523.203,N,01337.676,E,03.1,251,130821,04,E,A*03
$IIGLL,5523.203,N,01337.676,E,112713,A,A*56
$IIMWV,342,R,12.8,N,A*1D
$IIMWV,335,T,10.1,N,A*10
$IIRMC,112715,A,5523.202,N,01337.672,E,03.4,245,130821,04,E,A*00
$IIGLL,5523.202,N,01337.672,E,112715,A,A*55
$IIMWV,341,R,12.8,N,A*1E
$IIMWV,337,T,09.8,N,A*13
$IIRMC,112716,A,5523.202,N,01337.672,E,03.5,247,130821,04,E,A*00
$IIGLL,5523.202,N,01337.672,E,112716,A,A*56
$IIMWV,341,R,12.7,N,A*11
$IIMWV,334,T,09.6,N,A*1E
$IIRMC,112716,A,5523.202,N,01337.672,E,03.5,247,130821,04,E,A*00
$IIGLL,5523.202,N,01337.672,E,112716,A,A*56
$IIMWV,341,R,13.0,N,A*17
$IIMWV,334,T,09.4,N,A*1C
$IIRMC,112718,A,5523.201,N,01337.669,E,03.3,245,130821,04,E,A*03
$IIGLL,5523.201,N,01337.669,E,112718,A,A*51
$IIMWV,341,R,12.7,N,A*11
$IIMWV,334,T,09.7,N,A*1F
$IIRMC,112718,A,5523.201,N,01337.669,E,03.3,245,130821,04,E,A*03
$IIGLL,5523.201,N,01337.669,E,112718,A,A*51
$IIMWV,341,R,12.7,N,A*11
$IIMWV,335,T,09.6,N,A*1F
$IIRMC,112718,A,5523.201,N,01337.669,E,03.3,245,130821,04,E,A*03
$IIGLL,5523.201,N,01337.669,E,112718,A,A*51
$IIMWV,340,R,12.8,N,A*1F
$IIMWV,335,T,09.6,N,A*1F
$IIRMC,112721,A,5523.201,N,01337.665,E,03.1,249,130821,04,E,A*0B
$IIGLL,5523.201,N,01337.665,E,112721,A,A*57
$IIMWV,341,R,12.5,N,A*13
$IIMWV,334,T,09.7,N,A*1F
$IIRMC,112722,A,5523.200,N,01337.663,E,03.1,248,130821,04,E,A*0E
$IIGLL,5523.200,N,01337.663,E,112722,A,A*53
$IIMWV,340,R,12.8,N,A*1F
$IIMWV,335,T,09.6,N,A*1F
$IIRMC,112723,A,5523.200,N,01337.659,E,03.3,249,130821,04,E,A*05
$IIGLL,5523.200,N,01337.659,E,112723,A,A*5B
$IIMWV,340,R,12.7,N,A*10
$IIMWV,334,T,09.8,N,A*10
$IIRMC,112724,A,5523.200,N,01337.658,E,03.3,248,130821,04,E,A*02
$IIGLL,5523.200,N,01337.658,E,112724,A,A*5D
$IIMWV,341,R,12.8,N,A*1E
$IIMWV,333,T,09.6,N,A*19
$IIRMC,112725,A,5523.199,N,01337.657,E,03.2,246,130821,04,E,A*00
$IIGLL,5523.199,N,01337.657,E,112725,A,A*50
$IIMWV,341,R,12.7,N,A*11
$IIMWV,334,T,09.7,N,A*1F
$IIRMC,112726,A,5523.199,N,01337.655,E,03.0,247,130821,04,E,A*02
$IIGLL,5523.199,N,01337.655,E,112726,A,A*51
$IIMWV,340,R,12.5,N,A*12
$IIMWV,335,T,09.7,N,A*1E
$IIRMC,112727,A,5523.198,N,01337.654,E,03.1,247,130821,04,E,A*02
$IIGLL,5523.198,N,01337.654,E,112727,A,A*50
$IIMWV,341,R,12.6,N,A*10
$IIMWV,334,T,09.6,N,A*1E
$IIRMC,112728,A,5523.198,N,01337.652,E,03.1,250,130821,04,E,A*0D
$IIGLL,5523.198,N,01337.652,E,112728,A,A*59
$IIMWV,340,R,12.8,N,A*1F
$IIMWV,335,T,09.7,N,A*1E
$IIRMC,112729,A,5523.198,N,01337.651,E,03.1,248,130821,04,E,A*06
$IIGLL,5523.198,N,01337.651,E,112729,A,A*5B
$IIMWV,341,R,12.6,N,A*10
$IIMWV,334,T,09.8,N,A*10
$IIRMC,112730,A,5523.197,N,01337.649,E,03.0,247,130821,04,E,A*06
$IIGLL,5523.197,N,01337.649,E,112730,A,A*55
$IIMWV,342,R,12.8,N,A*1D
$IIMWV,335,T,09.7,N,A*1E
$IIRMC,112731,A,5523.197,N,01337.648,E,03.0,246,130821,04,E,A*07
$IIGLL,5523.197,N,01337.648,E,112731,A,A*55
$IIMWV,341,R,12.4,N,A*12
$IIMWV,337,T,09.9,N,A*12
$IIRMC,112732,A,5523.197,N,01337.647,E,03.1,250,130821,04,E,A*0D
$IIGLL,5523.197,N,01337.647,E,112732,A,A*59
$IIMWV,341,R,12.8,N,A*1E
$IIMWV,335,T,09.5,N,A*1C
$IIRMC,112733,A,5523.196,N,01337.645,E,03.0,250,130821,04,E,A*0E
$IIGLL,5523.196,N,01337.645,E,112733,A,A*5B
$IIMWV,342,R,12.7,N,A*12
$IIMWV,335,T,09.9,N,A*10
$IIRMC,112734,A,5523.196,N,01337.644,E,03.1,244,130821,04,E,A*0C
$IIGLL,5523.196,N,01337.644,E,112734,A,A*5D
$IIMWV,342,R,12.4,N,A*11
$IIMWV,337,T,09.8,N,A*13
$IIRMC,112735,A,5523.195,N,01337.643,E,02.7,248,130821,04,E,A*02
$IIGLL,5523.195,N,01337.643,E,112735,A,A*58
$IIMWV,342,R,12.9,N,A*1C
$IIMWV,336,T,09.4,N,A*1E
$IIRMC,112736,A,5523.195,N,01337.642,E,02.6,246,130821,04,E,A*0F
$IIGLL,5523.195,N,01337.642,E,112736,A,A*5A
$IIMWV,342,R,12.6,N,A*13
$IIMWV,338,T,10.2,N,A*1E
$IIRMC,112737,A,5523.194,N,01337.641,E,02.7,247,130821,04,E,A*0C
$IIGLL,5523.194,N,01337.641,E,112737,A,A*59
$IIMWV,341,R,12.9,N,A*1F
$IIMWV,337,T,10.0,N,A*13
$IIRMC,112738,A,5523.194,N,01337.638,E,02.8,248,130821,04,E,A*0D
$IIGLL,5523.194,N,01337.638,E,112738,A,A*58
$IIMWV,341,R,12.8,N,A*1E
$IIMWV,336,T,10.3,N,A*11
$IIRMC,112739,A,5523.193,N,01337.637,E,02.9,242,130821,04,E,A*0F
$IIGLL,5523.193,N,01337.637,E,112739,A,A*51
$IIMWV,343,R,12.6,N,A*12
$IIMWV,336,T,10.2,N,A*10
$IIRMC,112740,A,5523.193,N,01337.636,E,02.8,247,130821,04,E,A*04
$IIGLL,5523.193,N,01337.636,E,112740,A,A*5E
$IIMWV,341,R,12.6,N,A*10
$IIMWV,339,T,09.7,N,A*12
$IIRMC,112741,A,5523.192,N,01337.634,E,03.0,249,130821,04,E,A*01
$IIGLL,5523.192,N,01337.634,E,112741,A,A*5C
$IIMWV,342,R,12.6,N,A*13
$IIMWV,336,T,09.9,N,A*13
$IIRMC,112742,A,5523.192,N,01337.633,E,02.9,248,130821,04,E,A*0C
$IIGLL,5523.192,N,01337.633,E,112742,A,A*58
$IIMWV,342,R,12.6,N,A*13
$IIMWV,336,T,09.7,N,A*1D
$IIRMC,112743,A,5523.191,N,01337.631,E,02.9,246,130821,04,E,A*02
$IIGLL,5523.191,N,01337.631,E,112743,A,A*58
$IIMWV,343,R,12.5,N,A*11
$IIMWV,337,T,09.8,N,A*13
$IIRMC,112743,A,5523.191,N,01337.631,E,02.9,246,130821,04,E,A*02
$IIGLL,5523.191,N,01337.631,E,112743,A,A*58
$IIMWV,342,R,12.5,N,A*10
$IIMWV,339,T,09.7,N,A*12
$IIRMC,112745,A,5523.191,N,01337.629,E,02.9,253,130821,04,E,A*09
$IIGLL,5523.191,N,01337.629,E,112745,A,A*57
$IIMWV,342,R,12.6,N,A*13
$IIMWV,337,T,09.6,N,A*1D
$IIRMC,112746,A,5523.191,N,01337.627,E,02.8,248,130821,04,E,A*0F
$IIGLL,5523.191,N,01337.627,E,112746,A,A*5A
$IIMWV,343,R,12.5,N,A*11
$IIMWV,337,T,09.8,N,A*13
$IIRMC,112747,A,5523.191,N,01337.626,E,02.7,246,130821,04,E,A*0E
$IIGLL,5523.191,N,01337.626,E,112747,A,A*5A
$IIMWV,343,R,12.4,N,A*10
$IIMWV,339,T,09.8,N,A*1D
$IIRMC,112747,A,5523.191,N,01337.626,E,02.7,246,130821,04,E,A*0E
$IIGLL,5523.191,N,01337.626,E,112747,A,A*5A
$IIMWV,342,R,12.4,N,A*11
$IIMWV,339,T,09.8,N,A*1D
$IIRMC,112749,A,5523.191,N,01337.624,E,02.8,249,130821,04,E,A*02
$IIGLL,5523.191,N,01337.624,E,112749,A,A*56
$IIMWV,343,R,12.5,N,A*11
$IIMWV,337,T,09.7,N,A*1C
$IIRMC,112750,A,5523.191,N,01337.623,E,02.8,250,130821,04,E,A*05
$IIGLL,5523.191,N,01337.623,E,112750,A,A*59
$IIMWV,342,R,12.7,N,A*12
$IIMWV,339,T,09.8,N,A*1D
$IIRMC,112751,A,5523.191,N,01337.622,E,02.9,245,130821,04,E,A*00
$IIGLL,5523.191,N,01337.622,E,112751,A,A*59
$IIMWV,343,R,12.4,N,A*10
$IIMWV,337,T,09.9,N,A*12
$IIRMC,112752,A,5523.190,N,01337.621,E,02.9,244,130821,04,E,A*00
$IIGLL,5523.190,N,01337.621,E,112752,A,A*58
$IIMWV,344,R,12.5,N,A*16
$IIMWV,339,T,09.6,N,A*13
$IIRMC,112753,A,5523.190,N,01337.620,E,02.9,245,130821,04,E,A*01
$IIGLL,5523.190,N,01337.620,E,112753,A,A*58
$IIMWV,342,R,12.6,N,A*13
$IIMWV,339,T,09.7,N,A*12
$IIRMC,112754,A,5523.190,N,01337.619,E,02.9,244,130821,04,E,A*0D
$IIGLL,5523.190,N,01337.619,E,112754,A,A*55
$IIMWV,343,R,12.4,N,A*10
$IIMWV,337,T,09.8,N,A*13
$IIRMC,112755,A,5523.190,N,01337.618,E,03.0,242,130821,04,E,A*03
$IIGLL,5523.190,N,01337.618,E,112755,A,A*55
$IIMWV,344,R,12.5,N,A*16
$IIMWV,339,T,09.6,N,A*13
$IIRMC,112756,A,5523.189,N,01337.617,E,02.9,244,130821,04,E,A*09
$IIGLL,5523.189,N,01337.617,E,112756,A,A*51
$IIMWV,342,R,12.5,N,A*10
$IIMWV,339,T,09.6,N,A*13
$IIRMC,112757,A,5523.188,N,01337.616,E,03.1,243,130821,04,E,A*06
$IIGLL,5523.188,N,01337.616,E,112757,A,A*50
$IIMWV,343,R,12.7,N,A*13
$IIMWV,337,T,09.6,N,A*1D
$IIRMC,112758,A,5523.188,N,01337.614,E,03.0,243,130821,04,E,A*0A
$IIGLL,5523.188,N,01337.614,E,112758,A,A*5D
$IIMWV,344,R,12.5,N,A*16
$IIMWV,338,T,09.6,N,A*12
$IIRMC,112759,A,5523.188,N,01337.613,E,02.9,243,130821,04,E,A*04
$IIGLL,5523.188,N,01337.613,E,112759,A,A*5B
$IIMWV,343,R,12.5,N,A*11
$IIMWV,339,T,09.6,N,A*13
$IIRMC,112800,A,5523.187,N,01337.611,E,02.9,244,130821,04,E,A*0D
$IIGLL,5523.187,N,01337.611,E,112800,A,A*55
$IIMWV,343,R,12.5,N,A*11
$IIMWV,339,T,09.7,N,A*12
$IIRMC,112801,A,5523.187,N,01337.609,E,02.8,247,130821,04,E,A*07
$IIGLL,5523.187,N,01337.609,E,112801,A,A*5D
$IIMWV,343,R,12.7,N,A*13
$IIMWV,339,T,09.7,N,A*12
$IIRMC,112802,A,5523.187,N,01337.608,E,02.8,245,130821,04,E,A*07
$IIGLL,5523.187,N,01337.608,E,112802,A,A*5F
$IIMWV,343,R,12.4,N,A*10
$IIMWV,339,T,09.9,N,A*1C
$IIRMC,112803,A,5523.187,N,01337.607,E,02.9,243,130821,04,E,A*0E
$IIGLL,5523.187,N,01337.607,E,112803,A,A*51
$IIMWV,344,R,12.4,N,A*17
$IIMWV,339,T,09.7,N,A*12
$IIRMC,112804,A,5523.186,N,01337.605,E,02.9,244,130821,04,E,A*0D
$IIGLL,5523.186,N,01337.605,E,112804,A,A*55
$IIMWV,343,R,12.3,N,A*17
$IIMWV,339,T,09.6,N,A*13
$IIRMC,112805,A,5523.186,N,01337.604,E,02.8,248,130821,04,E,A*00
$IIGLL,5523.186,N,01337.604,E,112805,A,A*55
$IIMWV,343,R,12.6,N,A*12
$IIMWV,339,T,09.5,N,A*10
$IIRMC,112806,A,5523.186,N,01337.603,E,02.8,247,130821,04,E,A*0B
$IIGLL,5523.186,N,01337.603,E,112806,A,A*51
$IIMWV,344,R,12.4,N,A*17
$IIMWV,339,T,09.8,N,A*1D
$IIRMC,112807,A,5523.186,N,01337.602,E,02.9,242,130821,04,E,A*0F
$IIGLL,5523.186,N,01337.602,E,112807,A,A*51
$IIMWV,344,R,12.5,N,A*16
$IIMWV,340,T,09.7,N,A*1C
$IIRMC,112808,A,5523.185,N,01337.601,E,02.9,244,130821,04,E,A*06
$IIGLL,5523.185,N,01337.601,E,112808,A,A*5E
$IIMWV,343,R,12.3,N,A*17
$IIMWV,339,T,09.7,N,A*12
$IIRMC,112809,A,5523.186,N,01337.600,E,03.0,246,130821,04,E,A*0F
$IIGLL,5523.186,N,01337.600,E,112809,A,A*5D
$IIMWV,343,R,12.4,N,A*10
$IIMWV,339,T,09.5,N,A*10
$IIRMC,112810,A,5523.186,N,01337.598,E,02.9,246,130821,04,E,A*0D
$IIGLL,5523.186,N,01337.598,E,112810,A,A*57
$IIMWV,343,R,12.4,N,A*10
$IIMWV,339,T,09.5,N,A*10
$IIRMC,112811,A,5523.185,N,01337.597,E,02.9,246,130821,04,E,A*00
$IIGLL,5523.185,N,01337.597,E,112811,A,A*5A
$IIMWV,343,R,12.4,N,A*10
$IIMWV,339,T,09.6,N,A*13
$IIRMC,112812,A,5523.185,N,01337.596,E,02.8,242,130821,04,E,A*07
$IIGLL,5523.185,N,01337.596,E,112812,A,A*58
$IIMWV,343,R,12.4,N,A*10
$IIMWV,339,T,09.6,N,A*13
$IIRMC,112813,A,5523.184,N,01337.595,E,02.9,243,130821,04,E,A*04
$IIGLL,5523.184,N,01337.595,E,112813,A,A*5B
$IIMWV,342,R,12.3,N,A*16
$IIMWV,339,T,09.7,N,A*12
$IIRMC,112814,A,5523.184,N,01337.594,E,02.8,250,130821,04,E,A*01
$IIGLL,5523.184,N,01337.594,E,112814,A,A*5D
$IIMWV,342,R,12.3,N,A*16
$IIMWV,337,T,09.4,N,A*1F
$IIRMC,112815,A,5523.184,N,01337.592,E,02.8,248,130821,04,E,A*0F
$IIGLL,5523.184,N,01337.592,E,112815,A,A*5A
$IIMWV,341,R,12.4,N,A*12
$IIMWV,337,T,09.5,N,A*1E
$IIRMC,112816,A,5523.183,N,01337.590,E,02.9,243,130821,04,E,A*03
$IIGLL,5523.183,N,01337.590,E,112816,A,A*5C
$IIMWV,342,R,12.2,N,A*17
$IIMWV,336,T,09.7,N,A*1D
$IIRMC,112817,A,5523.183,N,01337.589,E,02.9,242,130821,04,E,A*0B
$IIGLL,5523.183,N,01337.589,E,112817,A,A*55
$IIMWV,342,R,12.3,N,A*16
$IIMWV,337,T,09.3,N,A*18
$IIRMC,112818,A,5523.183,N,01337.587,E,02.9,252,130821,04,E,A*0B
$IIGLL,5523.183,N,01337.587,E,112818,A,A*54
$IIMWV,340,R,12.3,N,A*14
$IIMWV,337,T,09.4,N,A*1F
$IIRMC,112819,A,5523.182,N,01337.586,E,02.9,256,130821,04,E,A*0E
$IIGLL,5523.182,N,01337.586,E,112819,A,A*55
$IIMWV,340,R,12.5,N,A*12
$IIMWV,334,T,09.5,N,A*1D
$IIRMC,112820,A,5523.182,N,01337.584,E,02.7,252,130821,04,E,A*0C
$IIGLL,5523.182,N,01337.584,E,112820,A,A*5D
$IIMWV,342,R,12.5,N,A*10
$IIMWV,334,T,09.7,N,A*1F
$IIRMC,112821,A,5523.181,N,01337.583,E,02.8,244,130821,04,E,A*01
$IIGLL,5523.181,N,01337.583,E,112821,A,A*58
$IIMWV,342,R,12.3,N,A*16
$IIMWV,337,T,09.8,N,A*13
$IIRMC,112822,A,5523.181,N,01337.582,E,02.9,254,130821,04,E,A*03
$IIGLL,5523.181,N,01337.582,E,112822,A,A*5A
$IIMWV,340,R,12.4,N,A*13
$IIMWV,337,T,09.5,N,A*1E
$IIRMC,112823,A,5523.181,N,01337.580,E,02.9,259,130821,04,E,A*0D
$IIGLL,5523.180,N,01337.579,E,112824,A,A*59
$IIMWV,341,R,12.4,N,A*12
$IIMWV,335,T,09.6,N,A*1F
$IIRMC,112824,A,5523.180,N,01337.579,E,02.8,250,130821,04,E,A*05
$IIGLL,5523.180,N,01337.579,E,112824,A,A*59
$IIMWV,341,R,12.3,N,A*15
$IIMWV,336,T,09.7,N,A*1D
$IIRMC,112824,A,5523.180,N,01337.579,E,02.8,250,130821,04,E,A*05
$IIGLL,5523.180,N,01337.577,E,112826,A,A*55
$IIMWV,341,R,12.3,N,A*15
$IIMWV,335,T,09.6,N,A*1F
$IIRMC,112826,A,5523.180,N,01337.577,E,03.0,251,130821,04,E,A*01
$IIGLL,5523.180,N,01337.577,E,112827,A,A*54
$IIMWV,340,R,12.6,N,A*11
$IIMWV,335,T,09.4,N,A*1D
$IIRMC,112827,A,5523.180,N,01337.577,E,03.0,255,130821,04,E,A*04
$IIGLL,5523.180,N,01337.576,E,112828,A,A*5A
$IIMWV,340,R,12.2,N,A*15
$IIMWV,334,T,09.7,N,A*1F
$IIRMC,112828,A,5523.180,N,01337.576,E,02.9,253,130821,04,E,A*04
$IIGLL,5523.179,N,01337.573,E,112829,A,A*58
$IIMWV,341,R,12.5,N,A*13
$IIMWV,334,T,09.4,N,A*1C
$IIRMC,112829,A,5523.179,N,01337.573,E,02.8,251,130821,04,E,A*05
$IIGLL,5523.179,N,01337.572,E,112830,A,A*51
$IIMWV,339,R,12.5,N,A*1C
$IIMWV,335,T,09.8,N,A*11
$IIRMC,112830,A,5523.179,N,01337.572,E,02.9,253,130821,04,E,A*0F
$IIGLL,5523.178,N,01337.571,E,112831,A,A*52
$IIMWV,339,R,12.8,N,A*11
$IIMWV,333,T,09.7,N,A*18
$IIRMC,112831,A,5523.178,N,01337.571,E,03.2,254,130821,04,E,A*01
$IIGLL,5523.178,N,01337.570,E,112832,A,A*50
$IIMWV,339,R,12.5,N,A*1C
$IIMWV,332,T,09.8,N,A*16
$IIRMC,112832,A,5523.178,N,01337.570,E,03.2,252,130821,04,E,A*05
$IIGLL,5523.178,N,01337.568,E,112833,A,A*58
$IIMWV,341,R,12.6,N,A*10
$IIMWV,332,T,09.5,N,A*1B
$IIRMC,112833,A,5523.178,N,01337.568,E,03.1,243,130821,04,E,A*0E
$IIGLL,5523.177,N,01337.567,E,112834,A,A*5F
$IIMWV,340,R,12.6,N,A*11
$IIMWV,335,T,09.7,N,A*1E
$IIRMC,112834,A,5523.177,N,01337.567,E,03.0,244,130821,04,E,A*0F
$IIGLL,5523.177,N,01337.566,E,112835,A,A*5F
$IIMWV,340,R,12.8,N,A*1F
$IIMWV,334,T,09.7,N,A*1F
$IIRMC,112835,A,5523.177,N,01337.566,E,03.0,252,130821,04,E,A*08
$IIGLL,5523.177,N,01337.564,E,112836,A,A*5E
$IIMWV,340,R,12.8,N,A*1F
$IIMWV,334,T,09.9,N,A*11
$IIRMC,112836,A,5523.177,N,01337.564,E,03.0,251,130821,04,E,A*0A
$IIGLL,5523.176,N,01337.563,E,112837,A,A*59
$IIMWV,341,R,12.6,N,A*10
$IIMWV,334,T,09.9,N,A*11
$IIRMC,112837,A,5523.176,N,01337.563,E,03.0,250,130821,04,E,A*0C
$IIGLL,5523.177,N,01337.562,E,112838,A,A*56
$IIMWV,341,R,12.5,N,A*13
$IIMWV,335,T,09.7,N,A*1E
$IIRMC,112838,A,5523.177,N,01337.562,E,03.0,247,130821,04,E,A*05
$IIGLL,5523.176,N,01337.561,E,112839,A,A*55
$IIMWV,342,R,12.7,N,A*12
$IIMWV,335,T,09.7,N,A*1E
$IIRMC,112839,A,5523.176,N,01337.561,E,02.9,247,130821,04,E,A*0E
$IIGLL,5523.176,N,01337.559,E,112840,A,A*50
$IIMWV,341,R,12.5,N,A*13
$IIMWV,337,T,09.9,N,A*12
$IIRMC,112840,A,5523.176,N,01337.559,E,03.0,248,130821,04,E,A*0C
$IIGLL,5523.176,N,01337.558,E,112841,A,A*50
$IIMWV,340,R,12.5,N,A*12
$IIMWV,335,T,09.7,N,A*1E
$IIRMC,112841,A,5523.176,N,01337.558,E,03.2,253,130821,04,E,A*04
$IIGLL,5523.176,N,01337.557,E,112842,A,A*5C
$IIMWV,342,R,12.5,N,A*10
$IIMWV,334,T,09.4,N,A*1C
$IIRMC,112842,A,5523.176,N,01337.557,E,03.3,250,130821,04,E,A*0A
$IIGLL,5523.175,N,01337.555,E,112843,A,A*5C
$IIMWV,342,R,12.5,N,A*10
$IIMWV,336,T,09.3,N,A*19
$IIRMC,112843,A,5523.175,N,01337.555,E,03.1,250,130821,04,E,A*08
$IIGLL,5523.175,N,01337.554,E,112844,A,A*5A
$IIMWV,341,R,12.5,N,A*13
$IIMWV,337,T,09.4,N,A*1F
$IIRMC,112844,A,5523.175,N,01337.554,E,03.0,249,130821,04,E,A*07
$IIGLL,5523.175,N,01337.553,E,112845,A,A*5C
$IIMWV,342,R,12.6,N,A*13
$IIMWV,335,T,09.7,N,A*1E
$IIRMC,112845,A,5523.175,N,01337.553,E,03.1,249,130821,04,E,A*00
$IIGLL,5523.175,N,01337.552,E,112846,A,A*5E
$IIMWV,341,R,12.6,N,A*10
$IIMWV,336,T,09.6,N,A*1C
$IIRMC,112846,A,5523.175,N,01337.552,E,03.0,254,130821,04,E,A*0F
$IIGLL,5523.175,N,01337.550,E,112847,A,A*5D
$IIMWV,341,R,12.5,N,A*13
$IIMWV,335,T,09.7,N,A*1E
$IIRMC,112847,A,5523.175,N,01337.550,E,03.1,250,130821,04,E,A*09
$IIGLL,5523.175,N,01337.550,E,112847,A,A*5D
$IIMWV,341,R,12.5,N,A*13
$IIMWV,335,T,09.6,N,A*1F
$IIRMC,112847,A,5523.175,N,01337.550,E,03.1,250,130821,04,E,A*09
$IIGLL,5523.175,N,01337.550,E,112847,A,A*5D
$IIMWV,341,R,12.5,N,A*13
$IIMWV,335,T,09.6,N,A*1F
$IIRMC,112847,A,5523.175,N,01337.550,E,03.1,250,130821,04,E,A*09
$IIGLL,5523.174,N,01337.546,E,112850,A,A*5D
$IIMWV,341,R,12.5,N,A*13
$IIMWV,335,T,09.6,N,A*1F
$IIRMC,112850,A,5523.174,N,01337.546,E,03.1,248,130821,04,E,A*00
$IIGLL,5523.173,N,01337.545,E,112851,A,A*58
$IIMWV,340,R,12.6,N,A*11
$IIMWV,335,T,09.6,N,A*1F
$IIRMC,112851,A,5523.173,N,01337.545,E,03.2,251,130821,04,E,A*0E
$IIGLL,5523.173,N,01337.543,E,112852,A,A*5D
$IIMWV,342,R,12.5,N,A*10
$IIMWV,334,T,09.5,N,A*1D
$IIRMC,112852,A,5523.173,N,01337.543,E,03.0,248,130821,04,E,A*01
$IIGLL,5523.173,N,01337.543,E,112852,A,A*5D
$IIMWV,342,R,12.5,N,A*10
$IIMWV,337,T,09.5,N,A*1E
$IIRMC,112852,A,5523.173,N,01337.543,E,03.0,248,130821,04,E,A*01
$IIGLL,5523.172,N,01337.541,E,112854,A,A*58
$IIMWV,340,R,12.4,N,A*13
$IIMWV,337,T,09.5,N,A*1E
$IIRMC,112854,A,5523.172,N,01337.541,E,03.1,252,130821,04,E,A*0E
$IIGLL,5523.172,N,01337.541,E,112854,A,A*58
$IIMWV,341,R,12.5,N,A*13
$IIMWV,334,T,09.4,N,A*1C
$IIRMC,112856,A,5523.171,N,01337.538,E,03.1,249,130821,04,E,A*0B
$IIGLL,5523.171,N,01337.538,E,112856,A,A*57
$IIMWV,342,R,12.5,N,A*10
$IIMWV,335,T,09.6,N,A*1F
$IIRMC,112857,A,5523.172,N,01337.536,E,02.9,246,130821,04,E,A*01
$IIGLL,5523.172,N,01337.536,E,112857,A,A*5B
$IIMWV,342,R,12.6,N,A*13
$IIMWV,337,T,09.4,N,A*1F
$IIRMC,112858,A,5523.171,N,01337.533,E,02.9,254,130821,04,E,A*0B
$IIGLL,5523.171,N,01337.533,E,112858,A,A*52
$IIMWV,339,R,12.6,N,A*1F
$IIMWV,337,T,09.8,N,A*13
$IIRMC,112859,A,5523.171,N,01337.532,E,03.1,251,130821,04,E,A*07
$IIGLL,5523.171,N,01337.532,E,112859,A,A*52
$IIMWV,340,R,12.6,N,A*11
$IIMWV,333,T,09.8,N,A*17
$IIRMC,112900,A,5523.170,N,01337.530,E,02.9,249,130821,04,E,A*09
$IIGLL,5523.170,N,01337.530,E,112900,A,A*5C
$IIMWV,341,R,12.6,N,A*10
$IIMWV,334,T,09.6,N,A*1E
$IIRMC,112900,A,5523.170,N,01337.530,E,02.9,249,130821,04,E,A*09
$IIGLL,5523.170,N,01337.530,E,112900,A,A*5C
$IIMWV,340,R,12.5,N,A*12
$IIMWV,335,T,09.8,N,A*11
$IIRMC,112902,A,5523.170,N,01337.528,E,02.8,251,130821,04,E,A*0A
$IIGLL,5523.170,N,01337.528,E,112902,A,A*57
$IIMWV,340,R,12.5,N,A*12
$IIMWV,334,T,09.7,N,A*1F
$IIRMC,112903,A,5523.169,N,01337.526,E,02.8,253,130821,04,E,A*0F
$IIGLL,5523.169,N,01337.526,E,112903,A,A*50
$IIMWV,340,R,12.4,N,A*13
$IIMWV,335,T,09.8,N,A*11
$IIRMC,112904,A,5523.169,N,01337.526,E,02.8,251,130821,04,E,A*0A
$IIGLL,5523.169,N,01337.526,E,112904,A,A*57
$IIMWV,340,R,12.4,N,A*13
$IIMWV,334,T,09.7,N,A*1F
$IIRMC,112905,A,5523.169,N,01337.524,E,02.8,249,130821,04,E,A*00
$IIGLL,5523.169,N,01337.524,E,112905,A,A*54
$IIMWV,340,R,12.3,N,A*14
$IIMWV,334,T,09.7,N,A*1F
$IIRMC,112906,A,5523.168,N,01337.523,E,02.8,250,130821,04,E,A*0D
$IIGLL,5523.168,N,01337.523,E,112906,A,A*51
$IIMWV,340,R,12.3,N,A*14
$IIMWV,335,T,09.6,N,A*1F
$IIRMC,112907,A,5523.168,N,01337.522,E,02.8,251,130821,04,E,A*0C
$IIGLL,5523.168,N,01337.522,E,112907,A,A*51
$IIMWV,340,R,12.3,N,A*14
$IIMWV,335,T,09.6,N,A*1F
$IIRMC,112908,A,5523.168,N,01337.521,E,02.9,251,130821,04,E,A*01
$IIGLL,5523.168,N,01337.521,E,112908,A,A*5D
$IIMWV,340,R,12.3,N,A*14
$IIMWV,335,T,09.6,N,A*1F
$IIRMC,112909,A,5523.168,N,01337.520,E,02.9,250,130821,04,E,A*00
$IIGLL,5523.168,N,01337.520,E,112909,A,A*5D
$IIMWV,339,R,12.4,N,A*1D
$IIMWV,334,T,09.5,N,A*1D
$IIRMC,112910,A,5523.168,N,01337.519,E,02.8,251,130821,04,E,A*02
$IIGLL,5523.168,N,01337.519,E,112910,A,A*5F
$IIMWV,340,R,12.2,N,A*15
$IIMWV,333,T,09.6,N,A*19
$IIRMC,112911,A,5523.168,N,01337.518,E,02.9,253,130821,04,E,A*01
$IIGLL,5523.168,N,01337.518,E,112911,A,A*5F
$IIMWV,339,R,12.2,N,A*1B
$IIMWV,334,T,09.5,N,A*1D
$IIRMC,112912,A,5523.168,N,01337.517,E,02.9,250,130821,04,E,A*0E
$IIGLL,5523.168,N,01337.517,E,112912,A,A*53
$IIMWV,340,R,12.3,N,A*14
$IIMWV,333,T,09.4,N,A*1B
$IIRMC,112913,A,5523.167,N,01337.516,E,02.9,251,130821,04,E,A*00
$IIGLL,5523.167,N,01337.516,E,112913,A,A*5C
$IIMWV,340,R,12.3,N,A*14
$IIMWV,334,T,09.5,N,A*1D
$IIRMC,112914,A,5523.167,N,01337.514,E,02.9,252,130821,04,E,A*06
$IIGLL,5523.167,N,01337.514,E,112914,A,A*59
$IIMWV,340,R,12.3,N,A*14
$IIMWV,334,T,09.5,N,A*1D
$IIRMC,112915,A,5523.167,N,01337.513,E,03.0,252,130821,04,E,A*08
$IIGLL,5523.167,N,01337.513,E,112915,A,A*5F
$IIMWV,339,R,12.3,N,A*1A
$IIMWV,334,T,09.5,N,A*1D
$IIRMC,112916,A,5523.166,N,01337.512,E,02.9,250,130821,04,E,A*01
$IIGLL,5523.166,N,01337.512,E,112916,A,A*5C
$IIMWV,340,R,12.5,N,A*12
$IIMWV,332,T,09.4,N,A*1A
$IIRMC,112917,A,5523.166,N,01337.510,E,02.9,246,130821,04,E,A*05
$IIGLL,5523.166,N,01337.510,E,112917,A,A*5F
$IIMWV,341,R,12.6,N,A*10
$IIMWV,334,T,09.7,N,A*1F
$IIRMC,112918,A,5523.166,N,01337.509,E,03.0,249,130821,04,E,A*05
$IIGLL,5523.166,N,01337.509,E,112918,A,A*58
$IIMWV,340,R,12.4,N,A*13
$IIMWV,335,T,09.8,N,A*11
$IIRMC,112919,A,5523.166,N,01337.507,E,03.3,251,130821,04,E,A*00
$IIGLL,5523.166,N,01337.507,E,112919,A,A*57
$IIMWV,340,R,12.5,N,A*12
$IIMWV,334,T,09.5,N,A*1D
$IIRMC,112920,A,5523.165,N,01337.505,E,03.1,247,130821,04,E,A*0E
$IIGLL,5523.165,N,01337.505,E,112920,A,A*5C
$IIMWV,341,R,12.5,N,A*13
$IIMWV,333,T,09.3,N,A*1C
$IIRMC,112921,A,5523.165,N,01337.504,E,03.0,246,130821,04,E,A*0E
$IIGLL,5523.165,N,01337.504,E,112921,A,A*5C
$IIMWV,341,R,12.4,N,A*12
$IIMWV,335,T,09.6,N,A*1F
$IIRMC,112922,A,5523.165,N,01337.503,E,03.0,247,130821,04,E,A*0B
$IIGLL,5523.165,N,01337.503,E,112922,A,A*58
$IIMWV,341,R,12.5,N,A*13
$IIMWV,335,T,09.5,N,A*1C
$IIRMC,112923,A,5523.165,N,01337.502,E,03.0,248,130821,04,E,A*04
$IIGLL,5523.165,N,01337.502,E,112923,A,A*58
$IIMWV,341,R,12.5,N,A*13
$IIMWV,335,T,09.7,N,A*1E
$IIRMC,112924,A,5523.164,N,01337.501,E,03.1,248,130821,04,E,A*00
$IIGLL,5523.164,N,01337.501,E,112924,A,A*5D
$IIMWV,342,R,12.6,N,A*13
$IIMWV,335,T,09.7,N,A*1E
$IIRMC,112925,A,5523.164,N,01337.499,E,03.1,247,130821,04,E,A*0E
$IIGLL,5523.164,N,01337.499,E,112925,A,A*5C
$IIMWV,342,R,12.7,N,A*12
$IIMWV,336,T,09.6,N,A*1C
$IIRMC,112926,A,5523.163,N,01337.498,E,03.1,249,130821,04,E,A*05
$IIGLL,5523.163,N,01337.498,E,112926,A,A*59
$IIMWV,341,R,12.6,N,A*10
$IIMWV,336,T,09.7,N,A*1D
$IIRMC,112927,A,5523.163,N,01337.496,E,03.1,249,130821,04,E,A*0A
$IIGLL,5523.163,N,01337.496,E,112927,A,A*56
$IIMWV,342,R,12.7,N,A*12
$IIMWV,335,T,09.7,N,A*1E
$IIRMC,112928,A,5523.162,N,01337.494,E,03.0,248,130821,04,E,A*06
$IIGLL,5523.162,N,01337.494,E,112928,A,A*5A
$IIMWV,342,R,12.7,N,A*12
$IIMWV,336,T,09.7,N,A*1D
$IIRMC,112929,A,5523.162,N,01337.492,E,03.1,248,130821,04,E,A*00
$IIGLL,5523.162,N,01337.492,E,112929,A,A*5D
$IIMWV,342,R,12.6,N,A*13
$IIMWV,337,T,09.8,N,A*13
$IIRMC,112930,A,5523.161,N,01337.490,E,03.1,250,130821,04,E,A*00
$IIGLL,5523.161,N,01337.490,E,112930,A,A*54
$IIMWV,342,R,12.5,N,A*10
$IIMWV,336,T,09.6,N,A*1C
$IIRMC,112931,A,5523.160,N,01337.488,E,03.1,249,130821,04,E,A*01
$IIGLL,5523.160,N,01337.488,E,112931,A,A*5D
$IIMWV,341,R,12.6,N,A*10
$IIMWV,337,T,09.4,N,A*1F
$IIRMC,112932,A,5523.160,N,01337.487,E,03.0,246,130821,04,E,A*03
$IIGLL,5523.160,N,01337.487,E,112932,A,A*51
$IIMWV,342,R,12.7,N,A*12
$IIMWV,335,T,09.7,N,A*1E
$IIRMC,112933,A,5523.160,N,01337.487,E,03.1,243,130821,04,E,A*06
$IIGLL,5523.160,N,01337.487,E,112933,A,A*50
$IIMWV,342,R,12.4,N,A*11
$IIMWV,337,T,09.8,N,A*13
$IIRMC,112934,A,5523.159,N,01337.485,E,03.2,249,130821,04,E,A*00
$IIGLL,5523.159,N,01337.485,E,112934,A,A*5F
$IIMWV,341,R,12.7,N,A*11
$IIMWV,336,T,09.4,N,A*1E
$IIRMC,112935,A,5523.159,N,01337.484,E,03.0,253,130821,04,E,A*09
$IIGLL,5523.159,N,01337.484,E,112935,A,A*5F
$IIMWV,341,R,12.7,N,A*11
$IIMWV,335,T,09.7,N,A*1E
$IIRMC,112936,A,5523.159,N,01337.483,E,03.0,244,130821,04,E,A*0B
$IIGLL,5523.159,N,01337.483,E,112936,A,A*5B
$IIMWV,343,R,12.6,N,A*12
$IIMWV,335,T,09.8,N,A*11
$IIRMC,112937,A,5523.158,N,01337.481,E,03.0,242,130821,04,E,A*0F
$IIGLL,5523.158,N,01337.481,E,112937,A,A*59
$IIMWV,342,R,12.7,N,A*12
$IIMWV,338,T,09.6,N,A*12
$IIRMC,112938,A,5523.158,N,01337.480,E,03.1,247,130821,04,E,A*05
$IIGLL,5523.158,N,01337.480,E,112938,A,A*57
$IIMWV,341,R,12.6,N,A*10
$IIMWV,337,T,09.8,N,A*13
$IIRMC,112939,A,5523.158,N,01337.478,E,03.0,250,130821,04,E,A*04
$IIGLL,5523.158,N,01337.478,E,112939,A,A*51
$IIMWV,342,R,12.7,N,A*12
$IIMWV,335,T,09.7,N,A*1E
$IIRMC,112940,A,5523.157,N,01337.477,E,03.0,247,130821,04,E,A*0C
$IIGLL,5523.157,N,01337.477,E,112940,A,A*5F
$IIMWV,342,R,12.4,N,A*11
$IIMWV,337,T,09.8,N,A*13
$IIRMC,112941,A,5523.157,N,01337.475,E,03.0,245,130821,04,E,A*0D
$IIGLL,5523.157,N,01337.475,E,112941,A,A*5C
$IIMWV,342,R,12.5,N,A*10
$IIMWV,337,T,09.4,N,A*1F
$IIRMC,112942,A,5523.157,N,01337.474,E,02.9,247,130821,04,E,A*05
$IIGLL,5523.157,N,01337.474,E,112942,A,A*5E
$IIMWV,341,R,12.6,N,A*10
$IIMWV,337,T,09.5,N,A*1E
$IIRMC,112943,A,5523.157,N,01337.473,E,02.9,250,130821,04,E,A*05
$IIGLL,5523.157,N,01337.473,E,112943,A,A*58
$IIMWV,341,R,12.7,N,A*11
$IIMWV,335,T,09.8,N,A*11
$IIRMC,112944,A,5523.156,N,01337.472,E,03.0,246,130821,04,E,A*0D
$IIGLL,5523.156,N,01337.472,E,112944,A,A*5F
$IIMWV,341,R,12.5,N,A*13
$IIMWV,336,T,09.9,N,A*13
$IIRMC,112945,A,5523.156,N,01337.471,E,03.0,249,130821,04,E,A*00
$IIGLL,5523.156,N,01337.471,E,112945,A,A*5D
$IIMWV,341,R,12.6,N,A*10
$IIMWV,335,T,09.7,N,A*1E
$IIRMC,112946,A,5523.156,N,01337.470,E,03.0,249,130821,04,E,A*02
$IIGLL,5523.156,N,01337.470,E,112946,A,A*5F
$IIMWV,341,R,12.5,N,A*13
$IIMWV,335,T,09.7,N,A*1E
$IIRMC,112947,A,5523.155,N,01337.468,E,03.0,248,130821,04,E,A*08
$IIGLL,5523.155,N,01337.468,E,112947,A,A*54
$IIMWV,342,R,12.5,N,A*10
$IIMWV,335,T,09.7,N,A*1E
$IIRMC,112948,A,5523.155,N,01337.467,E,03.1,250,130821,04,E,A*00
$IIGLL,5523.155,N,01337.467,E,112948,A,A*54
$IIMWV,341,R,12.2,N,A*14
$IIMWV,337,T,09.5,N,A*1E
$IIRMC,112949,A,5523.155,N,01337.466,E,03.1,254,130821,04,E,A*04
$IIGLL,5523.155,N,01337.466,E,112949,A,A*54
$IIMWV,340,R,12.5,N,A*12
$IIMWV,335,T,09.3,N,A*1A
$IIRMC,112950,A,5523.155,N,01337.464,E,03.0,248,130821,04,E,A*02
$IIGLL,5523.155,N,01337.464,E,112950,A,A*5E
$IIMWV,341,R,12.5,N,A*13
$IIMWV,334,T,09.5,N,A*1D
$IIRMC,112951,A,5523.154,N,01337.464,E,02.9,245,130821,04,E,A*07
$IIGLL,5523.154,N,01337.464,E,112951,A,A*5E
$IIMWV,341,R,12.5,N,A*13
$IIMWV,335,T,09.7,N,A*1E
$IIRMC,112952,A,5523.154,N,01337.463,E,03.0,250,130821,04,E,A*0F
$IIGLL,5523.154,N,01337.463,E,112952,A,A*5A
$IIMWV,340,R,12.4,N,A*13
$IIMWV,335,T,09.7,N,A*1E
$IIRMC,112953,A,5523.154,N,01337.462,E,03.2,253,130821,04,E,A*0E
$IIGLL,5523.154,N,01337.462,E,112953,A,A*5A
$IIMWV,340,R,12.5,N,A*12
$IIMWV,334,T,09.5,N,A*1D
$IIRMC,112954,A,5523.154,N,01337.461,E,03.0,252,130821,04,E,A*09
$IIGLL,5523.154,N,01337.461,E,112954,A,A*5E
$IIMWV,341,R,12.5,N,A*13
$IIMWV,334,T,09.4,N,A*1C
$IIRMC,112954,A,5523.154,N,01337.461,E,03.0,252,130821,04,E,A*09
$IIGLL,5523.154,N,01337.461,E,112954,A,A*5E
$IIMWV,342,R,12.6,N,A*13
$IIMWV,335,T,09.7,N,A*1E
$IIRMC,112956,A,5523.153,N,01337.458,E,02.9,246,130821,04,E,A*0B
$IIGLL,5523.153,N,01337.458,E,112956,A,A*51
$IIMWV,342,R,12.7,N,A*12
$IIMWV,336,T,09.7,N,A*1D
$IIRMC,112956,A,5523.153,N,01337.458,E,02.9,246,130821,04,E,A*0B
$IIGLL,5523.153,N,01337.458,E,112956,A,A*51
$IIMWV,341,R,12.6,N,A*10
$IIMWV,337,T,09.9,N,A*12
$IIRMC,112958,A,5523.153,N,01337.454,E,03.2,249,130821,04,E,A*0C
$IIGLL,5523.153,N,01337.454,E,112958,A,A*53
$IIMWV,341,R,12.7,N,A*11
$IIMWV,335,T,09.8,N,A*11
$IIRMC,112959,A,5523.152,N,01337.452,E,03.1,245,130821,04,E,A*05
$IIGLL,5523.152,N,01337.452,E,112959,A,A*55
$IIMWV,343,R,12.8,N,A*1C
$IIMWV,335,T,09.7,N,A*1E
$IIRMC,113000,A,5523.152,N,01337.451,E,03.0,245,130821,04,E,A*03
$IIGLL,5523.152,N,01337.451,E,113000,A,A*52
$IIMWV,341,R,12.7,N,A*11
$IIMWV,338,T,09.8,N,A*1C
$IIRMC,113001,A,5523.151,N,01337.448,E,03.2,248,130821,04,E,A*06
$IIGLL,5523.151,N,01337.448,E,113001,A,A*58
$IIMWV,340,R,12.6,N,A*11
$IIMWV,335,T,09.8,N,A*11
$IIRMC,113001,A,5523.151,N,01337.448,E,03.2,248,130821,04,E,A*06
$IIGLL,5523.151,N,01337.448,E,113001,A,A*58
$IIMWV,340,R,12.7,N,A*10
$IIMWV,334,T,09.5,N,A*1D
$IIRMC,113003,A,5523.150,N,01337.445,E,03.0,247,130821,04,E,A*05
$IIGLL,5523.150,N,01337.445,E,113003,A,A*56
$IIMWV,339,R,12.6,N,A*1F
$IIMWV,334,T,09.7,N,A*1F
$IIRMC,113004,A,5523.150,N,01337.444,E,03.0,253,130821,04,E,A*06
$IIGLL,5523.150,N,01337.444,E,113004,A,A*50
$IIMWV,337,R,12.5,N,A*12
$IIMWV,333,T,09.7,N,A*18
$IIRMC,113005,A,5523.150,N,01337.442,E,03.1,258,130821,04,E,A*0B
$IIGLL,5523.150,N,01337.442,E,113005,A,A*57
$IIMWV,337,R,12.6,N,A*11
$IIMWV,330,T,09.7,N,A*1B
$IIRMC,113006,A,5523.149,N,01337.441,E,03.1,256,130821,04,E,A*0D
$IIGLL,5523.149,N,01337.441,E,113006,A,A*5F
$IIMWV,336,R,12.6,N,A*10
$IIMWV,330,T,09.7,N,A*1B
$IIRMC,113007,A,5523.149,N,01337.439,E,03.1,256,130821,04,E,A*03
$IIGLL,5523.149,N,01337.439,E,113007,A,A*51
$IIMWV,336,R,12.4,N,A*12
$IIMWV,328,T,09.7,N,A*12
$IIRMC,113008,A,5523.148,N,01337.437,E,03.1,262,130821,04,E,A*04
$IIGLL,5523.148,N,01337.437,E,113008,A,A*51
$IIMWV,334,R,12.6,N,A*12
$IIMWV,328,T,09.5,N,A*10
$IIRMC,113009,A,5523.148,N,01337.436,E,03.1,263,130821,04,E,A*05
$IIGLL,5523.148,N,01337.436,E,113009,A,A*51
$IIMWV,333,R,12.6,N,A*15
$IIMWV,326,T,09.8,N,A*13
$IIRMC,113010,A,5523.148,N,01337.435,E,03.2,259,130821,04,E,A*04
$IIGLL,5523.148,N,01337.435,E,113010,A,A*5A
$IIMWV,334,R,12.5,N,A*11
$IIMWV,325,T,09.8,N,A*10
$IIRMC,113011,A,5523.148,N,01337.433,E,03.3,258,130821,04,E,A*03
$IIGLL,5523.148,N,01337.433,E,113011,A,A*5D
$IIMWV,334,R,12.2,N,A*16
$IIMWV,326,T,09.7,N,A*1C
$IIRMC,113012,A,5523.148,N,01337.432,E,03.3,263,130821,04,E,A*09
$IIGLL,5523.148,N,01337.432,E,113012,A,A*5F
$IIMWV,333,R,12.4,N,A*17
$IIMWV,325,T,09.2,N,A*1A
$IIRMC,113013,A,5523.148,N,01337.431,E,03.4,264,130821,04,E,A*0B
$IIGLL,5523.148,N,01337.431,E,113013,A,A*5D
$IIMWV,333,R,12.4,N,A*17
$IIMWV,324,T,09.4,N,A*1D
$IIRMC,113014,A,5523.148,N,01337.429,E,03.5,260,130821,04,E,A*00
$IIGLL,5523.148,N,01337.429,E,113014,A,A*53
$IIMWV,334,R,12.4,N,A*10
$IIMWV,324,T,09.3,N,A*1A
$IIRMC,113015,A,5523.148,N,01337.428,E,03.5,257,130821,04,E,A*04
$IIGLL,5523.148,N,01337.428,E,113015,A,A*53
$IIMWV,335,R,12.3,N,A*16
$IIMWV,325,T,09.3,N,A*1B
$IIRMC,113016,A,5523.148,N,01337.426,E,03.5,257,130821,04,E,A*09
$IIGLL,5523.148,N,01337.426,E,113016,A,A*5E
$IIMWV,335,R,12.4,N,A*11
$IIMWV,326,T,09.1,N,A*1A
$IIRMC,113017,A,5523.148,N,01337.424,E,03.6,259,130821,04,E,A*07
$IIGLL,5523.148,N,01337.424,E,113017,A,A*5D
$IIMWV,336,R,12.6,N,A*10
$IIMWV,326,T,09.2,N,A*19
$IIRMC,113018,A,5523.148,N,01337.422,E,03.7,257,130821,04,E,A*01
$IIGLL,5523.148,N,01337.422,E,113018,A,A*54
$IIMWV,336,R,12.6,N,A*10
$IIMWV,327,T,09.3,N,A*19
$IIRMC,113019,A,5523.147,N,01337.420,E,03.7,250,130821,04,E,A*0A
$IIGLL,5523.147,N,01337.420,E,113019,A,A*58
$IIMWV,338,R,12.7,N,A*1F
$IIMWV,327,T,09.2,N,A*18
$IIRMC,113020,A,5523.147,N,01337.418,E,03.6,248,130821,04,E,A*03
$IIGLL,5523.147,N,01337.418,E,113020,A,A*59
$IIMWV,339,R,12.7,N,A*1E
$IIMWV,330,T,09.3,N,A*1F
$IIRMC,113021,A,5523.147,N,01337.416,E,03.6,255,130821,04,E,A*00
$IIGLL,5523.147,N,01337.416,E,113021,A,A*56
$IIMWV,338,R,12.8,N,A*10
$IIMWV,331,T,09.3,N,A*1E
$IIRMC,113022,A,5523.146,N,01337.414,E,03.6,253,130821,04,E,A*06
$IIGLL,5523.146,N,01337.414,E,113022,A,A*56
$IIMWV,339,R,12.9,N,A*10
$IIMWV,330,T,09.5,N,A*19
$IIRMC,113023,A,5523.146,N,01337.412,E,03.6,249,130821,04,E,A*0A
$IIGLL,5523.146,N,01337.412,E,113023,A,A*51
$IIMWV,339,R,13.0,N,A*18
$IIMWV,331,T,09.4,N,A*19
$IIRMC,113024,A,5523.146,N,01337.411,E,03.6,247,130821,04,E,A*00
$IIGLL,5523.146,N,01337.411,E,113024,A,A*55
$IIMWV,340,R,12.9,N,A*1E
$IIMWV,331,T,09.5,N,A*18
$IIRMC,113025,A,5523.146,N,01337.410,E,03.5,250,130821,04,E,A*05
$IIGLL,5523.146,N,01337.410,E,113025,A,A*55
$IIMWV,340,R,12.9,N,A*1E
$IIMWV,333,T,09.5,N,A*1A
$IIRMC,113026,A,5523.145,N,01337.409,E,03.5,252,130821,04,E,A*0F
$IIGLL,5523.145,N,01337.409,E,113026,A,A*5D
$IIMWV,340,R,13.1,N,A*17
$IIMWV,333,T,09.6,N,A*19
$IIRMC,113027,A,5523.145,N,01337.407,E,03.4,254,130821,04,E,A*07
$IIGLL,5523.145,N,01337.407,E,113027,A,A*52
$IIMWV,338,R,13.1,N,A*18
$IIMWV,333,T,09.8,N,A*17
$IIRMC,113028,A,5523.145,N,01337.405,E,03.4,250,130821,04,E,A*0E
$IIGLL,5523.145,N,01337.405,E,113028,A,A*5F
$IIMWV,339,R,13.1,N,A*19
$IIMWV,331,T,09.9,N,A*14
$IIRMC,113028,A,5523.145,N,01337.405,E,03.4,250,130821,04,E,A*0E
$IIGLL,5523.145,N,01337.405,E,113028,A,A*5F
$IIMWV,338,R,13.1,N,A*18
$IIMWV,331,T,09.8,N,A*15
$IIRMC,113030,A,5523.144,N,01337.403,E,03.3,256,130821,04,E,A*01
$IIGLL,5523.144,N,01337.403,E,113030,A,A*51
$IIMWV,337,R,13.0,N,A*16
$IIMWV,331,T,09.9,N,A*14
$IIRMC,113030,A,5523.144,N,01337.403,E,03.3,256,130821,04,E,A*01
$IIGLL,5523.144,N,01337.403,E,113030,A,A*51
$IIMWV,338,R,13.0,N,A*19
$IIMWV,330,T,09.9,N,A*15
$IIRMC,113032,A,5523.144,N,01337.400,E,03.4,253,130821,04,E,A*02
$IIGLL,5523.144,N,01337.400,E,113032,A,A*50
$IIMWV,338,R,13.0,N,A*19
$IIMWV,331,T,09.9,N,A*14
$IIRMC,113033,A,5523.143,N,01337.398,E,03.5,254,130821,04,E,A*04
$IIGLL,5523.143,N,01337.398,E,113033,A,A*50
$IIMWV,337,R,12.9,N,A*1E
$IIMWV,331,T,09.8,N,A*15
$IIRMC,113034,A,5523.143,N,01337.397,E,03.5,254,130821,04,E,A*0C
$IIGLL,5523.143,N,01337.397,E,113034,A,A*58
$IIMWV,337,R,12.8,N,A*1F
$IIMWV,329,T,09.6,N,A*12
$IIRMC,113035,A,5523.143,N,01337.396,E,03.2,255,130821,04,E,A*0A
$IIGLL,5523.143,N,01337.396,E,113035,A,A*58
$IIMWV,336,R,13.0,N,A*17
$IIMWV,329,T,09.5,N,A*11
$IIRMC,113036,A,5523.143,N,01337.395,E,03.3,252,130821,04,E,A*0C
$IIGLL,5523.143,N,01337.395,E,113036,A,A*58
$IIMWV,336,R,12.6,N,A*10
$IIMWV,328,T,10.1,N,A*1C
$IIRMC,113037,A,5523.143,N,01337.393,E,03.5,257,130821,04,E,A*08
$IIGLL,5523.143,N,01337.393,E,113037,A,A*5F
$IIMWV,336,R,12.9,N,A*1F
$IIMWV,328,T,09.5,N,A*10
$IIRMC,113038,A,5523.143,N,01337.391,E,03.4,261,130821,04,E,A*01
$IIGLL,5523.143,N,01337.391,E,113038,A,A*52
$IIMWV,334,R,12.8,N,A*1C
$IIMWV,327,T,09.7,N,A*1D
$IIRMC,113039,A,5523.143,N,01337.390,E,03.4,256,130821,04,E,A*05
$IIGLL,5523.143,N,01337.390,E,113039,A,A*52
$IIMWV,336,R,12.8,N,A*1E
$IIMWV,325,T,09.8,N,A*10
$IIRMC,113040,A,5523.143,N,01337.388,E,03.3,255,130821,04,E,A*06
$IIGLL,5523.143,N,01337.388,E,113040,A,A*55
$IIMWV,336,R,12.9,N,A*1F
$IIMWV,327,T,09.7,N,A*1D
$IIRMC,113041,A,5523.142,N,01337.387,E,03.4,260,130821,04,E,A*08
$IIGLL,5523.142,N,01337.387,E,113041,A,A*5A
$IIMWV,334,R,12.8,N,A*1C
$IIMWV,328,T,09.8,N,A*1D
$IIRMC,113042,A,5523.142,N,01337.385,E,03.7,264,130821,04,E,A*0E
$IIGLL,5523.142,N,01337.385,E,113042,A,A*5B
$IIMWV,334,R,12.8,N,A*1C
$IIMWV,325,T,09.8,N,A*10
$IIRMC,113043,A,5523.142,N,01337.383,E,03.7,259,130821,04,E,A*07
$IIGLL,5523.142,N,01337.383,E,113043,A,A*5C
$IIMWV,334,R,12.9,N,A*1D
$IIMWV,324,T,09.6,N,A*1F
$IIRMC,113044,A,5523.142,N,01337.382,E,03.5,260,130821,04,E,A*09
$IIGLL,5523.142,N,01337.382,E,113044,A,A*5A
$IIMWV,334,R,12.8,N,A*1C
$IIMWV,325,T,09.6,N,A*1E
$IIRMC,113045,A,5523.141,N,01337.380,E,03.6,257,130821,04,E,A*0E
$IIGLL,5523.141,N,01337.380,E,113045,A,A*5A
$IIMWV,336,R,12.8,N,A*1E
$IIMWV,325,T,09.7,N,A*1F
$IIRMC,113046,A,5523.141,N,01337.378,E,03.7,261,130821,04,E,A*0E
$IIGLL,5523.141,N,01337.378,E,113046,A,A*5E
$IIMWV,334,R,12.7,N,A*13
$IIMWV,327,T,09.5,N,A*1F
$IIRMC,113047,A,5523.141,N,01337.376,E,03.9,265,130821,04,E,A*0B
$IIGLL,5523.141,N,01337.376,E,113047,A,A*51
$IIMWV,333,R,12.8,N,A*1B
$IIMWV,324,T,09.4,N,A*1D
$IIRMC,113047,A,5523.141,N,01337.376,E,03.9,265,130821,04,E,A*0B
$IIGLL,5523.141,N,01337.376,E,113047,A,A*51
$IIMWV,335,R,13.1,N,A*15
$IIMWV,322,T,09.3,N,A*1C
$IIRMC,113049,A,5523.141,N,01337.371,E,03.6,256,130821,04,E,A*0D
$IIGLL,5523.141,N,01337.371,E,113049,A,A*58
$IIMWV,335,R,12.9,N,A*1C
$IIMWV,326,T,09.7,N,A*1C
$IIRMC,113050,A,5523.140,N,01337.369,E,03.8,259,130821,04,E,A*0C
$IIGLL,5523.140,N,01337.369,E,113050,A,A*58
$IIMWV,335,R,12.8,N,A*1D
$IIMWV,326,T,09.7,N,A*1C
$IIRMC,113051,A,5523.140,N,01337.367,E,04.0,264,130821,04,E,A*02
$IIGLL,5523.140,N,01337.367,E,113051,A,A*57
$IIMWV,333,R,12.8,N,A*1B
$IIMWV,326,T,09.4,N,A*1F
$IIRMC,113052,A,5523.140,N,01337.365,E,04.0,262,130821,04,E,A*05
$IIGLL,5523.140,N,01337.365,E,113052,A,A*56
$IIMWV,333,R,12.9,N,A*1A
$IIMWV,322,T,09.2,N,A*1D
$IIRMC,113053,A,5523.140,N,01337.364,E,03.8,260,130821,04,E,A*08
$IIGLL,5523.140,N,01337.364,E,113053,A,A*56
$IIMWV,334,R,12.9,N,A*1D
$IIMWV,322,T,09.4,N,A*1B
$IIRMC,113054,A,5523.140,N,01337.362,E,03.8,259,130821,04,E,A*03
$IIGLL,5523.140,N,01337.362,E,113054,A,A*57
$IIMWV,335,R,12.8,N,A*1D
$IIMWV,324,T,09.6,N,A*1F
$IIRMC,113054,A,5523.140,N,01337.362,E,03.8,259,130821,04,E,A*03
$IIGLL,5523.140,N,01337.362,E,113054,A,A*57
$IIMWV,334,R,12.8,N,A*1C
$IIMWV,326,T,09.4,N,A*1F
$IIRMC,113056,A,5523.139,N,01337.358,E,04.2,262,130821,04,E,A*03
$IIGLL,5523.139,N,01337.358,E,113056,A,A*52
$IIMWV,334,R,13.0,N,A*15
$IIMWV,324,T,09.5,N,A*1C
$IIRMC,113057,A,5523.139,N,01337.356,E,04.2,262,130821,04,E,A*0C
$IIGLL,5523.139,N,01337.356,E,113057,A,A*5D
$IIMWV,334,R,13.2,N,A*17
$IIMWV,323,T,09.4,N,A*1A
$IIRMC,113058,A,5523.139,N,01337.354,E,04.0,259,130821,04,E,A*0B
$IIGLL,5523.139,N,01337.354,E,113058,A,A*50
$IIMWV,336,R,13.1,N,A*16
$IIMWV,323,T,09.5,N,A*1B
$IIRMC,113059,A,5523.139,N,01337.353,E,04.0,256,130821,04,E,A*02
$IIGLL,5523.139,N,01337.353,E,113059,A,A*56
$IIMWV,337,R,12.9,N,A*1E
$IIMWV,326,T,09.5,N,A*1E
$IIRMC,113100,A,5523.138,N,01337.351,E,04.1,258,130821,04,E,A*03
$IIGLL,5523.138,N,01337.351,E,113100,A,A*58
$IIMWV,336,R,13.3,N,A*14
$IIMWV,327,T,09.2,N,A*18
$IIRMC,113100,A,5523.138,N,01337.351,E,04.1,258,130821,04,E,A*03
$IIGLL,5523.138,N,01337.351,E,113100,A,A*58
$IIMWV,336,R,13.2,N,A*15
$IIMWV,326,T,09.6,N,A*1D
$IIRMC,113102,A,5523.137,N,01337.347,E,04.0,255,130821,04,E,A*05
$IIGLL,5523.137,N,01337.347,E,113102,A,A*52
$IIMWV,337,R,13.5,N,A*13
$IIMWV,326,T,09.5,N,A*1E
$IIRMC,113103,A,5523.137,N,01337.345,E,03.8,254,130821,04,E,A*08
$IIGLL,5523.137,N,01337.345,E,113103,A,A*51
$IIMWV,337,R,13.2,N,A*14
$IIMWV,328,T,09.8,N,A*1D
$IIRMC,113104,A,5523.137,N,01337.343,E,03.8,256,130821,04,E,A*0B
$IIGLL,5523.137,N,01337.343,E,113104,A,A*50
$IIMWV,337,R,13.2,N,A*14
$IIMWV,328,T,09.7,N,A*12
$IIRMC,113105,A,5523.136,N,01337.342,E,03.7,254,130821,04,E,A*07
$IIGLL,5523.136,N,01337.342,E,113105,A,A*51
$IIMWV,338,R,13.3,N,A*1A
$IIMWV,328,T,09.7,N,A*12
$IIRMC,113106,A,5523.136,N,01337.340,E,03.7,253,130821,04,E,A*01
$IIGLL,5523.136,N,01337.340,E,113106,A,A*50
$IIMWV,339,R,13.1,N,A*19
$IIMWV,330,T,09.8,N,A*14
$IIRMC,113107,A,5523.136,N,01337.338,E,03.8,253,130821,04,E,A*00
$IIGLL,5523.136,N,01337.338,E,113107,A,A*5E
$IIMWV,338,R,13.1,N,A*18
$IIMWV,331,T,09.6,N,A*1B
$IIRMC,113108,A,5523.136,N,01337.336,E,03.8,255,130821,04,E,A*07
$IIGLL,5523.136,N,01337.336,E,113108,A,A*5F
$IIMWV,337,R,13.1,N,A*17
$IIMWV,330,T,09.5,N,A*19
$IIRMC,113109,A,5523.135,N,01337.335,E,03.6,253,130821,04,E,A*0E
$IIGLL,5523.135,N,01337.335,E,113109,A,A*5E
$IIMWV,338,R,13.1,N,A*18
$IIMWV,328,T,09.6,N,A*13
$IIRMC,113110,A,5523.135,N,01337.333,E,03.6,253,130821,04,E,A*00
$IIGLL,5523.135,N,01337.333,E,113110,A,A*50
$IIMWV,339,R,13.0,N,A*18
$IIMWV,330,T,09.7,N,A*1B
$IIRMC,113111,A,5523.135,N,01337.331,E,03.8,257,130821,04,E,A*09
$IIGLL,5523.135,N,01337.331,E,113111,A,A*53
$IIMWV,338,R,13.0,N,A*19
$IIMWV,331,T,09.5,N,A*18
$IIRMC,113112,A,5523.135,N,01337.329,E,03.8,256,130821,04,E,A*02
$IIGLL,5523.135,N,01337.329,E,113112,A,A*59
$IIMWV,338,R,13.2,N,A*1B
$IIMWV,330,T,09.5,N,A*19
$IIRMC,113113,A,5523.134,N,01337.328,E,03.7,254,130821,04,E,A*0E
$IIGLL,5523.134,N,01337.328,E,113113,A,A*58
$IIMWV,339,R,13.0,N,A*18
$IIMWV,330,T,09.6,N,A*1A
$IIRMC,113114,A,5523.134,N,01337.325,E,03.8,251,130821,04,E,A*0E
$IIGLL,5523.134,N,01337.325,E,113114,A,A*52
$IIMWV,341,R,13.0,N,A*17
$IIMWV,331,T,09.4,N,A*19
$IIRMC,113115,A,5523.134,N,01337.324,E,03.7,255,130821,04,E,A*05
$IIGLL,5523.134,N,01337.324,E,113115,A,A*52
$IIMWV,340,R,13.1,N,A*17
$IIMWV,334,T,09.4,N,A*1C
$IIRMC,113116,A,5523.133,N,01337.322,E,03.7,252,130821,04,E,A*00
$IIGLL,5523.133,N,01337.322,E,113116,A,A*50
$IIMWV,340,R,13.2,N,A*14
$IIMWV,333,T,09.6,N,A*19
$IIRMC,113117,A,5523.133,N,01337.320,E,03.6,250,130821,04,E,A*00
$IIGLL,5523.133,N,01337.320,E,113117,A,A*53
$IIMWV,340,R,13.5,N,A*13
$IIMWV,333,T,09.7,N,A*18
$IIRMC,113118,A,5523.132,N,01337.319,E,03.6,250,130821,04,E,A*04
$IIGLL,5523.132,N,01337.319,E,113118,A,A*57
$IIMWV,341,R,13.2,N,A*15
$IIMWV,333,T,10.0,N,A*17
$IIRMC,113119,A,5523.132,N,01337.317,E,03.9,250,130821,04,E,A*04
$IIGLL,5523.132,N,01337.317,E,113119,A,A*58
$IIMWV,342,R,13.4,N,A*10
$IIMWV,334,T,09.8,N,A*10
$IIRMC,113120,A,5523.132,N,01337.315,E,03.7,250,130821,04,E,A*02
$IIGLL,5523.132,N,01337.315,E,113120,A,A*50
$IIMWV,341,R,13.3,N,A*14
$IIMWV,335,T,09.7,N,A*1E
$IIRMC,113121,A,5523.131,N,01337.314,E,03.5,248,130821,04,E,A*0A
$IIGLL,5523.131,N,01337.314,E,113121,A,A*53
$IIMWV,342,R,13.2,N,A*16
$IIMWV,334,T,09.8,N,A*10
$IIRMC,113122,A,5523.131,N,01337.313,E,03.5,249,130821,04,E,A*0F
$IIGLL,5523.131,N,01337.313,E,113122,A,A*57
$IIMWV,342,R,13.3,N,A*17
$IIMWV,336,T,09.8,N,A*12
$IIRMC,113123,A,5523.131,N,01337.311,E,03.6,251,130821,04,E,A*06
$IIGLL,5523.131,N,01337.311,E,113123,A,A*54
$IIMWV,341,R,13.0,N,A*17
$IIMWV,336,T,09.9,N,A*13
$IIRMC,113124,A,5523.131,N,01337.309,E,03.6,252,130821,04,E,A*0B
$IIGLL,5523.131,N,01337.309,E,113124,A,A*5A
$IIMWV,341,R,13.0,N,A*17
$IIMWV,334,T,09.6,N,A*1E
$IIRMC,113125,A,5523.130,N,01337.308,E,03.5,246,130821,04,E,A*0C
$IIGLL,5523.130,N,01337.308,E,113125,A,A*5B
$IIMWV,343,R,12.8,N,A*1C
$IIMWV,334,T,09.6,N,A*1E
$IIRMC,113126,A,5523.130,N,01337.307,E,03.3,251,130821,04,E,A*00
$IIGLL,5523.130,N,01337.307,E,113126,A,A*57
$IIMWV,341,R,12.9,N,A*1F
$IIMWV,337,T,09.4,N,A*1F
$IIRMC,113127,A,5523.130,N,01337.305,E,03.4,257,130821,04,E,A*02
$IIGLL,5523.130,N,01337.305,E,113127,A,A*54
$IIMWV,340,R,12.9,N,A*1E
$IIMWV,335,T,09.8,N,A*11
$IIRMC,113128,A,5523.129,N,01337.303,E,03.5,252,130821,04,E,A*07
$IIGLL,5523.129,N,01337.303,E,113128,A,A*55
$IIMWV,341,R,12.8,N,A*1E
$IIMWV,334,T,09.7,N,A*1F
$IIRMC,113129,A,5523.129,N,01337.302,E,03.4,251,130821,04,E,A*05
$IIGLL,5523.129,N,01337.302,E,113129,A,A*55
$IIMWV,341,R,12.9,N,A*1F
$IIMWV,334,T,09.5,N,A*1D
$IIRMC,113130,A,5523.128,N,01337.300,E,03.3,254,130821,04,E,A*0C
$IIGLL,5523.128,N,01337.300,E,113130,A,A*5E
$IIMWV,340,R,12.7,N,A*10
$IIMWV,334,T,09.7,N,A*1F
$IIRMC,113131,A,5523.128,N,01337.298,E,03.4,253,130821,04,E,A*0D
$IIGLL,5523.128,N,01337.298,E,113131,A,A*5F
$IIMWV,340,R,12.9,N,A*1E
$IIMWV,333,T,09.6,N,A*19
$IIRMC,113132,A,5523.127,N,01337.297,E,03.3,254,130821,04,E,A*0E
$IIGLL,5523.127,N,01337.297,E,113132,A,A*5C
$IIMWV,339,R,12.9,N,A*10
$IIMWV,334,T,09.7,N,A*1F
$IIRMC,113133,A,5523.127,N,01337.295,E,03.4,254,130821,04,E,A*0A
$IIGLL,5523.127,N,01337.295,E,113133,A,A*5F
$IIMWV,339,R,12.8,N,A*11
$IIMWV,332,T,09.7,N,A*19
$IIRMC,113134,A,5523.127,N,01337.293,E,03.6,253,130821,04,E,A*0E
$IIGLL,5523.127,N,01337.293,E,113134,A,A*5E
$IIMWV,340,R,12.6,N,A*11
$IIMWV,331,T,09.6,N,A*1B
$IIRMC,113135,A,5523.127,N,01337.292,E,03.4,254,130821,04,E,A*0B
$IIGLL,5523.127,N,01337.292,E,113135,A,A*5E
$IIMWV,339,R,12.8,N,A*11
$IIMWV,333,T,09.2,N,A*1D
$IIRMC,113136,A,5523.127,N,01337.290,E,03.4,257,130821,04,E,A*09
$IIGLL,5523.127,N,01337.290,E,113136,A,A*5F
$IIMWV,339,R,12.8,N,A*11
$IIMWV,331,T,09.6,N,A*1B
$IIRMC,113137,A,5523.126,N,01337.289,E,03.4,254,130821,04,E,A*02
$IIGLL,5523.126,N,01337.289,E,113137,A,A*57
$IIMWV,340,R,13.0,N,A*16
$IIMWV,331,T,09.6,N,A*1B
$IIRMC,113138,A,5523.126,N,01337.287,E,03.3,255,130821,04,E,A*05
$IIGLL,5523.126,N,01337.287,E,113138,A,A*56
$IIMWV,338,R,13.1,N,A*18
$IIMWV,333,T,09.8,N,A*17
$IIRMC,113138,A,5523.126,N,01337.287,E,03.3,255,130821,04,E,A*05
$IIGLL,5523.126,N,01337.287,E,113138,A,A*56
$IIMWV,340,R,13.0,N,A*16
$IIMWV,331,T,10.0,N,A*15
$IIRMC,113140,A,5523.126,N,01337.284,E,03.3,253,130821,04,E,A*0F
$IIGLL,5523.126,N,01337.284,E,113140,A,A*5A
$IIMWV,339,R,12.9,N,A*10
$IIMWV,334,T,09.9,N,A*11
$IIRMC,113141,A,5523.126,N,01337.282,E,03.3,253,130821,04,E,A*08
$IIGLL,5523.126,N,01337.282,E,113141,A,A*5D
$IIMWV,339,R,12.9,N,A*10
$IIMWV,332,T,09.7,N,A*19
$IIRMC,113141,A,5523.126,N,01337.282,E,03.3,253,130821,04,E,A*08
$IIGLL,5523.126,N,01337.282,E,113141,A,A*5D
$IIMWV,340,R,12.8,N,A*1F
$IIMWV,332,T,09.7,N,A*19
$IIRMC,113143,A,5523.125,N,01337.280,E,03.2,249,130821,04,E,A*01
$IIGLL,5523.125,N,01337.280,E,113143,A,A*5E
$IIMWV,340,R,12.7,N,A*10
$IIMWV,334,T,09.7,N,A*1F
$IIRMC,113144,A,5523.125,N,01337.278,E,03.3,252,130821,04,E,A*0A
$IIGLL,5523.125,N,01337.278,E,113144,A,A*5E
$IIMWV,339,R,12.7,N,A*1E
$IIMWV,334,T,09.7,N,A*1F
$IIRMC,113145,A,5523.125,N,01337.276,E,03.4,251,130821,04,E,A*01
$IIGLL,5523.125,N,01337.276,E,113145,A,A*51
$IIMWV,340,R,12.8,N,A*1F
$IIMWV,332,T,09.6,N,A*18
