$IIGLL,5416.528,N,01340.755,E,095835,A,A*5A
$IIMWV,039,R,09.0,N,A*10
$IIMWV,058,T,07.1,N,A*1E
$IIRMC,095835,A,5416.528,N,01340.755,E,03.5,141,070821,04,E,A*0C
$IIGLL,5416.527,N,01340.756,E,095836,A,A*55
$IIMWV,038,R,09.2,N,A*13
$IIMWV,058,T,06.6,N,A*18
$IIRMC,095837,A,5416.527,N,01340.757,E,03.4,139,070821,04,E,A*0D
$IIGLL,5416.527,N,01340.757,E,095837,A,A*55
$IIMWV,037,R,09.3,N,A*1D
$IIMWV,056,T,06.8,N,A*18
$IIRMC,095838,A,5416.526,N,01340.758,E,03.4,139,070821,04,E,A*0C
$IIGLL,5416.526,N,01340.758,E,095838,A,A*54
$IIMWV,037,R,09.4,N,A*1A
$IIMWV,054,T,06.8,N,A*1A
$IIRMC,095839,A,5416.525,N,01340.759,E,03.4,139,070821,04,E,A*0F
$IIGLL,5416.525,N,01340.759,E,095839,A,A*57
$IIMWV,038,R,09.4,N,A*15
$IIMWV,054,T,06.9,N,A*1B
$IIRMC,095840,A,5416.525,N,01340.760,E,03.4,139,070821,04,E,A*0B
$IIGLL,5416.525,N,01340.760,E,095840,A,A*53
$IIMWV,038,R,09.8,N,A*19
$IIMWV,055,T,07.0,N,A*12
$IIRMC,095841,A,5416.524,N,01340.761,E,03.4,139,070821,04,E,A*0A
$IIGLL,5416.524,N,01340.761,E,095841,A,A*52
$IIMWV,040,R,09.8,N,A*16
$IIMWV,054,T,07.3,N,A*10
$IIRMC,095842,A,5416.523,N,01340.762,E,03.4,139,070821,04,E,A*0D
$IIGLL,5416.523,N,01340.762,E,095842,A,A*55
$IIMWV,039,R,09.7,N,A*17
$IIMWV,057,T,07.4,N,A*14
$IIRMC,095843,A,5416.522,N,01340.763,E,03.4,139,070821,04,E,A*0C
$IIGLL,5416.522,N,01340.763,E,095843,A,A*54
$IIMWV,041,R,09.7,N,A*18
$IIMWV,056,T,07.3,N,A*12
$IIRMC,095844,A,5416.522,N,01340.764,E,03.4,139,070821,04,E,A*0C
$IIGLL,5416.522,N,01340.764,E,095844,A,A*54
$IIMWV,040,R,09.1,N,A*1F
$IIMWV,059,T,07.4,N,A*1A
$IIRMC,095845,A,5416.522,N,01340.764,E,03.4,139,070821,04,E,A*0D
$IIGLL,5416.522,N,01340.764,E,095845,A,A*55
$IIMWV,039,R,09.2,N,A*12
$IIMWV,058,T,06.8,N,A*16
$IIRMC,095846,A,5416.521,N,01340.766,E,03.4,144,070821,04,E,A*05
$IIGLL,5416.521,N,01340.766,E,095846,A,A*57
$IIMWV,040,R,09.4,N,A*1A
$IIMWV,057,T,06.7,N,A*16
$IIRMC,095847,A,5416.520,N,01340.767,E,03.4,147,070821,04,E,A*07
$IIGLL,5416.519,N,01340.767,E,095848,A,A*53
$IIMWV,041,R,09.2,N,A*1D
$IIMWV,057,T,06.6,N,A*17
$IIRMC,095848,A,5416.519,N,01340.767,E,03.4,148,070821,04,E,A*0D
$IIGLL,5416.518,N,01340.768,E,095849,A,A*5C
$IIMWV,038,R,08.9,N,A*19
$IIMWV,060,T,06.9,N,A*1C
$IIRMC,095849,A,5416.518,N,01340.768,E,03.5,149,070821,04,E,A*02
$IIGLL,5416.517,N,01340.769,E,095850,A,A*5A
$IIMWV,041,R,08.4,N,A*1A
$IIMWV,057,T,06.5,N,A*14
$IIRMC,095850,A,5416.517,N,01340.769,E,03.5,149,070821,04,E,A*04
$IIGLL,5416.517,N,01340.770,E,095851,A,A*53
$IIMWV,039,R,08.5,N,A*14
$IIMWV,063,T,06.1,N,A*17
$IIRMC,095851,A,5416.517,N,01340.770,E,03.5,150,070821,04,E,A*05
$IIGLL,5416.516,N,01340.771,E,095852,A,A*50
$IIMWV,042,R,08.5,N,A*18
$IIMWV,060,T,06.1,N,A*14
$IIRMC,095852,A,5416.516,N,01340.771,E,03.5,150,070821,04,E,A*06
$IIGLL,5416.515,N,01340.772,E,095853,A,A*51
$IIMWV,041,R,08.6,N,A*18
$IIMWV,064,T,06.2,N,A*13
$IIRMC,095853,A,5416.515,N,01340.772,E,03.5,150,070821,04,E,A*07
$IIGLL,5416.514,N,01340.772,E,095854,A,A*57
$IIMWV,044,R,08.6,N,A*1D
$IIMWV,063,T,06.3,N,A*15
$IIRMC,095854,A,5416.514,N,01340.772,E,03.5,150,070821,04,E,A*01
$IIGLL,5416.513,N,01340.773,E,095855,A,A*50
$IIMWV,045,R,08.2,N,A*18
$IIMWV,066,T,06.4,N,A*17
$IIRMC,095855,A,5416.513,N,01340.773,E,03.5,150,070821,04,E,A*06
$IIGLL,5416.514,N,01340.775,E,095856,A,A*52
$IIMWV,046,R,08.4,N,A*1D
$IIMWV,069,T,06.2,N,A*1E
$IIRMC,095856,A,5416.514,N,01340.775,E,03.4,148,070821,04,E,A*0C
$IIGLL,5416.514,N,01340.777,E,095857,A,A*51
$IIMWV,047,R,08.1,N,A*19
$IIMWV,069,T,06.4,N,A*18
$IIRMC,095857,A,5416.514,N,01340.777,E,03.4,147,070821,04,E,A*00
$IIGLL,5416.513,N,01340.778,E,095858,A,A*56
$IIMWV,046,R,08.2,N,A*1B
$IIMWV,070,T,06.2,N,A*16
$IIRMC,095858,A,5416.513,N,01340.778,E,03.4,146,070821,04,E,A*06
$IIGLL,5416.511,N,01340.778,E,095859,A,A*55
$IIMWV,047,R,08.0,N,A*18
$IIMWV,070,T,06.2,N,A*16
$IIRMC,095859,A,5416.511,N,01340.778,E,03.3,145,070821,04,E,A*01
$IIGLL,5416.508,N,01340.778,E,095900,A,A*50
$IIMWV,046,R,07.9,N,A*1F
$IIMWV,070,T,06.1,N,A*15
$IIRMC,095900,A,5416.508,N,01340.778,E,03.3,146,070821,04,E,A*07
$IIGLL,5416.506,N,01340.779,E,095901,A,A*5E
$IIMWV,049,R,08.1,N,A*17
$IIMWV,069,T,05.9,N,A*16
$IIRMC,095901,A,5416.506,N,01340.779,E,03.4,144,070821,04,E,A*0C
$IIGLL,5416.504,N,01340.779,E,095902,A,A*5F
$IIMWV,046,R,07.9,N,A*1F
$IIMWV,073,T,06.2,N,A*15
$IIRMC,095902,A,5416.504,N,01340.779,E,03.3,144,070821,04,E,A*0A
$IIGLL,5416.503,N,01340.779,E,095903,A,A*59
$IIMWV,046,R,08.1,N,A*18
$IIMWV,069,T,05.9,N,A*16
$IIRMC,095903,A,5416.503,N,01340.779,E,03.3,145,070821,04,E,A*0D
$IIGLL,5416.501,N,01340.780,E,095904,A,A*5A
$IIMWV,045,R,08.0,N,A*1A
$IIMWV,069,T,06.2,N,A*1E
$IIRMC,095904,A,5416.501,N,01340.780,E,03.2,144,070821,04,E,A*0E
$IIGLL,5416.499,N,01340.781,E,095905,A,A*5A
$IIMWV,044,R,08.1,N,A*1A
$IIMWV,067,T,06.0,N,A*12
$IIRMC,095905,A,5416.499,N,01340.781,E,03.2,143,070821,04,E,A*09
$IIGLL,5416.497,N,01340.781,E,095906,A,A*57
$IIMWV,045,R,07.9,N,A*1C
$IIMWV,065,T,06.0,N,A*10
$IIRMC,095906,A,5416.497,N,01340.781,E,03.3,145,070821,04,E,A*03
$IIGLL,5416.495,N,01340.781,E,095907,A,A*54
$IIMWV,043,R,08.2,N,A*1E
$IIMWV,068,T,06.0,N,A*1D
$IIRMC,095907,A,5416.495,N,01340.781,E,03.3,145,070821,04,E,A*00
$IIGLL,5416.494,N,01340.782,E,095908,A,A*59
$IIMWV,044,R,08.0,N,A*1B
$IIMWV,065,T,06.0,N,A*10
$IIRMC,095908,A,5416.494,N,01340.782,E,03.2,146,070821,04,E,A*0F
$IIGLL,5416.493,N,01340.782,E,095909,A,A*5F
$IIMWV,042,R,08.2,N,A*1F
$IIMWV,065,T,06.0,N,A*10
$IIRMC,095909,A,5416.493,N,01340.782,E,03.2,145,070821,04,E,A*0A
$IIGLL,5416.493,N,01340.783,E,095910,A,A*56
$IIMWV,042,R,07.9,N,A*1B
$IIMWV,063,T,06.0,N,A*16
$IIRMC,095910,A,5416.493,N,01340.783,E,03.2,146,070821,04,E,A*00
$IIGLL,5416.494,N,01340.785,E,095911,A,A*56
$IIMWV,041,R,07.8,N,A*19
$IIMWV,063,T,05.8,N,A*1D
$IIRMC,095911,A,5416.494,N,01340.785,E,03.2,146,070821,04,E,A*00
$IIGLL,5416.493,N,01340.786,E,095912,A,A*51
$IIMWV,040,R,07.8,N,A*18
$IIMWV,063,T,05.7,N,A*12
$IIRMC,095912,A,5416.493,N,01340.786,E,03.1,146,070821,04,E,A*04
$IIGLL,5416.492,N,01340.787,E,095913,A,A*50
$IIMWV,042,R,07.7,N,A*15
$IIMWV,059,T,05.6,N,A*1A
$IIRMC,095913,A,5416.492,N,01340.787,E,03.1,145,070821,04,E,A*06
$IIGLL,5416.491,N,01340.787,E,095914,A,A*54
$IIMWV,044,R,07.7,N,A*13
$IIMWV,064,T,05.6,N,A*14
$IIRMC,095914,A,5416.491,N,01340.787,E,03.2,148,070821,04,E,A*0C
$IIGLL,5416.490,N,01340.788,E,095915,A,A*5B
$IIMWV,046,R,07.7,N,A*11
$IIMWV,067,T,05.7,N,A*16
$IIRMC,095915,A,5416.490,N,01340.788,E,03.2,149,070821,04,E,A*02
$IIGLL,5416.489,N,01340.789,E,095916,A,A*51
$IIMWV,045,R,07.6,N,A*13
$IIMWV,069,T,05.8,N,A*17
$IIRMC,095916,A,5416.489,N,01340.789,E,03.3,151,070821,04,E,A*00
$IIGLL,5416.489,N,01340.791,E,095917,A,A*59
$IIMWV,047,R,07.6,N,A*11
$IIMWV,069,T,05.6,N,A*19
$IIRMC,095917,A,5416.489,N,01340.791,E,03.2,148,070821,04,E,A*01
$IIGLL,5416.487,N,01340.791,E,095918,A,A*58
$IIMWV,048,R,08.0,N,A*17
$IIMWV,071,T,05.8,N,A*1E
$IIRMC,095918,A,5416.487,N,01340.791,E,03.2,149,070821,04,E,A*01
$IIGLL,5416.486,N,01340.792,E,095919,A,A*5B
$IIMWV,047,R,07.9,N,A*1E
$IIMWV,070,T,06.2,N,A*16
$IIRMC,095919,A,5416.486,N,01340.792,E,03.2,149,070821,04,E,A*02
$IIGLL,5416.486,N,01340.793,E,095920,A,A*50
$IIMWV,046,R,07.7,N,A*11
$IIMWV,070,T,06.0,N,A*14
$IIRMC,095920,A,5416.486,N,01340.793,E,03.2,149,070821,04,E,A*09
$IIGLL,5416.486,N,01340.793,E,095920,A,A*50
$IIMWV,045,R,07.7,N,A*12
$IIMWV,069,T,05.8,N,A*17
$IIRMC,095920,A,5416.486,N,01340.793,E,03.2,149,070821,04,E,A*09
$IIGLL,5416.484,N,01340.794,E,095922,A,A*57
$IIMWV,044,R,08.1,N,A*1A
$IIMWV,068,T,05.8,N,A*16
$IIRMC,095922,A,5416.484,N,01340.794,E,03.2,150,070821,04,E,A*06
$IIGLL,5416.483,N,01340.795,E,095923,A,A*50
$IIMWV,042,R,07.8,N,A*1A
$IIMWV,065,T,06.0,N,A*10
$IIRMC,095923,A,5416.483,N,01340.795,E,03.2,150,070821,04,E,A*01
$IIGLL,5416.482,N,01340.796,E,095924,A,A*55
$IIMWV,040,R,08.1,N,A*1E
$IIMWV,064,T,05.7,N,A*15
$IIRMC,095924,A,5416.482,N,01340.796,E,03.1,147,070821,04,E,A*01
$IIGLL,5416.482,N,01340.797,E,095925,A,A*55
$IIMWV,040,R,08.3,N,A*1C
$IIMWV,059,T,05.9,N,A*15
$IIRMC,095925,A,5416.482,N,01340.797,E,03.1,145,070821,04,E,A*03
$IIGLL,5416.481,N,01340.797,E,095926,A,A*55
$IIMWV,039,R,08.5,N,A*14
$IIMWV,059,T,06.1,N,A*1E
$IIRMC,095926,A,5416.481,N,01340.797,E,03.1,144,070821,04,E,A*02
$IIGLL,5416.481,N,01340.799,E,095927,A,A*5A
$IIMWV,040,R,08.2,N,A*1D
$IIMWV,057,T,06.3,N,A*12
$IIRMC,095927,A,5416.481,N,01340.799,E,03.1,147,070821,04,E,A*0E
$IIGLL,5416.480,N,01340.799,E,095928,A,A*54
$IIMWV,042,R,08.4,N,A*19
$IIMWV,058,T,06.1,N,A*1F
$IIRMC,095928,A,5416.480,N,01340.799,E,03.2,148,070821,04,E,A*0C
$IIGLL,5416.478,N,01340.800,E,095929,A,A*5D
$IIMWV,043,R,08.5,N,A*19
$IIMWV,062,T,06.3,N,A*14
$IIRMC,095929,A,5416.478,N,01340.800,E,03.2,147,070821,04,E,A*0A
$IIGLL,5416.477,N,01340.800,E,095930,A,A*5A
$IIMWV,042,R,08.1,N,A*1C
$IIMWV,062,T,06.4,N,A*13
$IIRMC,095930,A,5416.477,N,01340.800,E,03.0,144,070821,04,E,A*0C
$IIGLL,5416.476,N,01340.801,E,095931,A,A*5B
$IIMWV,039,R,08.0,N,A*11
$IIMWV,062,T,06.1,N,A*16
$IIRMC,095931,A,5416.476,N,01340.801,E,03.1,145,070821,04,E,A*0D
$IIGLL,5416.475,N,01340.801,E,095932,A,A*5B
$IIMWV,037,R,07.8,N,A*18
$IIMWV,058,T,05.8,N,A*15
$IIRMC,095932,A,5416.475,N,01340.801,E,03.1,146,070821,04,E,A*0E
$IIGLL,5416.474,N,01340.802,E,095933,A,A*58
$IIMWV,035,R,07.6,N,A*14
$IIMWV,056,T,05.5,N,A*16
$IIRMC,095933,A,5416.474,N,01340.802,E,03.1,148,070821,04,E,A*03
$IIGLL,5416.473,N,01340.802,E,095934,A,A*58
$IIMWV,034,R,07.6,N,A*15
$IIMWV,054,T,05.3,N,A*12
$IIRMC,095934,A,5416.473,N,01340.802,E,03.2,150,070821,04,E,A*09
$IIGLL,5416.472,N,01340.803,E,095935,A,A*59
$IIMWV,035,R,07.6,N,A*14
$IIMWV,053,T,05.2,N,A*14
$IIRMC,095935,A,5416.472,N,01340.803,E,03.2,150,070821,04,E,A*08
$IIGLL,5416.471,N,01340.804,E,095936,A,A*5E
$IIMWV,036,R,07.5,N,A*14
$IIMWV,055,T,05.2,N,A*12
$IIRMC,095936,A,5416.471,N,01340.804,E,03.2,150,070821,04,E,A*0F
$IIGLL,5416.470,N,01340.804,E,095937,A,A*5E
$IIMWV,035,R,07.6,N,A*14
$IIMWV,057,T,05.2,N,A*10
$IIRMC,095937,A,5416.470,N,01340.804,E,03.2,148,070821,04,E,A*06
$IIGLL,5416.469,N,01340.805,E,095938,A,A*58
$IIMWV,038,R,07.6,N,A*19
$IIMWV,055,T,05.2,N,A*12
$IIRMC,095938,A,5416.469,N,01340.805,E,03.2,146,070821,04,E,A*0E
$IIGLL,5416.469,N,01340.806,E,095939,A,A*5A
$IIMWV,038,R,07.5,N,A*1A
$IIMWV,059,T,05.4,N,A*18
$IIRMC,095939,A,5416.469,N,01340.806,E,03.1,146,070821,04,E,A*0F
$IIGLL,5416.468,N,01340.807,E,095940,A,A*54
$IIMWV,039,R,07.5,N,A*1B
$IIMWV,059,T,05.3,N,A*1F
$IIRMC,095940,A,5416.468,N,01340.807,E,03.2,145,070821,04,E,A*01
$IIGLL,5416.466,N,01340.808,E,095941,A,A*54
$IIMWV,040,R,07.9,N,A*19
$IIMWV,061,T,05.3,N,A*14
$IIRMC,095941,A,5416.466,N,01340.808,E,03.1,143,070821,04,E,A*04
$IIGLL,5416.465,N,01340.808,E,095942,A,A*54
$IIMWV,042,R,07.8,N,A*1A
$IIMWV,060,T,05.7,N,A*11
$IIRMC,095942,A,5416.465,N,01340.808,E,03.2,143,070821,04,E,A*07
$IIGLL,5416.464,N,01340.809,E,095943,A,A*55
$IIMWV,043,R,07.7,N,A*14
$IIMWV,064,T,05.7,N,A*15
$IIRMC,095943,A,5416.464,N,01340.809,E,03.2,144,070821,04,E,A*01
$IIGLL,5416.463,N,01340.810,E,095944,A,A*5D
$IIMWV,045,R,07.6,N,A*13
$IIMWV,065,T,05.7,N,A*14
$IIRMC,095944,A,5416.463,N,01340.810,E,03.2,144,070821,04,E,A*09
$IIGLL,5416.462,N,01340.810,E,095945,A,A*5D
$IIMWV,048,R,07.5,N,A*1D
$IIMWV,069,T,05.7,N,A*18
$IIRMC,095945,A,5416.462,N,01340.810,E,03.2,140,070821,04,E,A*0D
$IIGLL,5416.461,N,01340.811,E,095946,A,A*5C
$IIMWV,049,R,07.9,N,A*10
$IIMWV,072,T,05.7,N,A*12
$IIRMC,095946,A,5416.461,N,01340.811,E,03.2,137,070821,04,E,A*0C
$IIGLL,5416.461,N,01340.813,E,095947,A,A*5F
$IIMWV,049,R,07.9,N,A*10
$IIMWV,071,T,06.2,N,A*17
$IIRMC,095947,A,5416.461,N,01340.813,E,03.3,137,070821,04,E,A*0E
$IIGLL,5416.460,N,01340.814,E,095948,A,A*56
$IIMWV,049,R,07.8,N,A*11
$IIMWV,072,T,06.1,N,A*17
$IIRMC,095948,A,5416.460,N,01340.814,E,03.3,136,070821,04,E,A*06
$IIGLL,5416.460,N,01340.815,E,095949,A,A*56
$IIMWV,047,R,07.3,N,A*14
$IIMWV,073,T,06.0,N,A*17
$IIRMC,095949,A,5416.460,N,01340.815,E,03.3,135,070821,04,E,A*05
$IIGLL,5416.459,N,01340.816,E,095950,A,A*57
$IIMWV,048,R,07.4,N,A*1C
$IIMWV,073,T,05.5,N,A*11
$IIRMC,095950,A,5416.459,N,01340.816,E,03.2,135,070821,04,E,A*05
$IIGLL,5416.459,N,01340.818,E,095951,A,A*58
$IIMWV,046,R,07.5,N,A*13
$IIMWV,073,T,05.6,N,A*12
$IIRMC,095951,A,5416.459,N,01340.818,E,03.3,135,070821,04,E,A*0B
$IIGLL,5416.457,N,01340.818,E,095952,A,A*55
$IIMWV,047,R,07.1,N,A*16
$IIMWV,072,T,05.6,N,A*13
$IIRMC,095952,A,5416.457,N,01340.818,E,03.3,136,070821,04,E,A*05
$IIGLL,5416.457,N,01340.819,E,095953,A,A*55
$IIMWV,045,R,07.0,N,A*15
$IIMWV,074,T,05.3,N,A*10
$IIRMC,095953,A,5416.457,N,01340.819,E,03.3,135,070821,04,E,A*06
$IIGLL,5416.456,N,01340.820,E,095954,A,A*59
$IIMWV,047,R,06.8,N,A*1E
$IIMWV,072,T,05.1,N,A*14
$IIRMC,095954,A,5416.456,N,01340.820,E,03.2,136,070821,04,E,A*08
$IIGLL,5416.455,N,01340.821,E,095955,A,A*5A
$IIMWV,045,R,07.1,N,A*14
$IIMWV,074,T,05.0,N,A*13
$IIRMC,095955,A,5416.455,N,01340.821,E,03.3,138,070821,04,E,A*04
$IIGLL,5416.454,N,01340.821,E,095956,A,A*58
$IIMWV,047,R,06.9,N,A*1F
$IIMWV,071,T,05.2,N,A*14
$IIRMC,095956,A,5416.454,N,01340.821,E,03.2,136,070821,04,E,A*09
$IIGLL,5416.452,N,01340.822,E,095957,A,A*5C
$IIMWV,044,R,06.8,N,A*1D
$IIMWV,074,T,05.1,N,A*12
$IIRMC,095957,A,5416.452,N,01340.822,E,03.2,137,070821,04,E,A*0C
$IIGLL,5416.450,N,01340.822,E,095958,A,A*51
$IIMWV,044,R,06.7,N,A*12
$IIMWV,071,T,04.8,N,A*1F
$IIRMC,095958,A,5416.450,N,01340.822,E,03.3,139,070821,04,E,A*0E
$IIGLL,5416.449,N,01340.823,E,095959,A,A*59
$IIMWV,041,R,07.0,N,A*11
$IIMWV,072,T,04.8,N,A*1C
$IIRMC,095959,A,5416.449,N,01340.823,E,03.3,137,070821,04,E,A*08
$IIGLL,5416.449,N,01340.824,E,100000,A,A*56
$IIMWV,044,R,06.9,N,A*1C
$IIMWV,068,T,04.9,N,A*16
$IIRMC,100000,A,5416.449,N,01340.824,E,03.2,137,070821,04,E,A*06
$IIGLL,5416.449,N,01340.826,E,100001,A,A*55
$IIMWV,042,R,07.2,N,A*10
$IIMWV,070,T,04.9,N,A*1F
$IIRMC,100001,A,5416.449,N,01340.826,E,03.2,138,070821,04,E,A*0A
$IIGLL,5416.449,N,01340.826,E,100001,A,A*55
$IIMWV,043,R,07.0,N,A*13
$IIMWV,066,T,05.2,N,A*12
$IIRMC,100001,A,5416.449,N,01340.826,E,03.2,138,070821,04,E,A*0A
$IIGLL,5416.450,N,01340.828,E,100003,A,A*51
$IIMWV,042,R,06.9,N,A*1A
$IIMWV,068,T,05.0,N,A*1E
$IIRMC,100003,A,5416.450,N,01340.828,E,03.2,138,070821,04,E,A*0E
$IIGLL,5416.450,N,01340.829,E,100004,A,A*57
$IIMWV,042,R,06.8,N,A*1B
$IIMWV,068,T,04.9,N,A*16
$IIRMC,100004,A,5416.450,N,01340.829,E,03.1,137,070821,04,E,A*04
$IIGLL,5416.450,N,01340.830,E,100005,A,A*5E
$IIMWV,041,R,07.0,N,A*11
$IIMWV,067,T,04.8,N,A*18
$IIRMC,100005,A,5416.450,N,01340.830,E,03.2,137,070821,04,E,A*0E
$IIGLL,5416.449,N,01340.831,E,100006,A,A*54
$IIMWV,042,R,06.9,N,A*1A
$IIMWV,067,T,05.0,N,A*11
$IIRMC,100006,A,5416.449,N,01340.831,E,03.1,136,070821,04,E,A*06
$IIGLL,5416.449,N,01340.831,E,100007,A,A*55
$IIMWV,042,R,07.0,N,A*12
$IIMWV,067,T,05.0,N,A*11
$IIRMC,100007,A,5416.449,N,01340.831,E,03.1,138,070821,04,E,A*09
$IIGLL,5416.448,N,01340.832,E,100008,A,A*58
$IIMWV,044,R,07.0,N,A*14
$IIMWV,067,T,05.0,N,A*11
$IIRMC,100008,A,5416.448,N,01340.832,E,03.2,140,070821,04,E,A*08
$IIGLL,5416.447,N,01340.833,E,100009,A,A*57
$IIMWV,043,R,07.1,N,A*12
$IIMWV,069,T,05.1,N,A*1E
$IIRMC,100009,A,5416.447,N,01340.833,E,03.1,137,070821,04,E,A*04
$IIGLL,5416.446,N,01340.834,E,100010,A,A*59
$IIMWV,043,R,07.3,N,A*10
$IIMWV,067,T,05.2,N,A*13
$IIRMC,100010,A,5416.446,N,01340.834,E,03.0,136,070821,04,E,A*0A
$IIGLL,5416.445,N,01340.835,E,100011,A,A*5A
$IIMWV,042,R,07.4,N,A*16
$IIMWV,065,T,05.4,N,A*17
$IIRMC,100011,A,5416.445,N,01340.835,E,03.1,136,070821,04,E,A*08
$IIGLL,5416.444,N,01340.836,E,100012,A,A*5B
$IIMWV,042,R,07.1,N,A*13
$IIMWV,065,T,05.4,N,A*17
$IIRMC,100012,A,5416.444,N,01340.836,E,03.1,134,070821,04,E,A*0B
$IIGLL,5416.442,N,01340.836,E,100013,A,A*5C
$IIMWV,043,R,07.2,N,A*11
$IIMWV,066,T,05.1,N,A*11
$IIRMC,100013,A,5416.442,N,01340.836,E,03.1,137,070821,04,E,A*0F
$IIGLL,5416.441,N,01340.837,E,100014,A,A*59
$IIMWV,043,R,07.0,N,A*13
$IIMWV,066,T,05.2,N,A*12
$IIRMC,100014,A,5416.441,N,01340.837,E,03.1,133,070821,04,E,A*0E
$IIGLL,5416.441,N,01340.839,E,100015,A,A*56
$IIMWV,044,R,07.2,N,A*16
$IIMWV,067,T,05.1,N,A*10
$IIRMC,100015,A,5416.441,N,01340.839,E,03.1,136,070821,04,E,A*04
$IIGLL,5416.440,N,01340.840,E,100016,A,A*5A
$IIMWV,042,R,07.4,N,A*16
$IIMWV,068,T,05.2,N,A*1C
$IIRMC,100016,A,5416.440,N,01340.840,E,03.1,136,070821,04,E,A*08
$IIGLL,5416.439,N,01340.841,E,100017,A,A*54
$IIMWV,042,R,07.5,N,A*17
$IIMWV,065,T,05.4,N,A*17
$IIRMC,100017,A,5416.439,N,01340.841,E,03.2,135,070821,04,E,A*06
$IIGLL,5416.438,N,01340.842,E,100018,A,A*59
$IIMWV,042,R,07.2,N,A*10
$IIMWV,065,T,05.5,N,A*16
$IIRMC,100019,A,5416.437,N,01340.844,E,03.2,136,070821,04,E,A*00
$IIGLL,5416.437,N,01340.844,E,100019,A,A*51
$IIMWV,042,R,07.3,N,A*11
$IIMWV,065,T,05.2,N,A*11
$IIRMC,100020,A,5416.437,N,01340.845,E,03.2,137,070821,04,E,A*0A
$IIGLL,5416.437,N,01340.845,E,100020,A,A*5A
$IIMWV,042,R,07.3,N,A*11
$IIMWV,065,T,05.2,N,A*11
$IIRMC,100021,A,5416.436,N,01340.847,E,03.2,136,070821,04,E,A*09
$IIGLL,5416.436,N,01340.847,E,100021,A,A*58
$IIMWV,043,R,07.5,N,A*16
$IIMWV,065,T,05.2,N,A*11
$IIRMC,100022,A,5416.436,N,01340.848,E,03.1,136,070821,04,E,A*06
$IIGLL,5416.436,N,01340.848,E,100022,A,A*54
$IIMWV,044,R,07.6,N,A*12
$IIMWV,067,T,05.5,N,A*14
$IIRMC,100023,A,5416.436,N,01340.848,E,03.2,138,070821,04,E,A*0A
$IIGLL,5416.436,N,01340.848,E,100023,A,A*55
$IIMWV,044,R,07.6,N,A*12
$IIMWV,066,T,05.6,N,A*16
$IIRMC,100024,A,5416.435,N,01340.849,E,03.2,137,070821,04,E,A*00
$IIGLL,5416.435,N,01340.849,E,100024,A,A*50
$IIMWV,045,R,07.6,N,A*13
$IIMWV,067,T,05.6,N,A*17
$IIRMC,100025,A,5416.434,N,01340.851,E,03.2,137,070821,04,E,A*09
$IIGLL,5416.434,N,01340.851,E,100025,A,A*59
$IIMWV,045,R,07.7,N,A*12
$IIMWV,069,T,05.7,N,A*18
$IIRMC,100026,A,5416.434,N,01340.852,E,03.2,136,070821,04,E,A*08
$IIGLL,5416.434,N,01340.852,E,100026,A,A*59
$IIMWV,045,R,07.7,N,A*12
$IIMWV,068,T,05.8,N,A*16
$IIRMC,100027,A,5416.433,N,01340.853,E,03.2,136,070821,04,E,A*0F
$IIGLL,5416.433,N,01340.853,E,100027,A,A*5E
$IIMWV,045,R,07.3,N,A*16
$IIMWV,068,T,05.8,N,A*16
$IIRMC,100028,A,5416.432,N,01340.854,E,03.2,135,070821,04,E,A*05
$IIGLL,5416.432,N,01340.854,E,100028,A,A*57
$IIMWV,044,R,07.4,N,A*10
$IIMWV,070,T,05.4,N,A*13
$IIRMC,100029,A,5416.431,N,01340.855,E,03.3,138,070821,04,E,A*0A
$IIGLL,5416.431,N,01340.855,E,100029,A,A*54
$IIMWV,045,R,07.5,N,A*10
$IIMWV,068,T,05.5,N,A*1B
$IIRMC,100030,A,5416.430,N,01340.855,E,03.2,138,070821,04,E,A*02
$IIGLL,5416.430,N,01340.855,E,100030,A,A*5D
$IIMWV,046,R,07.5,N,A*13
$IIMWV,069,T,05.6,N,A*19
$IIRMC,100031,A,5416.429,N,01340.857,E,03.2,138,070821,04,E,A*09
$IIGLL,5416.429,N,01340.857,E,100031,A,A*56
$IIMWV,048,R,07.5,N,A*1D
$IIMWV,070,T,05.7,N,A*10
$IIRMC,100032,A,5416.428,N,01340.857,E,03.2,138,070821,04,E,A*0B
$IIGLL,5416.428,N,01340.857,E,100032,A,A*54
$IIMWV,047,R,07.4,N,A*13
$IIMWV,072,T,05.7,N,A*12
$IIRMC,100033,A,5416.429,N,01340.858,E,03.2,138,070821,04,E,A*04
$IIGLL,5416.429,N,01340.858,E,100033,A,A*5B
$IIMWV,047,R,07.5,N,A*12
$IIMWV,072,T,05.6,N,A*13
$IIRMC,100034,A,5416.428,N,01340.859,E,03.2,138,070821,04,E,A*03
$IIGLL,5416.428,N,01340.859,E,100034,A,A*5C
$IIMWV,049,R,07.1,N,A*18
$IIMWV,070,T,05.7,N,A*10
$IIRMC,100035,A,5416.427,N,01340.860,E,03.2,139,070821,04,E,A*06
$IIGLL,5416.427,N,01340.860,E,100035,A,A*58
$IIMWV,047,R,06.8,N,A*1E
$IIMWV,075,T,05.4,N,A*16
$IIRMC,100036,A,5416.427,N,01340.861,E,03.2,136,070821,04,E,A*0B
$IIGLL,5416.427,N,01340.861,E,100036,A,A*5A
$IIMWV,047,R,07.1,N,A*16
$IIMWV,074,T,05.0,N,A*13
$IIRMC,100037,A,5416.427,N,01340.862,E,03.2,138,070821,04,E,A*07
$IIGLL,5416.427,N,01340.862,E,100037,A,A*58
$IIMWV,048,R,06.9,N,A*10
$IIMWV,073,T,05.3,N,A*17
$IIRMC,100038,A,5416.426,N,01340.863,E,03.2,139,070821,04,E,A*09
$IIGLL,5416.426,N,01340.863,E,100038,A,A*57
$IIMWV,047,R,07.2,N,A*15
$IIMWV,075,T,05.2,N,A*10
$IIRMC,100039,A,5416.425,N,01340.865,E,03.3,139,070821,04,E,A*0C
$IIGLL,5416.425,N,01340.865,E,100039,A,A*53
$IIMWV,048,R,07.3,N,A*1B
$IIMWV,073,T,05.4,N,A*10
$IIRMC,100040,A,5416.425,N,01340.866,E,03.3,139,070821,04,E,A*01
$IIGLL,5416.425,N,01340.866,E,100040,A,A*5E
$IIMWV,045,R,07.0,N,A*15
$IIMWV,075,T,05.6,N,A*14
$IIRMC,100041,A,5416.426,N,01340.867,E,03.2,136,070821,04,E,A*0C
$IIGLL,5416.426,N,01340.867,E,100041,A,A*5D
$IIMWV,049,R,07.2,N,A*1B
$IIMWV,072,T,05.1,N,A*14
$IIRMC,100042,A,5416.425,N,01340.868,E,03.1,136,070821,04,E,A*00
$IIGLL,5416.425,N,01340.868,E,100042,A,A*52
$IIMWV,048,R,07.0,N,A*18
$IIMWV,075,T,05.6,N,A*14
$IIRMC,100043,A,5416.425,N,01340.870,E,03.2,137,070821,04,E,A*0A
$IIGLL,5416.425,N,01340.870,E,100043,A,A*5A
$IIMWV,050,R,07.2,N,A*13
$IIMWV,074,T,05.3,N,A*10
$IIRMC,100044,A,5416.425,N,01340.871,E,03.2,136,070821,04,E,A*0D
$IIGLL,5416.425,N,01340.871,E,100044,A,A*5C
$IIMWV,050,R,07.3,N,A*12
$IIMWV,076,T,05.6,N,A*17
$IIRMC,100045,A,5416.424,N,01340.872,E,03.2,138,070821,04,E,A*00
$IIGLL,5416.424,N,01340.872,E,100045,A,A*5F
$IIMWV,050,R,07.1,N,A*10
$IIMWV,076,T,05.7,N,A*16
$IIRMC,100046,A,5416.422,N,01340.872,E,03.2,135,070821,04,E,A*08
$IIGLL,5416.422,N,01340.872,E,100046,A,A*5A
$IIMWV,049,R,07.2,N,A*1B
$IIMWV,076,T,05.5,N,A*14
$IIRMC,100047,A,5416.421,N,01340.874,E,03.3,136,070821,04,E,A*0E
$IIGLL,5416.421,N,01340.874,E,100047,A,A*5E
$IIMWV,049,R,07.0,N,A*19
$IIMWV,075,T,05.6,N,A*14
$IIRMC,100048,A,5416.421,N,01340.875,E,03.2,135,070821,04,E,A*02
$IIGLL,5416.421,N,01340.875,E,100048,A,A*50
$IIMWV,050,R,07.2,N,A*13
$IIMWV,076,T,05.3,N,A*12
$IIRMC,100049,A,5416.420,N,01340.876,E,03.2,134,070821,04,E,A*00
$IIGLL,5416.419,N,01340.878,E,100050,A,A*5F
$IIMWV,050,R,06.8,N,A*18
$IIMWV,075,T,05.3,N,A*11
$IIRMC,100050,A,5416.419,N,01340.878,E,03.2,134,070821,04,E,A*0C
$IIGLL,5416.419,N,01340.879,E,100051,A,A*5F
$IIMWV,049,R,06.7,N,A*1F
$IIMWV,078,T,05.3,N,A*1C
$IIRMC,100051,A,5416.419,N,01340.879,E,03.2,132,070821,04,E,A*0A
$IIGLL,5416.420,N,01340.879,E,100052,A,A*56
$IIMWV,050,R,06.6,N,A*16
$IIMWV,077,T,05.1,N,A*11
$IIRMC,100052,A,5416.420,N,01340.879,E,03.2,131,070821,04,E,A*00
$IIGLL,5416.420,N,01340.880,E,100053,A,A*51
$IIMWV,053,R,06.6,N,A*15
$IIMWV,079,T,05.0,N,A*1E
$IIRMC,100053,A,5416.420,N,01340.880,E,03.2,130,070821,04,E,A*06
$IIGLL,5416.419,N,01340.882,E,100054,A,A*5E
$IIMWV,055,R,06.5,N,A*10
$IIMWV,082,T,05.2,N,A*18
$IIRMC,100054,A,5416.419,N,01340.882,E,03.2,130,070821,04,E,A*09
$IIGLL,5416.419,N,01340.883,E,100055,A,A*5E
$IIMWV,057,R,06.6,N,A*11
$IIMWV,085,T,05.3,N,A*1E
$IIRMC,100055,A,5416.419,N,01340.883,E,03.1,129,070821,04,E,A*02
$IIGLL,5416.418,N,01340.884,E,100056,A,A*5B
$IIMWV,060,R,06.6,N,A*15
$IIMWV,086,T,05.5,N,A*1B
$IIRMC,100056,A,5416.418,N,01340.884,E,03.1,128,070821,04,E,A*06
$IIGLL,5416.418,N,01340.886,E,100057,A,A*58
$IIMWV,060,R,06.7,N,A*14
$IIMWV,088,T,05.7,N,A*17
$IIRMC,100057,A,5416.418,N,01340.886,E,03.1,128,070821,04,E,A*05
$IIGLL,5416.418,N,01340.888,E,100058,A,A*59
$IIMWV,061,R,06.3,N,A*11
$IIMWV,088,T,05.8,N,A*18
$IIRMC,100058,A,5416.418,N,01340.888,E,03.1,127,070821,04,E,A*0B
$IIGLL,5416.418,N,01340.888,E,100058,A,A*59
$IIMWV,058,R,06.3,N,A*1B
$IIMWV,091,T,05.4,N,A*1C
$IIRMC,100058,A,5416.418,N,01340.888,E,03.1,127,070821,04,E,A*0B
$IIGLL,5416.417,N,01340.890,E,100100,A,A*53
$IIMWV,058,R,06.1,N,A*19
$IIMWV,088,T,05.3,N,A*13
$IIRMC,100100,A,5416.417,N,01340.890,E,03.1,125,070821,04,E,A*03
$IIGLL,5416.417,N,01340.891,E,100101,A,A*53
$IIMWV,057,R,05.9,N,A*1D
$IIMWV,089,T,05.1,N,A*10
$IIRMC,100101,A,5416.417,N,01340.891,E,03.1,124,070821,04,E,A*02
$IIGLL,5416.417,N,01340.893,E,100102,A,A*52
$IIMWV,056,R,05.7,N,A*12
$IIMWV,090,T,04.9,N,A*11
$IIRMC,100102,A,5416.417,N,01340.893,E,03.1,123,070821,04,E,A*04
$IIGLL,5416.417,N,01340.894,E,100103,A,A*54
$IIMWV,058,R,05.7,N,A*1C
$IIMWV,090,T,04.7,N,A*1F
$IIRMC,100103,A,5416.417,N,01340.894,E,03.1,123,070821,04,E,A*02
$IIGLL,5416.416,N,01340.896,E,100104,A,A*50
$IIMWV,056,R,05.6,N,A*13
$IIMWV,091,T,04.8,N,A*11
$IIRMC,100104,A,5416.416,N,01340.896,E,03.1,123,070821,04,E,A*06
$IIGLL,5416.416,N,01340.897,E,100105,A,A*50
$IIMWV,057,R,05.6,N,A*12
$IIMWV,090,T,04.6,N,A*1E
$IIRMC,100105,A,5416.416,N,01340.897,E,03.0,123,070821,04,E,A*07
$IIGLL,5416.415,N,01340.898,E,100106,A,A*5F
$IIMWV,056,R,05.6,N,A*13
$IIMWV,090,T,04.7,N,A*1F
$IIRMC,100106,A,5416.415,N,01340.898,E,03.0,123,070821,04,E,A*08
$IIGLL,5416.415,N,01340.898,E,100106,A,A*5F
$IIMWV,056,R,05.6,N,A*13
$IIMWV,089,T,04.6,N,A*16
$IIRMC,100106,A,5416.415,N,01340.898,E,03.0,123,070821,04,E,A*08
$IIGLL,5416.415,N,01340.900,E,100108,A,A*51
$IIMWV,056,R,05.6,N,A*13
$IIMWV,086,T,04.6,N,A*19
$IIRMC,100108,A,5416.415,N,01340.900,E,02.8,125,070821,04,E,A*09
$IIGLL,5416.415,N,01340.901,E,100109,A,A*51
$IIMWV,057,R,05.9,N,A*1D
$IIMWV,086,T,04.6,N,A*19
$IIRMC,100109,A,5416.415,N,01340.901,E,02.9,127,070821,04,E,A*0A
$IIGLL,5416.414,N,01340.902,E,100110,A,A*5B
$IIMWV,057,R,06.1,N,A*16
$IIMWV,088,T,04.9,N,A*18
$IIRMC,100110,A,5416.414,N,01340.902,E,02.8,129,070821,04,E,A*0F
$IIGLL,5416.413,N,01340.903,E,100111,A,A*5C
$IIMWV,057,R,06.3,N,A*14
$IIMWV,085,T,05.1,N,A*1C
$IIRMC,100111,A,5416.413,N,01340.903,E,02.9,132,070821,04,E,A*03
$IIGLL,5416.413,N,01340.904,E,100112,A,A*58
$IIMWV,057,R,06.1,N,A*16
$IIMWV,085,T,05.2,N,A*1F
$IIRMC,100112,A,5416.413,N,01340.904,E,02.8,133,070821,04,E,A*07
$IIGLL,5416.412,N,01340.905,E,100113,A,A*59
$IIMWV,056,R,06.5,N,A*13
$IIMWV,085,T,05.1,N,A*1C
$IIRMC,100113,A,5416.412,N,01340.905,E,02.8,133,070821,04,E,A*06
$IIGLL,5416.411,N,01340.906,E,100114,A,A*5E
$IIMWV,055,R,06.6,N,A*13
$IIMWV,081,T,05.3,N,A*1A
$IIRMC,100114,A,5416.411,N,01340.906,E,02.9,135,070821,04,E,A*06
$IIGLL,5416.411,N,01340.907,E,100115,A,A*5E
$IIMWV,053,R,06.6,N,A*15
$IIMWV,081,T,05.4,N,A*1D
$IIRMC,100115,A,5416.411,N,01340.907,E,02.9,135,070821,04,E,A*06
$IIGLL,5416.411,N,01340.908,E,100116,A,A*52
$IIMWV,053,R,06.9,N,A*1A
$IIMWV,079,T,05.2,N,A*1C
$IIRMC,100116,A,5416.411,N,01340.908,E,02.9,138,070821,04,E,A*07
$IIGLL,5416.410,N,01340.909,E,100117,A,A*53
$IIMWV,051,R,06.9,N,A*18
$IIMWV,078,T,05.6,N,A*19
$IIRMC,100117,A,5416.410,N,01340.909,E,03.0,139,070821,04,E,A*0F
$IIGLL,5416.410,N,01340.909,E,100118,A,A*5C
$IIMWV,049,R,07.1,N,A*18
$IIMWV,076,T,05.4,N,A*15
$IIRMC,100118,A,5416.410,N,01340.909,E,02.8,140,070821,04,E,A*07
$IIGLL,5416.408,N,01340.910,E,100119,A,A*5C
$IIMWV,048,R,07.2,N,A*1A
$IIMWV,071,T,05.5,N,A*13
$IIRMC,100119,A,5416.408,N,01340.910,E,02.8,139,070821,04,E,A*09
$IIGLL,5416.408,N,01340.911,E,100120,A,A*57
$IIMWV,047,R,07.0,N,A*17
$IIMWV,069,T,05.6,N,A*19
$IIRMC,100120,A,5416.408,N,01340.911,E,02.8,139,070821,04,E,A*02
$IIGLL,5416.407,N,01340.912,E,100121,A,A*5A
$IIMWV,046,R,07.1,N,A*17
$IIMWV,070,T,05.4,N,A*13
$IIRMC,100121,A,5416.407,N,01340.912,E,02.8,138,070821,04,E,A*0E
$IIGLL,5416.408,N,01340.914,E,100122,A,A*50
$IIMWV,045,R,07.0,N,A*15
$IIMWV,069,T,05.4,N,A*1B
$IIRMC,100122,A,5416.408,N,01340.914,E,02.8,145,070821,04,E,A*0E
$IIGLL,5416.408,N,01340.914,E,100123,A,A*51
$IIMWV,044,R,07.2,N,A*16
$IIMWV,067,T,05.3,N,A*12
$IIRMC,100123,A,5416.408,N,01340.914,E,02.9,149,070821,04,E,A*02
$IIGLL,5416.406,N,01340.914,E,100124,A,A*58
$IIMWV,042,R,07.4,N,A*16
$IIMWV,066,T,05.3,N,A*13
$IIRMC,100124,A,5416.406,N,01340.914,E,02.9,150,070821,04,E,A*03
$IIGLL,5416.405,N,01340.915,E,100125,A,A*5B
$IIMWV,042,R,07.5,N,A*17
$IIMWV,063,T,05.5,N,A*10
$IIRMC,100125,A,5416.405,N,01340.915,E,02.8,150,070821,04,E,A*01
$IIGLL,5416.404,N,01340.915,E,100126,A,A*59
$IIMWV,041,R,07.5,N,A*14
$IIMWV,061,T,05.6,N,A*11
$IIRMC,100126,A,5416.404,N,01340.915,E,02.9,152,070821,04,E,A*00
$IIGLL,5416.404,N,01340.916,E,100127,A,A*5B
$IIMWV,041,R,07.5,N,A*14
$IIMWV,061,T,05.5,N,A*12
$IIRMC,100127,A,5416.404,N,01340.916,E,03.0,154,070821,04,E,A*0C
$IIGLL,5416.403,N,01340.916,E,100128,A,A*53
$IIMWV,040,R,07.5,N,A*15
$IIMWV,062,T,05.5,N,A*11
$IIRMC,100128,A,5416.403,N,01340.916,E,02.9,153,070821,04,E,A*0B
$IIGLL,5416.402,N,01340.917,E,100129,A,A*52
$IIMWV,039,R,08.0,N,A*11
$IIMWV,060,T,05.5,N,A*13
$IIRMC,100129,A,5416.402,N,01340.917,E,02.9,153,070821,04,E,A*0A
$IIGLL,5416.401,N,01340.918,E,100130,A,A*56
$IIMWV,039,R,07.8,N,A*16
$IIMWV,057,T,05.9,N,A*1B
$IIRMC,100130,A,5416.401,N,01340.918,E,02.9,155,070821,04,E,A*08
$IIGLL,5416.400,N,01340.919,E,100131,A,A*57
$IIMWV,036,R,08.2,N,A*1C
$IIMWV,058,T,05.7,N,A*1A
$IIRMC,100131,A,5416.400,N,01340.919,E,02.8,158,070821,04,E,A*05
$IIGLL,5416.399,N,01340.919,E,100132,A,A*53
$IIMWV,037,R,08.0,N,A*1F
$IIMWV,052,T,06.1,N,A*15
$IIRMC,100132,A,5416.399,N,01340.919,E,02.9,159,070821,04,E,A*01
$IIGLL,5416.398,N,01340.920,E,100133,A,A*59
$IIMWV,037,R,07.9,N,A*19
$IIMWV,054,T,05.9,N,A*18
$IIRMC,100133,A,5416.398,N,01340.920,E,02.9,161,070821,04,E,A*00
$IIGLL,5416.397,N,01340.920,E,100134,A,A*51
$IIMWV,037,R,08.2,N,A*1D
$IIMWV,054,T,05.8,N,A*19
$IIRMC,100134,A,5416.397,N,01340.920,E,03.0,162,070821,04,E,A*03
$IIGLL,5416.396,N,01340.921,E,100135,A,A*50
$IIMWV,037,R,08.0,N,A*1F
$IIMWV,054,T,06.0,N,A*12
$IIRMC,100135,A,5416.396,N,01340.921,E,02.9,162,070821,04,E,A*0A
$IIGLL,5416.395,N,01340.921,E,100136,A,A*50
$IIMWV,039,R,08.3,N,A*12
$IIMWV,054,T,05.9,N,A*18
$IIRMC,100136,A,5416.395,N,01340.921,E,02.8,160,070821,04,E,A*09
$IIGLL,5416.394,N,01340.921,E,100137,A,A*50
$IIMWV,039,R,08.4,N,A*15
$IIMWV,055,T,06.3,N,A*10
$IIRMC,100137,A,5416.394,N,01340.921,E,02.9,160,070821,04,E,A*08
$IIGLL,5416.393,N,01340.921,E,100138,A,A*58
$IIMWV,042,R,08.1,N,A*1C
$IIMWV,055,T,06.3,N,A*10
$IIRMC,100138,A,5416.393,N,01340.921,E,02.9,161,070821,04,E,A*01
$IIGLL,5416.393,N,01340.922,E,100139,A,A*5A
$IIMWV,041,R,08.3,N,A*1D
$IIMWV,061,T,06.1,N,A*15
$IIRMC,100139,A,5416.393,N,01340.922,E,02.9,159,070821,04,E,A*08
$IIGLL,5416.392,N,01340.923,E,100140,A,A*54
$IIMWV,043,R,08.0,N,A*1C
$IIMWV,058,T,06.3,N,A*1D
$IIRMC,100140,A,5416.392,N,01340.923,E,02.9,159,070821,04,E,A*06
$IIGLL,5416.391,N,01340.923,E,100141,A,A*56
$IIMWV,043,R,07.9,N,A*1A
$IIMWV,062,T,06.1,N,A*16
$IIRMC,100141,A,5416.391,N,01340.923,E,02.9,158,070821,04,E,A*05
$IIGLL,5416.389,N,01340.923,E,100142,A,A*5C
$IIMWV,044,R,07.7,N,A*13
$IIMWV,062,T,05.9,N,A*1D
$IIRMC,100142,A,5416.389,N,01340.923,E,03.0,160,070821,04,E,A*0C
$IIGLL,5416.388,N,01340.924,E,100143,A,A*5B
$IIMWV,044,R,07.6,N,A*12
$IIMWV,065,T,05.8,N,A*1B
$IIRMC,100143,A,5416.388,N,01340.924,E,03.0,160,070821,04,E,A*0B
$IIGLL,5416.387,N,01340.924,E,100144,A,A*53
$IIMWV,044,R,07.6,N,A*12
$IIMWV,065,T,05.7,N,A*14
$IIRMC,100144,A,5416.387,N,01340.924,E,02.9,160,070821,04,E,A*0B
$IIGLL,5416.386,N,01340.924,E,100145,A,A*53
$IIMWV,045,R,07.5,N,A*10
$IIMWV,064,T,05.7,N,A*15
$IIRMC,100145,A,5416.386,N,01340.924,E,03.0,159,070821,04,E,A*09
$IIGLL,5416.386,N,01340.924,E,100146,A,A*50
$IIMWV,045,R,07.5,N,A*10
$IIMWV,067,T,05.7,N,A*16
$IIRMC,100146,A,5416.386,N,01340.924,E,02.9,157,070821,04,E,A*0C
$IIGLL,5416.384,N,01340.925,E,100147,A,A*52
$IIMWV,043,R,07.5,N,A*16
$IIMWV,065,T,05.8,N,A*1B
$IIRMC,100147,A,5416.384,N,01340.925,E,02.9,157,070821,04,E,A*0E
$IIGLL,5416.383,N,01340.925,E,100148,A,A*5A
$IIMWV,040,R,07.6,N,A*16
$IIMWV,064,T,05.6,N,A*14
$IIRMC,100148,A,5416.383,N,01340.925,E,02.9,158,070821,04,E,A*09
$IIGLL,5416.383,N,01340.926,E,100149,A,A*58
$IIMWV,038,R,07.1,N,A*1E
$IIMWV,059,T,05.6,N,A*1A
$IIRMC,100149,A,5416.383,N,01340.926,E,02.9,158,070821,04,E,A*0B
$IIGLL,5416.382,N,01340.926,E,100150,A,A*51
$IIMWV,039,R,07.3,N,A*1D
$IIMWV,058,T,05.1,N,A*1C
$IIRMC,100150,A,5416.382,N,01340.926,E,02.9,158,070821,04,E,A*02
$IIGLL,5416.381,N,01340.926,E,100151,A,A*53
$IIMWV,038,R,06.9,N,A*17
$IIMWV,059,T,05.2,N,A*1E
$IIRMC,100151,A,5416.381,N,01340.926,E,02.9,159,070821,04,E,A*01
$IIGLL,5416.380,N,01340.926,E,100152,A,A*51
$IIMWV,039,R,07.2,N,A*1C
$IIMWV,059,T,04.8,N,A*15
$IIRMC,100152,A,5416.380,N,01340.926,E,02.9,159,070821,04,E,A*03
$IIGLL,5416.380,N,01340.926,E,100153,A,A*50
$IIMWV,039,R,06.8,N,A*17
$IIMWV,059,T,05.2,N,A*1E
$IIRMC,100153,A,5416.380,N,01340.926,E,02.9,158,070821,04,E,A*03
$IIGLL,5416.379,N,01340.927,E,100154,A,A*50
$IIMWV,043,R,07.3,N,A*10
$IIMWV,060,T,04.8,N,A*1F
$IIRMC,100154,A,5416.379,N,01340.927,E,02.9,158,070821,04,E,A*03
$IIGLL,5416.379,N,01340.928,E,100155,A,A*5E
$IIMWV,042,R,06.9,N,A*1A
$IIMWV,064,T,05.4,N,A*16
$IIRMC,100155,A,5416.379,N,01340.928,E,02.9,158,070821,04,E,A*0D
$IIGLL,5416.378,N,01340.929,E,100156,A,A*5D
$IIMWV,047,R,07.2,N,A*15
$IIMWV,064,T,05.0,N,A*12
$IIRMC,100156,A,5416.378,N,01340.929,E,02.8,157,070821,04,E,A*00
$IIGLL,5416.377,N,01340.929,E,100157,A,A*53
$IIMWV,048,R,06.9,N,A*10
$IIMWV,069,T,05.5,N,A*1A
$IIRMC,100157,A,5416.377,N,01340.929,E,02.8,157,070821,04,E,A*0E
$IIGLL,5416.376,N,01340.930,E,100158,A,A*55
$IIMWV,048,R,07.2,N,A*1A
$IIMWV,070,T,05.4,N,A*13
$IIRMC,100158,A,5416.376,N,01340.930,E,02.8,156,070821,04,E,A*09
$IIGLL,5416.375,N,01340.930,E,100159,A,A*57
$IIMWV,047,R,07.4,N,A*13
$IIMWV,069,T,05.6,N,A*19
$IIRMC,100159,A,5416.375,N,01340.930,E,02.9,158,070821,04,E,A*04
$IIGLL,5416.374,N,01340.930,E,100200,A,A*59
$IIMWV,049,R,07.1,N,A*18
$IIMWV,069,T,05.7,N,A*18
$IIRMC,100200,A,5416.374,N,01340.930,E,02.9,157,070821,04,E,A*05
$IIGLL,5416.373,N,01340.931,E,100201,A,A*5E
$IIMWV,050,R,07.3,N,A*12
$IIMWV,072,T,05.5,N,A*10
$IIRMC,100201,A,5416.373,N,01340.931,E,02.9,156,070821,04,E,A*03
$IIGLL,5416.372,N,01340.931,E,100202,A,A*5C
$IIMWV,048,R,07.0,N,A*18
$IIMWV,073,T,05.8,N,A*1C
$IIRMC,100202,A,5416.372,N,01340.931,E,02.8,157,070821,04,E,A*01
$IIGLL,5416.371,N,01340.931,E,100203,A,A*5E
$IIMWV,048,R,07.1,N,A*19
$IIMWV,070,T,05.4,N,A*13
$IIRMC,100203,A,5416.371,N,01340.931,E,02.8,157,070821,04,E,A*03
$IIGLL,5416.369,N,01340.932,E,100204,A,A*53
$IIMWV,048,R,07.0,N,A*18
$IIMWV,070,T,05.5,N,A*12
$IIRMC,100204,A,5416.369,N,01340.932,E,02.8,157,070821,04,E,A*0E
$IIGLL,5416.369,N,01340.932,E,100205,A,A*52
$IIMWV,046,R,06.8,N,A*1F
$IIMWV,070,T,05.4,N,A*13
$IIRMC,100205,A,5416.369,N,01340.932,E,02.8,156,070821,04,E,A*0E
$IIGLL,5416.367,N,01340.932,E,100206,A,A*5F
$IIMWV,044,R,06.7,N,A*12
$IIMWV,069,T,05.1,N,A*1E
$IIRMC,100206,A,5416.367,N,01340.932,E,02.9,155,070821,04,E,A*01
$IIGLL,5416.367,N,01340.934,E,100207,A,A*58
$IIMWV,042,R,07.0,N,A*12
$IIMWV,068,T,04.9,N,A*16
$IIRMC,100207,A,5416.367,N,01340.934,E,02.9,154,070821,04,E,A*07
$IIGLL,5416.366,N,01340.934,E,100208,A,A*56
$IIMWV,043,R,06.9,N,A*1B
$IIMWV,064,T,05.0,N,A*12
$IIRMC,100208,A,5416.366,N,01340.934,E,02.9,154,070821,04,E,A*09
$IIGLL,5416.364,N,01340.934,E,100209,A,A*55
$IIMWV,045,R,06.8,N,A*1C
$IIMWV,065,T,05.0,N,A*13
$IIRMC,100209,A,5416.364,N,01340.934,E,02.9,155,070821,04,E,A*0B
$IIGLL,5416.364,N,01340.934,E,100210,A,A*5D
$IIMWV,045,R,06.6,N,A*12
$IIMWV,069,T,05.1,N,A*1E
$IIRMC,100210,A,5416.364,N,01340.934,E,02.9,155,070821,04,E,A*03
$IIGLL,5416.364,N,01340.935,E,100211,A,A*5D
$IIMWV,047,R,06.7,N,A*11
$IIMWV,070,T,04.9,N,A*1F
$IIRMC,100211,A,5416.364,N,01340.935,E,02.9,156,070821,04,E,A*00
$IIGLL,5416.364,N,01340.936,E,100212,A,A*5D
$IIMWV,048,R,06.7,N,A*1E
$IIMWV,072,T,05.0,N,A*15
$IIRMC,100212,A,5416.364,N,01340.936,E,02.9,157,070821,04,E,A*01
$IIGLL,5416.363,N,01340.936,E,100213,A,A*5B
$IIMWV,047,R,06.7,N,A*11
$IIMWV,073,T,05.1,N,A*15
$IIRMC,100213,A,5416.363,N,01340.936,E,02.9,157,070821,04,E,A*07
$IIGLL,5416.361,N,01340.936,E,100214,A,A*5E
$IIMWV,046,R,06.7,N,A*10
$IIMWV,072,T,05.0,N,A*15
$IIRMC,100214,A,5416.361,N,01340.936,E,03.0,157,070821,04,E,A*0A
$IIGLL,5416.361,N,01340.937,E,100215,A,A*5E
$IIMWV,044,R,06.6,N,A*13
$IIMWV,072,T,05.0,N,A*15
$IIRMC,100215,A,5416.361,N,01340.937,E,02.9,157,070821,04,E,A*02
$IIGLL,5416.360,N,01340.937,E,100216,A,A*5C
$IIMWV,045,R,07.0,N,A*15
$IIMWV,068,T,04.8,N,A*17
$IIRMC,100216,A,5416.360,N,01340.937,E,02.9,158,070821,04,E,A*0F
$IIGLL,5416.360,N,01340.938,E,100217,A,A*52
$IIMWV,046,R,06.9,N,A*1E
$IIMWV,068,T,05.2,N,A*1C
$IIRMC,100217,A,5416.360,N,01340.938,E,02.9,158,070821,04,E,A*01
$IIGLL,5416.359,N,01340.939,E,100218,A,A*56
$IIMWV,046,R,06.8,N,A*1F
$IIMWV,070,T,05.2,N,A*15
$IIRMC,100218,A,5416.359,N,01340.939,E,02.9,157,070821,04,E,A*0A
$IIGLL,5416.358,N,01340.940,E,100219,A,A*58
$IIMWV,048,R,06.6,N,A*1F
$IIMWV,070,T,05.0,N,A*17
$IIRMC,100219,A,5416.358,N,01340.940,E,02.8,156,070821,04,E,A*04
$IIGLL,5416.357,N,01340.940,E,100220,A,A*5D
$IIMWV,045,R,06.6,N,A*12
$IIMWV,072,T,05.0,N,A*15
$IIRMC,100220,A,5416.357,N,01340.940,E,02.9,157,070821,04,E,A*01
$IIGLL,5416.356,N,01340.941,E,100221,A,A*5C
$IIMWV,046,R,06.6,N,A*11
$IIMWV,070,T,04.9,N,A*1F
$IIRMC,100221,A,5416.356,N,01340.941,E,03.0,158,070821,04,E,A*07
$IIGLL,5416.355,N,01340.941,E,100222,A,A*5C
$IIMWV,047,R,06.6,N,A*10
$IIMWV,072,T,04.9,N,A*1D
$IIRMC,100222,A,5416.355,N,01340.941,E,03.0,156,070821,04,E,A*09
$IIGLL,5416.355,N,01340.942,E,100223,A,A*5E
$IIMWV,045,R,06.1,N,A*15
$IIMWV,074,T,05.0,N,A*13
$IIRMC,100223,A,5416.355,N,01340.942,E,03.0,156,070821,04,E,A*0B
$IIGLL,5416.355,N,01340.943,E,100224,A,A*58
$IIMWV,046,R,06.2,N,A*15
$IIMWV,073,T,04.4,N,A*11
$IIRMC,100224,A,5416.355,N,01340.943,E,03.0,156,070821,04,E,A*0D
$IIGLL,5416.354,N,01340.943,E,100225,A,A*58
$IIMWV,044,R,06.1,N,A*14
$IIMWV,075,T,04.5,N,A*16
$IIRMC,100225,A,5416.354,N,01340.943,E,03.0,157,070821,04,E,A*0C
$IIGLL,5416.353,N,01340.943,E,100226,A,A*5C
$IIMWV,046,R,06.0,N,A*17
$IIMWV,073,T,04.3,N,A*16
$IIRMC,100226,A,5416.353,N,01340.943,E,02.9,157,070821,04,E,A*00
$IIGLL,5416.352,N,01340.944,E,100227,A,A*5B
$IIMWV,045,R,05.9,N,A*1E
$IIMWV,075,T,04.4,N,A*17
$IIRMC,100227,A,5416.352,N,01340.944,E,02.9,158,070821,04,E,A*08
$IIGLL,5416.351,N,01340.944,E,100228,A,A*57
$IIMWV,045,R,05.8,N,A*1F
$IIMWV,074,T,04.2,N,A*10
$IIRMC,100228,A,5416.351,N,01340.944,E,02.9,157,070821,04,E,A*0B
$IIGLL,5416.351,N,01340.944,E,100229,A,A*56
$IIMWV,043,R,05.7,N,A*16
$IIMWV,074,T,04.2,N,A*10
$IIRMC,100229,A,5416.351,N,01340.944,E,02.8,159,070821,04,E,A*05
$IIGLL,5416.349,N,01340.945,E,100230,A,A*56
$IIMWV,045,R,05.9,N,A*1E
$IIMWV,071,T,04.0,N,A*17
$IIRMC,100230,A,5416.349,N,01340.945,E,02.9,158,070821,04,E,A*05
$IIGLL,5416.349,N,01340.945,E,100231,A,A*57
$IIMWV,046,R,05.9,N,A*1D
$IIMWV,074,T,04.2,N,A*10
$IIRMC,100231,A,5416.349,N,01340.945,E,02.9,157,070821,04,E,A*0B
$IIGLL,5416.348,N,01340.946,E,100232,A,A*56
$IIMWV,044,R,06.1,N,A*14
$IIMWV,075,T,04.3,N,A*10
$IIRMC,100232,A,5416.348,N,01340.946,E,02.8,157,070821,04,E,A*0B
$IIGLL,5416.347,N,01340.946,E,100233,A,A*58
$IIMWV,045,R,06.2,N,A*16
$IIMWV,070,T,04.4,N,A*12
$IIRMC,100233,A,5416.347,N,01340.946,E,02.9,157,070821,04,E,A*04
$IIGLL,5416.346,N,01340.947,E,100234,A,A*5F
$IIMWV,046,R,06.3,N,A*14
$IIMWV,071,T,04.6,N,A*11
$IIRMC,100234,A,5416.346,N,01340.947,E,02.9,157,070821,04,E,A*03
$IIGLL,5416.346,N,01340.947,E,100235,A,A*5E
$IIMWV,046,R,06.4,N,A*13
$IIMWV,073,T,04.7,N,A*12
$IIRMC,100235,A,5416.346,N,01340.947,E,02.9,155,070821,04,E,A*00
$IIGLL,5416.345,N,01340.948,E,100236,A,A*51
$IIMWV,045,R,06.5,N,A*11
$IIMWV,072,T,04.8,N,A*1C
$IIRMC,100236,A,5416.345,N,01340.948,E,02.9,157,070821,04,E,A*0D
$IIGLL,5416.344,N,01340.948,E,100237,A,A*51
$IIMWV,045,R,06.8,N,A*1C
$IIMWV,070,T,04.9,N,A*1F
$IIRMC,100237,A,5416.344,N,01340.948,E,02.8,154,070821,04,E,A*0F
$IIGLL,5416.343,N,01340.949,E,100238,A,A*58
$IIMWV,046,R,06.9,N,A*1E
$IIMWV,067,T,05.2,N,A*13
$IIRMC,100238,A,5416.343,N,01340.949,E,02.8,155,070821,04,E,A*07
$IIGLL,5416.344,N,01340.951,E,100239,A,A*57
$IIMWV,044,R,06.8,N,A*1D
$IIMWV,069,T,05.2,N,A*1D
$IIRMC,100239,A,5416.344,N,01340.951,E,02.9,155,070821,04,E,A*09
$IIGLL,5416.343,N,01340.951,E,100240,A,A*5E
$IIMWV,044,R,06.9,N,A*1C
$IIMWV,068,T,04.9,N,A*16
$IIRMC,100240,A,5416.343,N,01340.951,E,02.9,155,070821,04,E,A*00
$IIGLL,5416.341,N,01340.952,E,100241,A,A*5E
$IIMWV,044,R,06.8,N,A*1D
$IIMWV,067,T,05.1,N,A*10
$IIRMC,100241,A,5416.341,N,01340.952,E,02.9,155,070821,04,E,A*00
$IIGLL,5416.341,N,01340.952,E,100242,A,A*5D
$IIMWV,043,R,07.0,N,A*13
$IIMWV,068,T,04.9,N,A*16
$IIRMC,100242,A,5416.341,N,01340.952,E,02.9,157,070821,04,E,A*01
$IIGLL,5416.340,N,01340.953,E,100243,A,A*5C
$IIMWV,044,R,06.9,N,A*1C
$IIMWV,065,T,05.1,N,A*12
$IIRMC,100243,A,5416.340,N,01340.953,E,02.9,157,070821,04,E,A*00
$IIGLL,5416.338,N,01340.952,E,100244,A,A*55
$IIMWV,043,R,06.8,N,A*1A
$IIMWV,067,T,05.1,N,A*10
$IIRMC,100244,A,5416.338,N,01340.952,E,02.9,158,070821,04,E,A*06
$IIGLL,5416.338,N,01340.953,E,100245,A,A*55
$IIMWV,043,R,06.8,N,A*1A
$IIMWV,067,T,05.0,N,A*11
$IIRMC,100245,A,5416.338,N,01340.953,E,02.9,158,070821,04,E,A*06
$IIGLL,5416.336,N,01340.953,E,100246,A,A*58
$IIMWV,042,R,06.7,N,A*14
$IIMWV,067,T,05.0,N,A*11
$IIRMC,100246,A,5416.336,N,01340.953,E,02.8,158,070821,04,E,A*0A
$IIGLL,5416.335,N,01340.953,E,100247,A,A*5A
$IIMWV,042,R,07.0,N,A*12
$IIMWV,064,T,04.8,N,A*1B
$IIRMC,100247,A,5416.335,N,01340.953,E,02.9,159,070821,04,E,A*08
$IIGLL,5416.334,N,01340.954,E,100248,A,A*53
$IIMWV,043,R,07.0,N,A*13
$IIMWV,064,T,05.0,N,A*12
$IIRMC,100248,A,5416.334,N,01340.954,E,02.9,158,070821,04,E,A*00
$IIGLL,5416.334,N,01340.954,E,100249,A,A*52
$IIMWV,044,R,07.0,N,A*14
$IIMWV,065,T,05.1,N,A*12
$IIRMC,100249,A,5416.334,N,01340.954,E,02.9,158,070821,04,E,A*01
$IIGLL,5416.334,N,01340.955,E,100250,A,A*5B
$IIMWV,043,R,07.0,N,A*13
$IIMWV,066,T,05.2,N,A*12
$IIRMC,100250,A,5416.334,N,01340.955,E,02.9,157,070821,04,E,A*07
$IIGLL,5416.333,N,01340.956,E,100251,A,A*5E
$IIMWV,045,R,07.1,N,A*14
$IIMWV,065,T,05.1,N,A*12
$IIRMC,100251,A,5416.333,N,01340.956,E,02.9,157,070821,04,E,A*02
$IIGLL,5416.332,N,01340.957,E,100252,A,A*5D
$IIMWV,044,R,07.0,N,A*14
$IIMWV,067,T,05.4,N,A*15
$IIRMC,100252,A,5416.332,N,01340.957,E,02.9,158,070821,04,E,A*0E
$IIGLL,5416.332,N,01340.957,E,100253,A,A*5C
$IIMWV,042,R,07.0,N,A*12
$IIMWV,066,T,05.2,N,A*12
$IIRMC,100253,A,5416.332,N,01340.957,E,02.9,157,070821,04,E,A*00
$IIGLL,5416.332,N,01340.958,E,100254,A,A*54
$IIMWV,040,R,07.3,N,A*13
$IIMWV,064,T,05.0,N,A*12
$IIRMC,100254,A,5416.332,N,01340.958,E,02.9,158,070821,04,E,A*07
$IIGLL,5416.331,N,01340.958,E,100255,A,A*56
$IIMWV,038,R,07.4,N,A*1B
$IIMWV,059,T,05.3,N,A*1F
$IIRMC,100255,A,5416.331,N,01340.958,E,02.8,157,070821,04,E,A*0B
$IIGLL,5416.331,N,01340.958,E,100256,A,A*55
$IIMWV,038,R,07.5,N,A*1A
$IIMWV,056,T,05.4,N,A*17
$IIRMC,100256,A,5416.331,N,01340.958,E,02.9,158,070821,04,E,A*06
$IIGLL,5416.330,N,01340.959,E,100257,A,A*54
$IIMWV,036,R,07.5,N,A*14
$IIMWV,057,T,05.4,N,A*16
$IIRMC,100257,A,5416.330,N,01340.959,E,02.8,158,070821,04,E,A*06
$IIGLL,5416.329,N,01340.959,E,100258,A,A*53
$IIMWV,036,R,07.8,N,A*19
$IIMWV,054,T,05.4,N,A*15
$IIRMC,100258,A,5416.329,N,01340.959,E,02.8,159,070821,04,E,A*00
$IIGLL,5416.327,N,01340.960,E,100259,A,A*56
$IIMWV,036,R,07.8,N,A*19
$IIMWV,053,T,05.7,N,A*11
$IIRMC,100259,A,5416.327,N,01340.960,E,02.9,159,070821,04,E,A*04
$IIGLL,5416.327,N,01340.960,E,100300,A,A*5B
$IIMWV,036,R,07.7,N,A*16
$IIMWV,053,T,05.7,N,A*11
$IIRMC,100300,A,5416.327,N,01340.960,E,02.8,161,070821,04,E,A*03
$IIGLL,5416.327,N,01340.961,E,100301,A,A*5B
$IIMWV,036,R,07.4,N,A*15
$IIMWV,053,T,05.6,N,A*10
$IIRMC,100301,A,5416.327,N,01340.961,E,02.8,161,070821,04,E,A*03
$IIGLL,5416.326,N,01340.961,E,100302,A,A*59
$IIMWV,035,R,07.5,N,A*17
$IIMWV,054,T,05.3,N,A*12
$IIRMC,100302,A,5416.326,N,01340.961,E,02.8,162,070821,04,E,A*02
$IIGLL,5416.325,N,01340.961,E,100303,A,A*5B
$IIMWV,035,R,07.3,N,A*11
$IIMWV,052,T,05.3,N,A*14
$IIRMC,100303,A,5416.325,N,01340.961,E,02.8,161,070821,04,E,A*03
$IIGLL,5416.325,N,01340.962,E,100304,A,A*5F
$IIMWV,035,R,07.2,N,A*10
$IIMWV,053,T,05.1,N,A*17
$IIRMC,100304,A,5416.325,N,01340.962,E,02.8,161,070821,04,E,A*07
$IIGLL,5416.324,N,01340.963,E,100305,A,A*5E
$IIMWV,034,R,07.2,N,A*11
$IIMWV,053,T,05.1,N,A*17
$IIRMC,100305,A,5416.324,N,01340.963,E,02.8,161,070821,04,E,A*06
$IIGLL,5416.322,N,01340.963,E,100306,A,A*5B
$IIMWV,035,R,07.0,N,A*12
$IIMWV,052,T,05.0,N,A*17
$IIRMC,100306,A,5416.322,N,01340.963,E,02.7,161,070821,04,E,A*0C
$IIGLL,5416.322,N,01340.964,E,100307,A,A*5D
$IIMWV,034,R,07.2,N,A*11
$IIMWV,052,T,04.9,N,A*1F
$IIRMC,100307,A,5416.322,N,01340.964,E,02.8,162,070821,04,E,A*06
$IIGLL,5416.321,N,01340.964,E,100308,A,A*51
$IIMWV,034,R,07.3,N,A*10
$IIMWV,052,T,05.0,N,A*17
$IIRMC,100308,A,5416.321,N,01340.964,E,02.7,162,070821,04,E,A*05
$IIGLL,5416.321,N,01340.965,E,100309,A,A*51
$IIMWV,035,R,07.4,N,A*16
$IIMWV,050,T,05.1,N,A*14
$IIRMC,100309,A,5416.321,N,01340.965,E,02.7,162,070821,04,E,A*05
$IIGLL,5416.320,N,01340.965,E,100310,A,A*58
$IIMWV,035,R,07.3,N,A*11
$IIMWV,052,T,05.3,N,A*14
$IIRMC,100311,A,5416.319,N,01340.965,E,02.7,163,070821,04,E,A*06
$IIGLL,5416.319,N,01340.965,E,100311,A,A*53
$IIMWV,034,R,07.3,N,A*10
$IIMWV,052,T,05.2,N,A*15
$IIRMC,100312,A,5416.319,N,01340.965,E,02.7,163,070821,04,E,A*05
$IIGLL,5416.319,N,01340.965,E,100312,A,A*50
$IIMWV,034,R,07.4,N,A*17
$IIMWV,050,T,05.1,N,A*14
$IIRMC,100313,A,5416.319,N,01340.965,E,02.7,163,070821,04,E,A*04
$IIGLL,5416.319,N,01340.965,E,100313,A,A*51
$IIMWV,035,R,07.2,N,A*10
$IIMWV,050,T,05.3,N,A*16
$IIRMC,100314,A,5416.318,N,01340.965,E,02.7,164,070821,04,E,A*05
$IIGLL,5416.318,N,01340.965,E,100314,A,A*57
$IIMWV,034,R,07.3,N,A*10
$IIMWV,052,T,05.2,N,A*15
$IIRMC,100315,A,5416.317,N,01340.964,E,02.7,165,070821,04,E,A*0B
$IIGLL,5416.317,N,01340.964,E,100315,A,A*58
$IIMWV,034,R,07.1,N,A*12
$IIMWV,050,T,05.1,N,A*14
$IIRMC,100316,A,5416.317,N,01340.964,E,02.7,165,070821,04,E,A*08
$IIGLL,5416.317,N,01340.964,E,100316,A,A*5B
$IIMWV,034,R,07.2,N,A*11
$IIMWV,052,T,04.9,N,A*1F
$IIRMC,100317,A,5416.316,N,01340.964,E,02.7,164,070821,04,E,A*09
$IIGLL,5416.316,N,01340.964,E,100317,A,A*5B
$IIMWV,034,R,07.4,N,A*17
$IIMWV,051,T,05.1,N,A*15
$IIRMC,100318,A,5416.315,N,01340.964,E,02.6,165,070821,04,E,A*05
$IIGLL,5416.315,N,01340.964,E,100318,A,A*57
$IIMWV,034,R,07.2,N,A*11
$IIMWV,050,T,05.3,N,A*16
$IIRMC,100319,A,5416.315,N,01340.964,E,02.6,166,070821,04,E,A*07
$IIGLL,5416.315,N,01340.964,E,100319,A,A*56
$IIMWV,033,R,07.2,N,A*16
$IIMWV,050,T,05.1,N,A*14
$IIRMC,100320,A,5416.314,N,01340.964,E,02.6,166,070821,04,E,A*0C
$IIGLL,5416.314,N,01340.964,E,100320,A,A*5D
$IIMWV,030,R,07.1,N,A*16
$IIMWV,048,T,05.0,N,A*1C
$IIRMC,100321,A,5416.313,N,01340.964,E,02.6,166,070821,04,E,A*0A
$IIGLL,5416.313,N,01340.964,E,100321,A,A*5B
$IIMWV,030,R,07.2,N,A*15
$IIMWV,045,T,04.9,N,A*19
$IIRMC,100322,A,5416.313,N,01340.964,E,02.5,167,070821,04,E,A*0B
$IIGLL,5416.311,N,01340.965,E,100323,A,A*5A
$IIMWV,030,R,06.9,N,A*1F
$IIMWV,043,T,04.9,N,A*1F
$IIRMC,100323,A,5416.311,N,01340.965,E,02.5,167,070821,04,E,A*09
$IIGLL,5416.311,N,01340.965,E,100324,A,A*5D
$IIMWV,030,R,07.0,N,A*17
$IIMWV,044,T,04.8,N,A*19
$IIRMC,100324,A,5416.311,N,01340.965,E,02.5,168,070821,04,E,A*01
$IIGLL,5416.310,N,01340.965,E,100325,A,A*5D
$IIMWV,030,R,06.9,N,A*1F
$IIMWV,045,T,04.9,N,A*19
$IIRMC,100325,A,5416.310,N,01340.965,E,02.4,168,070821,04,E,A*00
$IIGLL,5416.308,N,01340.965,E,100326,A,A*57
$IIMWV,032,R,07.2,N,A*17
$IIMWV,043,T,04.9,N,A*1F
$IIRMC,100326,A,5416.308,N,01340.965,E,02.4,169,070821,04,E,A*0B
$IIGLL,5416.308,N,01340.965,E,100327,A,A*56
$IIMWV,034,R,07.0,N,A*13
$IIMWV,046,T,05.3,N,A*11
$IIRMC,100327,A,5416.308,N,01340.965,E,02.4,170,070821,04,E,A*02
$IIGLL,5416.308,N,01340.965,E,100328,A,A*59
$IIMWV,034,R,06.9,N,A*1B
$IIMWV,049,T,05.1,N,A*1C
$IIRMC,100328,A,5416.308,N,01340.965,E,02.4,170,070821,04,E,A*0D
$IIGLL,5416.307,N,01340.966,E,100329,A,A*54
$IIMWV,033,R,06.8,N,A*1D
$IIMWV,049,T,05.0,N,A*1D
$IIRMC,100329,A,5416.307,N,01340.966,E,02.4,170,070821,04,E,A*00
$IIGLL,5416.306,N,01340.966,E,100330,A,A*5D
$IIMWV,033,R,06.7,N,A*12
$IIMWV,048,T,04.8,N,A*15
$IIRMC,100330,A,5416.306,N,01340.966,E,02.4,170,070821,04,E,A*09
$IIGLL,5416.305,N,01340.966,E,100331,A,A*5F
$IIMWV,033,R,06.6,N,A*13
$IIMWV,048,T,04.8,N,A*15
$IIRMC,100331,A,5416.305,N,01340.966,E,02.3,171,070821,04,E,A*0D
$IIGLL,5416.304,N,01340.966,E,100332,A,A*5D
$IIMWV,031,R,06.6,N,A*11
$IIMWV,048,T,04.7,N,A*1A
$IIRMC,100332,A,5416.304,N,01340.966,E,02.3,171,070821,04,E,A*0F
$IIGLL,5416.303,N,01340.966,E,100333,A,A*5B
$IIMWV,032,R,06.2,N,A*16
$IIMWV,046,T,04.7,N,A*14
$IIRMC,100333,A,5416.303,N,01340.966,E,02.3,171,070821,04,E,A*09
$IIGLL,5416.302,N,01340.966,E,100334,A,A*5D
$IIMWV,030,R,06.3,N,A*15
$IIMWV,048,T,04.3,N,A*1E
$IIRMC,100334,A,5416.302,N,01340.966,E,02.3,171,070821,04,E,A*0F
$IIGLL,5416.302,N,01340.967,E,100335,A,A*5D
$IIMWV,033,R,06.1,N,A*14
$IIMWV,045,T,04.3,N,A*13
$IIRMC,100335,A,5416.302,N,01340.967,E,02.3,171,070821,04,E,A*0F
$IIGLL,5416.301,N,01340.968,E,100336,A,A*52
$IIMWV,032,R,06.2,N,A*16
$IIMWV,049,T,04.2,N,A*1E
$IIRMC,100336,A,5416.301,N,01340.968,E,02.3,171,070821,04,E,A*00
$IIGLL,5416.301,N,01340.968,E,100337,A,A*53
$IIMWV,034,R,06.3,N,A*11
$IIMWV,048,T,04.3,N,A*1E
$IIRMC,100337,A,5416.301,N,01340.968,E,02.3,171,070821,04,E,A*01
$IIGLL,5416.301,N,01340.968,E,100338,A,A*5C
$IIMWV,034,R,06.5,N,A*17
$IIMWV,050,T,04.5,N,A*11
$IIRMC,100338,A,5416.301,N,01340.968,E,02.3,171,070821,04,E,A*0E
$IIGLL,5416.300,N,01340.968,E,100339,A,A*5C
$IIMWV,033,R,06.5,N,A*10
$IIMWV,050,T,04.6,N,A*12
$IIRMC,100339,A,5416.300,N,01340.968,E,02.3,171,070821,04,E,A*0E
$IIGLL,5416.300,N,01340.968,E,100340,A,A*52
$IIMWV,034,R,06.3,N,A*11
$IIMWV,049,T,04.6,N,A*1A
$IIRMC,100340,A,5416.300,N,01340.968,E,02.3,170,070821,04,E,A*01
$IIGLL,5416.300,N,01340.968,E,100341,A,A*53
$IIMWV,034,R,06.3,N,A*11
$IIMWV,050,T,04.5,N,A*11
$IIRMC,100341,A,5416.300,N,01340.968,E,02.2,169,070821,04,E,A*09
$IIGLL,5416.300,N,01340.967,E,100342,A,A*5F
$IIMWV,034,R,06.1,N,A*13
$IIMWV,049,T,04.6,N,A*1A
$IIRMC,100342,A,5416.300,N,01340.967,E,02.2,169,070821,04,E,A*05
$IIGLL,5416.300,N,01340.967,E,100343,A,A*5E
$IIMWV,033,R,06.0,N,A*15
$IIMWV,050,T,04.4,N,A*10
$IIRMC,100343,A,5416.300,N,01340.967,E,02.2,168,070821,04,E,A*05
$IIGLL,5416.300,N,01340.968,E,100344,A,A*56
$IIMWV,033,R,06.1,N,A*14
$IIMWV,049,T,04.2,N,A*1E
$IIRMC,100344,A,5416.300,N,01340.968,E,02.2,168,070821,04,E,A*0D
$IIGLL,5416.300,N,01340.969,E,100345,A,A*56
$IIMWV,035,R,06.0,N,A*13
$IIMWV,048,T,04.3,N,A*1E
$IIRMC,100345,A,5416.300,N,01340.969,E,02.2,167,070821,04,E,A*02
$IIGLL,5416.300,N,01340.970,E,100346,A,A*5D
$IIMWV,034,R,06.2,N,A*10
$IIMWV,052,T,04.3,N,A*15
$IIRMC,100346,A,5416.300,N,01340.970,E,02.2,167,070821,04,E,A*09
$IIGLL,5416.299,N,01340.970,E,100347,A,A*5D
$IIMWV,037,R,06.3,N,A*12
$IIMWV,050,T,04.4,N,A*10
$IIRMC,100347,A,5416.299,N,01340.970,E,02.2,167,070821,04,E,A*09
$IIGLL,5416.299,N,01340.971,E,100348,A,A*53
$IIMWV,037,R,06.1,N,A*10
$IIMWV,053,T,04.6,N,A*11
$IIRMC,100348,A,5416.299,N,01340.971,E,02.2,166,070821,04,E,A*06
$IIGLL,5416.298,N,01340.970,E,100349,A,A*52
$IIMWV,040,R,05.9,N,A*1B
$IIMWV,054,T,04.4,N,A*14
$IIRMC,100349,A,5416.298,N,01340.970,E,02.2,166,070821,04,E,A*07
$IIGLL,5416.298,N,01340.970,E,100350,A,A*5A
$IIMWV,041,R,05.7,N,A*14
$IIMWV,058,T,04.3,N,A*1F
$IIRMC,100350,A,5416.298,N,01340.970,E,02.2,165,070821,04,E,A*0C
$IIGLL,5416.297,N,01340.971,E,100351,A,A*55
$IIMWV,044,R,06.0,N,A*15
$IIMWV,061,T,04.2,N,A*14
$IIRMC,100351,A,5416.297,N,01340.971,E,02.2,164,070821,04,E,A*02
$IIGLL,5416.297,N,01340.972,E,100352,A,A*55
$IIMWV,043,R,05.6,N,A*17
$IIMWV,063,T,04.6,N,A*12
$IIRMC,100352,A,5416.297,N,01340.972,E,02.2,164,070821,04,E,A*02
$IIGLL,5416.296,N,01340.971,E,100353,A,A*56
$IIMWV,044,R,05.5,N,A*13
$IIMWV,065,T,04.2,N,A*10
$IIRMC,100353,A,5416.296,N,01340.971,E,02.1,164,070821,04,E,A*02
$IIGLL,5416.295,N,01340.972,E,100354,A,A*51
$IIMWV,044,R,05.5,N,A*13
$IIMWV,064,T,04.1,N,A*12
$IIRMC,100354,A,5416.295,N,01340.972,E,02.1,162,070821,04,E,A*03
$IIGLL,5416.295,N,01340.972,E,100355,A,A*50
$IIMWV,047,R,05.6,N,A*13
$IIMWV,064,T,04.1,N,A*12
$IIRMC,100355,A,5416.295,N,01340.972,E,02.2,162,070821,04,E,A*01
$IIGLL,5416.294,N,01340.973,E,100356,A,A*53
$IIMWV,048,R,05.6,N,A*1C
$IIMWV,068,T,04.3,N,A*1C
$IIRMC,100356,A,5416.294,N,01340.973,E,02.2,160,070821,04,E,A*00
$IIGLL,5416.294,N,01340.974,E,100357,A,A*55
$IIMWV,049,R,05.6,N,A*1D
$IIMWV,070,T,04.3,N,A*15
$IIRMC,100357,A,5416.294,N,01340.974,E,02.2,159,070821,04,E,A*0C
$IIGLL,5416.293,N,01340.974,E,100358,A,A*5D
$IIMWV,050,R,05.3,N,A*10
$IIMWV,072,T,04.4,N,A*10
$IIRMC,100358,A,5416.293,N,01340.974,E,02.2,158,070821,04,E,A*05
$IIGLL,5416.293,N,01340.974,E,100359,A,A*5C
$IIMWV,051,R,05.4,N,A*16
$IIMWV,075,T,04.1,N,A*12
$IIRMC,100359,A,5416.293,N,01340.974,E,02.2,157,070821,04,E,A*0B
$IIGLL,5416.292,N,01340.974,E,100400,A,A*56
$IIMWV,052,R,05.4,N,A*15
$IIMWV,074,T,04.3,N,A*11
$IIRMC,100400,A,5416.292,N,01340.974,E,02.2,156,070821,04,E,A*00
$IIGLL,5416.291,N,01340.974,E,100401,A,A*54
$IIMWV,052,R,05.5,N,A*14
$IIMWV,075,T,04.3,N,A*10
$IIRMC,100401,A,5416.291,N,01340.974,E,02.2,156,070821,04,E,A*02
$IIGLL,5416.291,N,01340.976,E,100402,A,A*55
$IIMWV,053,R,05.2,N,A*12
$IIMWV,075,T,04.4,N,A*17
$IIRMC,100402,A,5416.291,N,01340.976,E,02.2,155,070821,04,E,A*00
$IIGLL,5416.290,N,01340.976,E,100403,A,A*55
$IIMWV,050,R,05.4,N,A*17
$IIMWV,078,T,04.1,N,A*1F
$IIRMC,100403,A,5416.290,N,01340.976,E,02.2,154,070821,04,E,A*01
$IIGLL,5416.290,N,01340.977,E,100404,A,A*53
$IIMWV,051,R,05.4,N,A*16
$IIMWV,074,T,04.2,N,A*10
$IIRMC,100404,A,5416.290,N,01340.977,E,02.2,153,070821,04,E,A*00
$IIGLL,5416.289,N,01340.978,E,100405,A,A*55
$IIMWV,051,R,05.2,N,A*10
$IIMWV,074,T,04.3,N,A*11
$IIRMC,100405,A,5416.289,N,01340.978,E,02.2,153,070821,04,E,A*06
$IIGLL,5416.288,N,01340.978,E,100406,A,A*57
$IIMWV,050,R,05.6,N,A*15
$IIMWV,076,T,04.1,N,A*11
$IIRMC,100406,A,5416.288,N,01340.978,E,02.2,152,070821,04,E,A*05
$IIGLL,5416.287,N,01340.979,E,100407,A,A*58
$IIMWV,050,R,05.7,N,A*14
$IIMWV,073,T,04.4,N,A*11
$IIRMC,100407,A,5416.287,N,01340.979,E,02.2,151,070821,04,E,A*09
$IIGLL,5416.287,N,01340.981,E,100408,A,A*50
$IIMWV,048,R,05.9,N,A*13
$IIMWV,072,T,04.5,N,A*11
$IIRMC,100408,A,5416.287,N,01340.981,E,02.3,151,070821,04,E,A*00
$IIGLL,5416.286,N,01340.982,E,100409,A,A*53
$IIMWV,049,R,05.9,N,A*12
$IIMWV,070,T,04.5,N,A*13
$IIRMC,100409,A,5416.286,N,01340.982,E,02.3,150,070821,04,E,A*02
$IIGLL,5416.285,N,01340.982,E,100410,A,A*58
$IIMWV,049,R,06.1,N,A*19
$IIMWV,071,T,04.6,N,A*11
$IIRMC,100410,A,5416.285,N,01340.982,E,02.3,150,070821,04,E,A*09
$IIGLL,5416.285,N,01340.982,E,100411,A,A*59
$IIMWV,050,R,06.5,N,A*15
$IIMWV,069,T,04.8,N,A*16
$IIRMC,100411,A,5416.285,N,01340.982,E,02.3,150,070821,04,E,A*08
$IIGLL,5416.284,N,01340.983,E,100412,A,A*5A
$IIMWV,047,R,06.6,N,A*10
$IIMWV,070,T,05.3,N,A*14
$IIRMC,100412,A,5416.284,N,01340.983,E,02.3,150,070821,04,E,A*0B
$IIGLL,5416.283,N,01340.983,E,100413,A,A*5C
$IIMWV,049,R,06.6,N,A*1E
$IIMWV,066,T,05.2,N,A*12
$IIRMC,100413,A,5416.283,N,01340.983,E,02.3,149,070821,04,E,A*05
$IIGLL,5416.282,N,01340.983,E,100414,A,A*5A
$IIMWV,047,R,06.7,N,A*11
$IIMWV,068,T,05.2,N,A*1C
$IIRMC,100415,A,5416.281,N,01340.983,E,02.3,149,070821,04,E,A*01
$IIGLL,5416.281,N,01340.983,E,100415,A,A*58
$IIMWV,047,R,06.6,N,A*10
$IIMWV,065,T,05.2,N,A*11
$IIRMC,100416,A,5416.280,N,01340.984,E,02.3,148,070821,04,E,A*05
$IIGLL,5416.280,N,01340.984,E,100416,A,A*5D
$IIMWV,047,R,06.6,N,A*10
$IIMWV,066,T,05.2,N,A*12
$IIRMC,100417,A,5416.279,N,01340.984,E,02.3,148,070821,04,E,A*02
$IIGLL,5416.279,N,01340.984,E,100417,A,A*5A
$IIMWV,047,R,06.6,N,A*10
$IIMWV,066,T,05.2,N,A*12
$IIRMC,100418,A,5416.277,N,01340.985,E,02.4,146,070821,04,E,A*0B
$IIGLL,5416.277,N,01340.985,E,100418,A,A*5A
$IIMWV,047,R,06.6,N,A*10
$IIMWV,066,T,05.2,N,A*12
$IIRMC,100419,A,5416.277,N,01340.986,E,02.4,145,070821,04,E,A*0A
$IIGLL,5416.277,N,01340.986,E,100419,A,A*58
$IIMWV,047,R,06.7,N,A*11
$IIMWV,067,T,05.2,N,A*13
$IIRMC,100420,A,5416.276,N,01340.986,E,02.4,145,070821,04,E,A*01
$IIGLL,5416.276,N,01340.986,E,100420,A,A*53
$IIMWV,046,R,06.7,N,A*10
$IIMWV,066,T,05.2,N,A*12
$IIRMC,100421,A,5416.275,N,01340.987,E,02.4,144,070821,04,E,A*03
$IIGLL,5416.275,N,01340.987,E,100421,A,A*50
$IIMWV,047,R,06.4,N,A*12
$IIMWV,065,T,05.2,N,A*11
$IIRMC,100422,A,5416.275,N,01340.988,E,02.4,145,070821,04,E,A*0E
$IIGLL,5416.275,N,01340.988,E,100422,A,A*5C
$IIMWV,046,R,06.7,N,A*10
$IIMWV,068,T,04.9,N,A*16
$IIRMC,100423,A,5416.276,N,01340.990,E,02.4,145,070821,04,E,A*05
$IIGLL,5416.276,N,01340.990,E,100423,A,A*57
$IIMWV,046,R,06.7,N,A*10
$IIMWV,065,T,05.2,N,A*11
$IIRMC,100424,A,5416.276,N,01340.991,E,02.5,144,070821,04,E,A*03
$IIGLL,5416.276,N,01340.991,E,100424,A,A*51
$IIMWV,045,R,06.7,N,A*13
$IIMWV,065,T,05.2,N,A*11
$IIRMC,100425,A,5416.275,N,01340.992,E,02.5,144,070821,04,E,A*02
$IIGLL,5416.275,N,01340.994,E,100426,A,A*55
$IIMWV,048,R,06.9,N,A*10
$IIMWV,064,T,05.4,N,A*16
$IIRMC,100426,A,5416.275,N,01340.994,E,02.5,144,070821,04,E,A*07
$IIGLL,5416.275,N,01340.995,E,100427,A,A*55
$IIMWV,048,R,07.1,N,A*19
$IIMWV,068,T,05.5,N,A*1B
$IIRMC,100427,A,5416.275,N,01340.995,E,02.5,144,070821,04,E,A*07
$IIGLL,5416.275,N,01340.994,E,100428,A,A*5B
$IIMWV,049,R,07.0,N,A*19
$IIMWV,067,T,05.6,N,A*17
$IIRMC,100428,A,5416.275,N,01340.994,E,02.5,144,070821,04,E,A*09
$IIGLL,5416.274,N,01340.995,E,100429,A,A*5A
$IIMWV,049,R,07.1,N,A*18
$IIMWV,068,T,05.6,N,A*18
$IIRMC,100429,A,5416.274,N,01340.995,E,02.5,144,070821,04,E,A*08
$IIGLL,5416.273,N,01340.996,E,100430,A,A*56
$IIMWV,050,R,06.9,N,A*19
$IIMWV,069,T,05.7,N,A*18
$IIRMC,100430,A,5416.273,N,01340.996,E,02.6,145,070821,04,E,A*06
$IIGLL,5416.273,N,01340.997,E,100431,A,A*56
$IIMWV,049,R,07.1,N,A*18
$IIMWV,071,T,05.5,N,A*13
$IIRMC,100431,A,5416.273,N,01340.997,E,02.6,145,070821,04,E,A*06
$IIGLL,5416.274,N,01340.997,E,100432,A,A*52
$IIMWV,051,R,07.1,N,A*11
$IIMWV,069,T,05.6,N,A*19
$IIRMC,100432,A,5416.274,N,01340.997,E,02.6,145,070821,04,E,A*02
$IIGLL,5416.274,N,01340.997,E,100433,A,A*53
$IIMWV,051,R,07.1,N,A*11
$IIMWV,072,T,05.7,N,A*12
$IIRMC,100433,A,5416.274,N,01340.997,E,02.6,144,070821,04,E,A*02
$IIGLL,5416.273,N,01340.998,E,100434,A,A*5C
$IIMWV,052,R,07.2,N,A*11
$IIMWV,072,T,05.7,N,A*12
$IIRMC,100434,A,5416.273,N,01340.998,E,02.6,144,070821,04,E,A*0D
$IIGLL,5416.272,N,01340.999,E,100435,A,A*5D
$IIMWV,052,R,07.3,N,A*10
$IIMWV,072,T,05.8,N,A*1D
$IIRMC,100435,A,5416.272,N,01340.999,E,02.6,143,070821,04,E,A*0B
$IIGLL,5416.272,N,01341.000,E,100436,A,A*56
$IIMWV,052,R,07.4,N,A*17
$IIMWV,072,T,06.0,N,A*16
$IIRMC,100439,A,5416.272,N,01341.004,E,02.7,142,070821,04,E,A*0B
$IIGLL,5416.272,N,01341.004,E,100439,A,A*5D
$IIMWV,055,R,07.3,N,A*17
$IIMWV,074,T,06.1,N,A*11
$IIRMC,100440,A,5416.271,N,01341.005,E,02.7,141,070821,04,E,A*04
$IIGLL,5416.271,N,01341.005,E,100440,A,A*51
$IIMWV,055,R,07.2,N,A*16
$IIMWV,077,T,06.0,N,A*13
$IIRMC,100441,A,5416.270,N,01341.006,E,02.7,141,070821,04,E,A*07
$IIGLL,5416.270,N,01341.006,E,100441,A,A*52
$IIMWV,055,R,06.8,N,A*1D
$IIMWV,077,T,06.0,N,A*13
$IIRMC,100442,A,5416.268,N,01341.007,E,02.7,141,070821,04,E,A*0C
$IIGLL,5416.268,N,01341.007,E,100442,A,A*59
$IIMWV,052,R,06.7,N,A*15
$IIMWV,079,T,05.6,N,A*18
$IIRMC,100443,A,5416.268,N,01341.007,E,02.8,140,070821,04,E,A*03
$IIGLL,5416.268,N,01341.007,E,100443,A,A*58
$IIMWV,052,R,06.7,N,A*15
$IIMWV,075,T,05.3,N,A*11
$IIRMC,100444,A,5416.268,N,01341.008,E,02.8,139,070821,04,E,A*05
$IIGLL,5416.268,N,01341.008,E,100444,A,A*50
$IIMWV,050,R,06.6,N,A*16
$IIMWV,076,T,05.3,N,A*12
$IIRMC,100445,A,5416.267,N,01341.009,E,02.8,139,070821,04,E,A*0A
$IIGLL,5416.267,N,01341.009,E,100445,A,A*5F
$IIMWV,050,R,06.6,N,A*16
$IIMWV,074,T,05.1,N,A*12
$IIRMC,100446,A,5416.267,N,01341.010,E,02.9,140,070821,04,E,A*0E
$IIGLL,5416.267,N,01341.010,E,100446,A,A*54
$IIMWV,049,R,06.9,N,A*11
$IIMWV,074,T,05.1,N,A*12
$IIRMC,100447,A,5416.265,N,01341.010,E,02.9,139,070821,04,E,A*03
$IIGLL,5416.265,N,01341.010,E,100447,A,A*57
$IIMWV,050,R,06.8,N,A*18
$IIMWV,073,T,05.3,N,A*17
$IIRMC,100448,A,5416.265,N,01341.011,E,02.9,141,070821,04,E,A*02
$IIGLL,5416.265,N,01341.011,E,100448,A,A*59
$IIMWV,049,R,06.8,N,A*10
$IIMWV,075,T,05.3,N,A*11
$IIRMC,100449,A,5416.264,N,01341.012,E,02.9,139,070821,04,E,A*0E
$IIGLL,5416.264,N,01341.012,E,100449,A,A*5A
$IIMWV,049,R,06.8,N,A*10
$IIMWV,074,T,05.3,N,A*10
$IIRMC,100450,A,5416.263,N,01341.013,E,02.9,139,070821,04,E,A*00
$IIGLL,5416.263,N,01341.013,E,100450,A,A*54
$IIMWV,049,R,06.9,N,A*11
$IIMWV,074,T,05.3,N,A*10
$IIRMC,100451,A,5416.263,N,01341.013,E,02.9,139,070821,04,E,A*01
$IIGLL,5416.263,N,01341.013,E,100451,A,A*55
$IIMWV,049,R,06.9,N,A*11
$IIMWV,073,T,05.3,N,A*17
$IIRMC,100452,A,5416.262,N,01341.013,E,03.1,146,070821,04,E,A*02
$IIGLL,5416.262,N,01341.013,E,100452,A,A*57
$IIMWV,049,R,07.1,N,A*18
$IIMWV,073,T,05.3,N,A*17
$IIRMC,100453,A,5416.261,N,01341.014,E,02.9,141,070821,04,E,A*09
$IIGLL,5416.261,N,01341.014,E,100453,A,A*52
$IIMWV,050,R,06.9,N,A*19
$IIMWV,074,T,05.5,N,A*16
$IIRMC,100454,A,5416.261,N,01341.015,E,02.9,138,070821,04,E,A*01
$IIGLL,5416.261,N,01341.015,E,100454,A,A*54
$IIMWV,050,R,07.0,N,A*11
$IIMWV,074,T,05.5,N,A*16
$IIRMC,100455,A,5416.260,N,01341.017,E,02.9,137,070821,04,E,A*0C
$IIGLL,5416.260,N,01341.017,E,100455,A,A*56
$IIMWV,049,R,07.0,N,A*19
$IIMWV,074,T,05.5,N,A*16
$IIRMC,100456,A,5416.259,N,01341.018,E,02.9,136,070821,04,E,A*0B
$IIGLL,5416.259,N,01341.018,E,100456,A,A*50
$IIMWV,050,R,06.9,N,A*19
$IIMWV,072,T,05.4,N,A*11
$IIRMC,100457,A,5416.258,N,01341.020,E,02.9,137,070821,04,E,A*01
$IIGLL,5416.258,N,01341.020,E,100457,A,A*5B
$IIMWV,050,R,06.8,N,A*18
$IIMWV,074,T,05.5,N,A*16
$IIRMC,100458,A,5416.257,N,01341.020,E,02.9,136,070821,04,E,A*00
$IIGLL,5416.257,N,01341.020,E,100458,A,A*5B
