$IIRMC,114015,A,5417.182,N,01212.998,E,05.5,042,010821,03,E,A*07
$IIGLL,5417.182,N,01212.998,E,114015,A,A*54
$IIMWV,240,R,10.6,N,A*12
$IIMWV,224,T,14.1,N,A*15
$IIRMC,114017,A,5417.184,N,01213.002,E,05.1,041,010821,03,E,A*0F
$IIGLL,5417.184,N,01213.002,E,114017,A,A*5B
$IIMWV,234,R,10.2,N,A*15
$IIMWV,220,T,14.1,N,A*11
$IIRMC,114017,A,5417.184,N,01213.002,E,05.1,041,010821,03,E,A*0F
$IIGLL,5417.184,N,01213.002,E,114017,A,A*5B
$IIMWV,236,R,10.3,N,A*16
$IIMWV,217,T,13.8,N,A*1B
$IIRMC,114017,A,5417.184,N,01213.002,E,05.1,041,010821,03,E,A*0F
$IIGLL,5417.184,N,01213.002,E,114017,A,A*5B
$IIMWV,238,R,11.1,N,A*1B
$IIMWV,218,T,13.7,N,A*1B
$IIRMC,114017,A,5417.184,N,01213.002,E,05.1,041,010821,03,E,A*0F
$IIGLL,5417.184,N,01213.002,E,114017,A,A*5B
$IIMWV,235,R,11.3,N,A*14
$IIMWV,221,T,14.3,N,A*12
$IIRMC,114017,A,5417.184,N,01213.002,E,05.1,041,010821,03,E,A*0F
$IIGLL,5417.184,N,01213.002,E,114017,A,A*5B
$IIMWV,234,R,11.2,N,A*14
$IIMWV,219,T,14.7,N,A*1D
$IIRMC,114022,A,5417.189,N,01213.010,E,05.0,047,010821,03,E,A*00
$IIGLL,5417.189,N,01213.010,E,114022,A,A*53
$IIMWV,232,R,11.2,N,A*12
$IIMWV,218,T,14.7,N,A*1C
$IIRMC,114023,A,5417.190,N,01213.012,E,05.0,047,010821,03,E,A*0B
$IIGLL,5417.190,N,01213.012,E,114023,A,A*58
$IIMWV,230,R,11.2,N,A*10
$IIMWV,217,T,14.8,N,A*1C
$IIRMC,114024,A,5417.191,N,01213.014,E,05.0,047,010821,03,E,A*0B
$IIGLL,5417.191,N,01213.014,E,114024,A,A*58
$IIMWV,230,R,11.1,N,A*13
$IIMWV,215,T,14.8,N,A*1E
$IIRMC,114025,A,5417.192,N,01213.016,E,05.0,047,010821,03,E,A*0B
$IIGLL,5417.192,N,01213.016,E,114025,A,A*58
$IIMWV,232,R,11.2,N,A*12
$IIMWV,215,T,14.7,N,A*11
$IIRMC,114026,A,5417.192,N,01213.017,E,05.0,047,010821,03,E,A*09
$IIGLL,5417.192,N,01213.017,E,114026,A,A*5A
$IIMWV,234,R,11.6,N,A*10
$IIMWV,217,T,14.8,N,A*1C
$IIRMC,114027,A,5417.193,N,01213.019,E,05.0,047,010821,03,E,A*07
$IIGLL,5417.193,N,01213.019,E,114027,A,A*54
$IIMWV,235,R,11.9,N,A*1E
$IIMWV,218,T,15.0,N,A*1A
$IIRMC,114028,A,5417.193,N,01213.019,E,05.0,047,010821,03,E,A*08
$IIGLL,5417.193,N,01213.019,E,114028,A,A*5B
$IIMWV,235,R,11.9,N,A*1E
$IIMWV,220,T,15.1,N,A*10
$IIRMC,114029,A,5417.193,N,01213.019,E,05.0,047,010821,03,E,A*09
$IIGLL,5417.193,N,01213.019,E,114029,A,A*5A
$IIMWV,230,R,11.5,N,A*17
$IIMWV,220,T,15.1,N,A*10
$IIRMC,114030,A,5417.193,N,01213.019,E,05.0,047,010821,03,E,A*01
$IIGLL,5417.193,N,01213.019,E,114030,A,A*52
$IIMWV,232,R,11.4,N,A*14
$IIMWV,216,T,15.1,N,A*15
$IIRMC,114031,A,5417.197,N,01213.027,E,05.5,047,010821,03,E,A*0C
$IIGLL,5417.197,N,01213.027,E,114031,A,A*5A
$IIMWV,236,R,12.0,N,A*17
$IIMWV,217,T,15.0,N,A*15
$IIRMC,114032,A,5417.199,N,01213.029,E,05.6,046,010821,03,E,A*0D
$IIGLL,5417.199,N,01213.029,E,114032,A,A*59
$IIMWV,236,R,12.2,N,A*15
$IIMWV,219,T,15.7,N,A*1C
$IIRMC,114033,A,5417.200,N,01213.031,E,05.8,045,010821,03,E,A*0B
$IIGLL,5417.200,N,01213.031,E,114033,A,A*52
$IIMWV,232,R,11.9,N,A*19
$IIMWV,219,T,15.9,N,A*12
$IIRMC,114033,A,5417.200,N,01213.031,E,05.8,045,010821,03,E,A*0B
$IIGLL,5417.200,N,01213.031,E,114033,A,A*52
$IIMWV,230,R,11.6,N,A*14
$IIMWV,216,T,16.1,N,A*16
$IIRMC,114035,A,5417.202,N,01213.035,E,06.0,044,010821,03,E,A*01
$IIGLL,5417.202,N,01213.035,E,114035,A,A*52
$IIMWV,232,R,11.9,N,A*19
$IIMWV,214,T,15.9,N,A*1F
$IIRMC,114036,A,5417.204,N,01213.037,E,06.0,044,010821,03,E,A*06
$IIGLL,5417.204,N,01213.037,E,114036,A,A*55
$IIMWV,234,R,12.1,N,A*14
$IIMWV,215,T,16.2,N,A*16
$IIRMC,114037,A,5417.205,N,01213.039,E,06.0,044,010821,03,E,A*08
$IIGLL,5417.205,N,01213.039,E,114037,A,A*5B
$IIMWV,233,R,12.1,N,A*13
$IIMWV,217,T,16.3,N,A*15
$IIRMC,114038,A,5417.206,N,01213.041,E,06.0,044,010821,03,E,A*0B
$IIGLL,5417.206,N,01213.041,E,114038,A,A*58
$IIMWV,230,R,11.8,N,A*1A
$IIMWV,216,T,16.3,N,A*14
$IIRMC,114039,A,5417.207,N,01213.043,E,06.0,044,010821,03,E,A*09
$IIGLL,5417.207,N,01213.043,E,114039,A,A*5A
$IIMWV,230,R,11.2,N,A*10
$IIMWV,214,T,16.2,N,A*17
$IIRMC,114040,A,5417.208,N,01213.045,E,06.0,044,010821,03,E,A*0E
$IIGLL,5417.208,N,01213.045,E,114040,A,A*5D
$IIMWV,229,R,11.0,N,A*1A
$IIMWV,213,T,15.6,N,A*17
$IIRMC,114041,A,5417.210,N,01213.047,E,06.2,046,010821,03,E,A*04
$IIGLL,5417.210,N,01213.047,E,114041,A,A*57
$IIMWV,232,R,11.6,N,A*16
$IIMWV,212,T,15.5,N,A*15
$IIRMC,114042,A,5417.211,N,01213.050,E,06.0,049,010821,03,E,A*0D
$IIGLL,5417.211,N,01213.050,E,114042,A,A*53
$IIMWV,230,R,12.0,N,A*11
$IIMWV,214,T,16.1,N,A*14
$IIRMC,114043,A,5417.212,N,01213.052,E,05.9,050,010821,03,E,A*0F
$IIGLL,5417.212,N,01213.052,E,114043,A,A*53
$IIMWV,220,R,11.6,N,A*15
$IIMWV,214,T,16.4,N,A*11
$IIRMC,114043,A,5417.212,N,01213.052,E,05.9,050,010821,03,E,A*0F
$IIGLL,5417.212,N,01213.052,E,114043,A,A*53
$IIMWV,221,R,11.2,N,A*10
$IIMWV,207,T,16.5,N,A*12
$IIRMC,114045,A,5417.214,N,01213.057,E,05.8,051,010821,03,E,A*0A
$IIGLL,5417.214,N,01213.057,E,114045,A,A*56
$IIMWV,225,R,11.3,N,A*15
$IIMWV,207,T,16.0,N,A*17
$IIRMC,114046,A,5417.215,N,01213.059,E,06.2,048,010821,03,E,A*07
$IIGLL,5417.215,N,01213.059,E,114046,A,A*5A
$IIMWV,230,R,11.9,N,A*1B
$IIMWV,210,T,15.9,N,A*1B
$IIRMC,114047,A,5417.216,N,01213.061,E,06.4,046,010821,03,E,A*06
$IIGLL,5417.216,N,01213.061,E,114047,A,A*53
$IIMWV,230,R,11.8,N,A*1A
$IIMWV,213,T,16.5,N,A*17
$IIRMC,114048,A,5417.218,N,01213.063,E,06.5,046,010821,03,E,A*04
$IIGLL,5417.218,N,01213.063,E,114048,A,A*50
$IIMWV,227,R,11.5,N,A*11
$IIMWV,213,T,16.5,N,A*17
$IIRMC,114049,A,5417.219,N,01213.066,E,06.6,045,010821,03,E,A*01
$IIGLL,5417.219,N,01213.066,E,114049,A,A*55
$IIMWV,229,R,11.1,N,A*1B
$IIMWV,210,T,16.5,N,A*14
$IIRMC,114050,A,5417.220,N,01213.068,E,06.6,045,010821,03,E,A*0D
$IIGLL,5417.220,N,01213.068,E,114050,A,A*59
$IIMWV,230,R,11.3,N,A*11
$IIMWV,211,T,16.1,N,A*11
$IIRMC,114051,A,5417.222,N,01213.070,E,06.2,043,010821,03,E,A*05
$IIGLL,5417.222,N,01213.070,E,114051,A,A*53
$IIMWV,233,R,11.3,N,A*12
$IIMWV,212,T,16.3,N,A*10
$IIRMC,114052,A,5417.223,N,01213.072,E,06.0,042,010821,03,E,A*06
$IIGLL,5417.223,N,01213.072,E,114052,A,A*53
$IIMWV,233,R,11.3,N,A*12
$IIMWV,215,T,15.7,N,A*10
$IIRMC,114053,A,5417.224,N,01213.074,E,05.9,041,010821,03,E,A*0F
$IIGLL,5417.224,N,01213.074,E,114053,A,A*53
$IIMWV,234,R,11.2,N,A*14
$IIMWV,215,T,15.5,N,A*12
$IIRMC,114054,A,5417.225,N,01213.076,E,05.9,041,010821,03,E,A*0B
$IIGLL,5417.225,N,01213.076,E,114054,A,A*57
$IIMWV,231,R,10.9,N,A*1B
$IIMWV,216,T,15.4,N,A*10
$IIRMC,114055,A,5417.227,N,01213.078,E,05.9,041,010821,03,E,A*06
$IIGLL,5417.227,N,01213.078,E,114055,A,A*5A
$IIMWV,229,R,10.5,N,A*1E
$IIMWV,214,T,15.2,N,A*14
$IIRMC,114056,A,5417.228,N,01213.079,E,05.8,041,010821,03,E,A*0A
$IIGLL,5417.228,N,01213.079,E,114056,A,A*57
$IIMWV,230,R,10.3,N,A*10
$IIMWV,211,T,14.9,N,A*1B
$IIRMC,114057,A,5417.229,N,01213.082,E,05.8,045,010821,03,E,A*0A
$IIGLL,5417.229,N,01213.082,E,114057,A,A*53
$IIMWV,231,R,10.5,N,A*17
$IIMWV,213,T,14.6,N,A*16
$IIRMC,114058,A,5417.230,N,01213.084,E,05.8,047,010821,03,E,A*09
$IIGLL,5417.230,N,01213.084,E,114058,A,A*52
$IIMWV,230,R,10.4,N,A*17
$IIMWV,213,T,14.8,N,A*18
$IIRMC,114059,A,5417.231,N,01213.086,E,05.8,048,010821,03,E,A*04
$IIGLL,5417.231,N,01213.086,E,114059,A,A*50
$IIMWV,226,R,10.2,N,A*16
$IIMWV,213,T,14.7,N,A*17
$IIRMC,114100,A,5417.232,N,01213.088,E,05.8,049,010821,03,E,A*05
$IIGLL,5417.232,N,01213.088,E,114100,A,A*50
$IIMWV,229,R,10.1,N,A*1A
$IIMWV,210,T,14.7,N,A*14
$IIRMC,114101,A,5417.233,N,01213.090,E,06.1,050,010821,03,E,A*0E
$IIGLL,5417.233,N,01213.090,E,114101,A,A*59
$IIMWV,232,R,10.8,N,A*19
$IIMWV,211,T,14.4,N,A*16
$IIRMC,114102,A,5417.235,N,01213.093,E,06.2,051,010821,03,E,A*0A
$IIGLL,5417.235,N,01213.093,E,114102,A,A*5F
$IIMWV,232,R,10.9,N,A*18
$IIMWV,214,T,15.2,N,A*14
$IIRMC,114103,A,5417.236,N,01213.095,E,06.2,051,010821,03,E,A*0E
$IIGLL,5417.236,N,01213.095,E,114103,A,A*5B
$IIMWV,229,R,10.5,N,A*1E
$IIMWV,214,T,15.5,N,A*13
$IIRMC,114104,A,5417.237,N,01213.097,E,06.2,051,010821,03,E,A*0A
$IIGLL,5417.237,N,01213.097,E,114104,A,A*5F
$IIMWV,228,R,10.1,N,A*1B
$IIMWV,211,T,15.2,N,A*11
$IIRMC,114105,A,5417.238,N,01213.100,E,06.3,051,010821,03,E,A*0A
$IIGLL,5417.238,N,01213.100,E,114105,A,A*5E
$IIMWV,231,R,09.9,N,A*13
$IIMWV,210,T,14.8,N,A*1B
$IIRMC,114106,A,5417.239,N,01213.102,E,06.4,048,010821,03,E,A*05
$IIGLL,5417.239,N,01213.102,E,114106,A,A*5E
$IIMWV,234,R,10.6,N,A*11
$IIMWV,212,T,14.6,N,A*17
$IIRMC,114107,A,5417.240,N,01213.104,E,06.4,047,010821,03,E,A*03
$IIGLL,5417.240,N,01213.104,E,114107,A,A*57
$IIMWV,235,R,10.8,N,A*1E
$IIMWV,214,T,15.1,N,A*17
$IIRMC,114108,A,5417.242,N,01213.106,E,06.4,046,010821,03,E,A*0D
$IIGLL,5417.242,N,01213.106,E,114108,A,A*58
$IIMWV,227,R,10.5,N,A*10
$IIMWV,215,T,15.2,N,A*15
$IIRMC,114108,A,5417.242,N,01213.106,E,06.4,046,010821,03,E,A*0D
$IIGLL,5417.242,N,01213.106,E,114108,A,A*58
$IIMWV,223,R,10.1,N,A*10
$IIMWV,209,T,15.4,N,A*1E
$IIRMC,114110,A,5417.244,N,01213.111,E,06.5,045,010821,03,E,A*06
$IIGLL,5417.244,N,01213.111,E,114110,A,A*51
$IIMWV,227,R,10.5,N,A*10
$IIMWV,206,T,15.2,N,A*17
$IIRMC,114111,A,5417.245,N,01213.113,E,06.5,045,010821,03,E,A*04
$IIGLL,5417.245,N,01213.113,E,114111,A,A*53
$IIMWV,230,R,11.0,N,A*12
$IIMWV,209,T,15.5,N,A*1F
$IIRMC,114112,A,5417.247,N,01213.115,E,06.5,045,010821,03,E,A*03
$IIGLL,5417.247,N,01213.115,E,114112,A,A*54
$IIMWV,223,R,11.0,N,A*10
$IIMWV,212,T,15.9,N,A*19
$IIRMC,114113,A,5417.248,N,01213.117,E,06.5,045,010821,03,E,A*0F
$IIGLL,5417.248,N,01213.117,E,114113,A,A*58
$IIMWV,216,R,10.5,N,A*12
$IIMWV,207,T,16.2,N,A*15
$IIRMC,114114,A,5417.249,N,01213.119,E,06.5,045,010821,03,E,A*07
$IIGLL,5417.249,N,01213.119,E,114114,A,A*50
$IIMWV,218,R,09.9,N,A*18
$IIMWV,202,T,16.1,N,A*13
$IIRMC,114115,A,5417.250,N,01213.122,E,06.7,047,010821,03,E,A*06
$IIGLL,5417.250,N,01213.122,E,114115,A,A*51
$IIMWV,224,R,10.4,N,A*12
$IIMWV,203,T,15.5,N,A*15
$IIRMC,114116,A,5417.252,N,01213.124,E,06.8,048,010821,03,E,A*01
$IIGLL,5417.252,N,01213.124,E,114116,A,A*56
$IIMWV,228,R,11.3,N,A*18
$IIMWV,207,T,15.7,N,A*13
$IIRMC,114117,A,5417.253,N,01213.127,E,06.9,049,010821,03,E,A*02
$IIGLL,5417.253,N,01213.127,E,114117,A,A*55
$IIMWV,221,R,11.0,N,A*12
$IIMWV,210,T,16.5,N,A*14
$IIRMC,114118,A,5417.254,N,01213.129,E,06.9,049,010821,03,E,A*04
$IIGLL,5417.254,N,01213.129,E,114118,A,A*53
$IIMWV,220,R,10.5,N,A*17
$IIMWV,206,T,16.7,N,A*11
$IIRMC,114119,A,5417.255,N,01213.132,E,07.0,049,010821,03,E,A*06
$IIGLL,5417.255,N,01213.132,E,114119,A,A*59
$IIMWV,222,R,10.1,N,A*11
$IIMWV,204,T,16.3,N,A*17
$IIRMC,114120,A,5417.257,N,01213.134,E,06.1,046,010821,03,E,A*07
$IIGLL,5417.257,N,01213.134,E,114120,A,A*57
$IIMWV,225,R,10.0,N,A*17
$IIMWV,205,T,15.8,N,A*1E
$IIRMC,114121,A,5417.258,N,01213.136,E,06.2,045,010821,03,E,A*0B
$IIGLL,5417.258,N,01213.136,E,114121,A,A*5B
$IIMWV,229,R,10.2,N,A*19
$IIMWV,208,T,14.9,N,A*13
$IIRMC,114122,A,5417.260,N,01213.139,E,06.4,043,010821,03,E,A*0C
$IIGLL,5417.260,N,01213.139,E,114122,A,A*5C
$IIMWV,234,R,11.0,N,A*16
$IIMWV,211,T,14.9,N,A*1B
$IIRMC,114123,A,5417.261,N,01213.141,E,06.6,043,010821,03,E,A*01
$IIGLL,5417.261,N,01213.141,E,114123,A,A*53
$IIMWV,230,R,10.9,N,A*1A
$IIMWV,215,T,15.5,N,A*12
$IIRMC,114124,A,5417.262,N,01213.143,E,06.6,042,010821,03,E,A*06
$IIGLL,5417.262,N,01213.143,E,114124,A,A*55
$IIMWV,219,R,10.4,N,A*1C
$IIMWV,212,T,15.8,N,A*18
$IIRMC,114125,A,5417.264,N,01213.146,E,06.7,042,010821,03,E,A*05
$IIGLL,5417.264,N,01213.146,E,114125,A,A*57
$IIMWV,223,R,09.8,N,A*11
$IIMWV,204,T,16.0,N,A*14
$IIRMC,114126,A,5417.265,N,01213.148,E,06.4,045,010821,03,E,A*0D
$IIGLL,5417.265,N,01213.148,E,114126,A,A*5B
$IIMWV,229,R,10.5,N,A*1E
$IIMWV,206,T,15.2,N,A*17
$IIRMC,114127,A,5417.267,N,01213.150,E,06.5,043,010821,03,E,A*00
$IIGLL,5417.267,N,01213.150,E,114127,A,A*51
$IIMWV,234,R,11.0,N,A*16
$IIMWV,210,T,15.4,N,A*16
$IIRMC,114128,A,5417.268,N,01213.152,E,06.5,042,010821,03,E,A*03
$IIGLL,5417.268,N,01213.152,E,114128,A,A*53
$IIMWV,230,R,10.8,N,A*1B
$IIMWV,215,T,15.6,N,A*11
$IIRMC,114129,A,5417.270,N,01213.155,E,06.6,041,010821,03,E,A*0C
$IIGLL,5417.270,N,01213.155,E,114129,A,A*5C
$IIMWV,221,R,10.1,N,A*12
$IIMWV,212,T,15.7,N,A*17
$IIRMC,114130,A,5417.271,N,01213.157,E,06.6,041,010821,03,E,A*07
$IIGLL,5417.271,N,01213.157,E,114130,A,A*57
$IIMWV,224,R,09.8,N,A*16
$IIMWV,205,T,15.5,N,A*13
$IIRMC,114131,A,5417.272,N,01213.159,E,06.2,044,010821,03,E,A*0A
$IIGLL,5417.272,N,01213.159,E,114131,A,A*5B
$IIMWV,226,R,10.1,N,A*15
$IIMWV,206,T,15.1,N,A*14
$IIRMC,114131,A,5417.272,N,01213.159,E,06.2,044,010821,03,E,A*0A
$IIGLL,5417.272,N,01213.159,E,114131,A,A*5B
$IIMWV,228,R,10.2,N,A*18
$IIMWV,209,T,14.9,N,A*12
$IIRMC,114133,A,5417.274,N,01213.163,E,05.9,047,010821,03,E,A*0C
$IIGLL,5417.274,N,01213.163,E,114133,A,A*56
$IIMWV,228,R,10.3,N,A*19
$IIMWV,210,T,15.0,N,A*12
$IIRMC,114134,A,5417.275,N,01213.165,E,05.8,047,010821,03,E,A*0D
$IIGLL,5417.275,N,01213.165,E,114134,A,A*56
$IIMWV,223,R,09.5,N,A*1C
$IIMWV,211,T,14.8,N,A*1A
$IIRMC,114135,A,5417.277,N,01213.167,E,05.8,048,010821,03,E,A*03
$IIGLL,5417.277,N,01213.167,E,114135,A,A*57
$IIMWV,225,R,09.3,N,A*1C
$IIMWV,207,T,14.2,N,A*17
$IIRMC,114136,A,5417.278,N,01213.169,E,05.6,051,010821,03,E,A*07
$IIGLL,5417.278,N,01213.169,E,114136,A,A*55
$IIMWV,227,R,09.2,N,A*1F
$IIMWV,208,T,14.0,N,A*1A
$IIRMC,114137,A,5417.279,N,01213.171,E,05.5,052,010821,03,E,A*0E
$IIGLL,5417.279,N,01213.171,E,114137,A,A*5C
$IIMWV,229,R,09.1,N,A*12
$IIMWV,210,T,13.5,N,A*11
$IIRMC,114138,A,5417.280,N,01213.174,E,05.6,050,010821,03,E,A*03
$IIGLL,5417.280,N,01213.174,E,114138,A,A*50
$IIMWV,234,R,09.3,N,A*1C
$IIMWV,211,T,13.3,N,A*16
$IIRMC,114139,A,5417.281,N,01213.176,E,05.7,049,010821,03,E,A*08
$IIGLL,5417.281,N,01213.176,E,114139,A,A*52
$IIMWV,236,R,09.8,N,A*15
$IIMWV,214,T,13.3,N,A*13
$IIRMC,114139,A,5417.281,N,01213.176,E,05.7,049,010821,03,E,A*08
$IIGLL,5417.281,N,01213.176,E,114139,A,A*52
$IIMWV,236,R,09.7,N,A*1A
$IIMWV,216,T,13.7,N,A*15
$IIRMC,114141,A,5417.283,N,01213.180,E,05.7,049,010821,03,E,A*0C
$IIGLL,5417.283,N,01213.180,E,114141,A,A*56
$IIMWV,238,R,09.6,N,A*15
$IIMWV,216,T,13.6,N,A*14
$IIRMC,114142,A,5417.284,N,01213.182,E,05.6,043,010821,03,E,A*01
$IIGLL,5417.284,N,01213.182,E,114142,A,A*50
$IIMWV,239,R,09.8,N,A*1A
$IIMWV,217,T,13.4,N,A*17
$IIRMC,114143,A,5417.286,N,01213.184,E,05.5,041,010821,03,E,A*05
$IIGLL,5417.286,N,01213.184,E,114143,A,A*55
$IIMWV,240,R,09.9,N,A*15
$IIMWV,218,T,13.5,N,A*19
$IIRMC,114144,A,5417.287,N,01213.186,E,05.4,041,010821,03,E,A*00
$IIGLL,5417.287,N,01213.186,E,114144,A,A*51
$IIMWV,239,R,09.9,N,A*1B
$IIMWV,220,T,13.4,N,A*13
$IIRMC,114145,A,5417.288,N,01213.187,E,05.4,040,010821,03,E,A*0E
$IIGLL,5417.288,N,01213.187,E,114145,A,A*5E
$IIMWV,236,R,09.8,N,A*15
$IIMWV,219,T,13.5,N,A*18
$IIRMC,114146,A,5417.289,N,01213.189,E,05.4,040,010821,03,E,A*02
$IIGLL,5417.289,N,01213.189,E,114146,A,A*52
$IIMWV,234,R,09.5,N,A*1A
$IIMWV,217,T,13.5,N,A*16
$IIRMC,114147,A,5417.290,N,01213.191,E,05.5,045,010821,03,E,A*06
$IIGLL,5417.290,N,01213.191,E,114147,A,A*52
$IIMWV,237,R,09.9,N,A*15
$IIMWV,215,T,13.3,N,A*12
$IIRMC,114148,A,5417.291,N,01213.193,E,05.2,046,010821,03,E,A*0E
$IIGLL,5417.291,N,01213.193,E,114148,A,A*5E
$IIMWV,236,R,09.9,N,A*14
$IIMWV,218,T,13.6,N,A*1A
$IIRMC,114149,A,5417.292,N,01213.195,E,05.1,046,010821,03,E,A*09
$IIGLL,5417.292,N,01213.195,E,114149,A,A*5A
$IIMWV,225,R,09.4,N,A*1B
$IIMWV,217,T,13.4,N,A*17
$IIRMC,114150,A,5417.293,N,01213.196,E,05.0,046,010821,03,E,A*02
$IIGLL,5417.293,N,01213.196,E,114150,A,A*50
$IIMWV,229,R,09.0,N,A*13
$IIMWV,210,T,13.4,N,A*10
$IIRMC,114151,A,5417.294,N,01213.198,E,05.0,046,010821,03,E,A*0A
$IIGLL,5417.294,N,01213.198,E,114151,A,A*58
$IIMWV,234,R,09.6,N,A*19
$IIMWV,212,T,12.7,N,A*10
$IIRMC,114152,A,5417.295,N,01213.200,E,05.4,046,010821,03,E,A*0E
$IIGLL,5417.295,N,01213.200,E,114152,A,A*58
$IIMWV,238,R,10.4,N,A*1F
$IIMWV,216,T,13.1,N,A*13
$IIRMC,114153,A,5417.297,N,01213.202,E,05.6,045,010821,03,E,A*0E
$IIGLL,5417.297,N,01213.202,E,114153,A,A*59
$IIMWV,234,R,10.2,N,A*15
$IIMWV,219,T,14.0,N,A*1A
$IIRMC,114154,A,5417.298,N,01213.204,E,05.4,042,010821,03,E,A*05
$IIGLL,5417.298,N,01213.204,E,114154,A,A*57
$IIMWV,237,R,09.8,N,A*14
$IIMWV,215,T,14.2,N,A*14
$IIRMC,114155,A,5417.299,N,01213.206,E,05.3,041,010821,03,E,A*03
$IIGLL,5417.299,N,01213.206,E,114155,A,A*55
$IIMWV,239,R,09.9,N,A*1B
$IIMWV,218,T,13.4,N,A*18
$IIRMC,114156,A,5417.300,N,01213.207,E,05.3,040,010821,03,E,A*01
$IIGLL,5417.300,N,01213.207,E,114156,A,A*56
$IIMWV,241,R,10.0,N,A*15
$IIMWV,219,T,13.4,N,A*19
$IIRMC,114157,A,5417.301,N,01213.209,E,05.3,039,010821,03,E,A*01
$IIGLL,5417.301,N,01213.209,E,114157,A,A*58
$IIMWV,238,R,09.8,N,A*1B
$IIMWV,221,T,13.3,N,A*15
$IIRMC,114158,A,5417.302,N,01213.211,E,05.3,039,010821,03,E,A*04
$IIGLL,5417.302,N,01213.211,E,114158,A,A*5D
$IIMWV,234,R,08.9,N,A*17
$IIMWV,218,T,13.3,N,A*1F
$IIRMC,114159,A,5417.304,N,01213.213,E,05.4,043,010821,03,E,A*0B
$IIGLL,5417.304,N,01213.213,E,114159,A,A*58
$IIMWV,238,R,08.8,N,A*1A
$IIMWV,214,T,12.7,N,A*16
$IIRMC,114200,A,5417.305,N,01213.215,E,05.5,045,010821,03,E,A*04
$IIGLL,5417.305,N,01213.215,E,114200,A,A*50
$IIMWV,241,R,09.3,N,A*1E
$IIMWV,217,T,12.4,N,A*16
$IIRMC,114201,A,5417.306,N,01213.217,E,05.6,046,010821,03,E,A*04
$IIGLL,5417.306,N,01213.217,E,114201,A,A*50
$IIMWV,242,R,09.7,N,A*19
$IIMWV,219,T,12.7,N,A*1B
$IIRMC,114202,A,5417.307,N,01213.219,E,05.7,046,010821,03,E,A*09
$IIGLL,5417.307,N,01213.219,E,114202,A,A*5C
$IIMWV,240,R,09.7,N,A*1B
$IIMWV,220,T,13.2,N,A*15
$IIRMC,114203,A,5417.308,N,01213.221,E,05.7,046,010821,03,E,A*0C
$IIGLL,5417.308,N,01213.221,E,114203,A,A*59
$IIMWV,238,R,09.3,N,A*10
$IIMWV,219,T,13.4,N,A*19
$IIRMC,114204,A,5417.309,N,01213.223,E,05.6,047,010821,03,E,A*08
$IIGLL,5417.309,N,01213.223,E,114204,A,A*5D
$IIMWV,240,R,09.4,N,A*18
$IIMWV,217,T,13.2,N,A*11
$IIRMC,114205,A,5417.311,N,01213.225,E,05.9,046,010821,03,E,A*08
$IIGLL,5417.311,N,01213.225,E,114205,A,A*53
$IIMWV,244,R,09.8,N,A*10
$IIMWV,218,T,13.1,N,A*1D
$IIRMC,114206,A,5417.312,N,01213.227,E,06.0,045,010821,03,E,A*03
$IIGLL,5417.312,N,01213.227,E,114206,A,A*51
$IIMWV,247,R,10.7,N,A*14
$IIMWV,221,T,13.4,N,A*12
$IIRMC,114207,A,5417.313,N,01213.229,E,06.1,045,010821,03,E,A*0C
$IIGLL,5417.313,N,01213.229,E,114207,A,A*5F
$IIMWV,246,R,10.5,N,A*17
$IIMWV,224,T,14.0,N,A*14
$IIRMC,114208,A,5417.315,N,01213.231,E,05.6,042,010821,03,E,A*0F
$IIGLL,5417.315,N,01213.231,E,114208,A,A*5F
$IIMWV,243,R,10.3,N,A*14
$IIMWV,222,T,14.0,N,A*12
$IIRMC,114209,A,5417.316,N,01213.233,E,05.4,040,010821,03,E,A*0F
$IIGLL,5417.316,N,01213.233,E,114209,A,A*5F
$IIMWV,245,R,10.3,N,A*12
$IIMWV,222,T,13.6,N,A*13
$IIRMC,114210,A,5417.317,N,01213.235,E,05.2,040,010821,03,E,A*06
$IIGLL,5417.317,N,01213.235,E,114210,A,A*50
$IIMWV,247,R,10.8,N,A*1B
$IIMWV,224,T,13.4,N,A*17
$IIRMC,114211,A,5417.318,N,01213.236,E,05.2,039,010821,03,E,A*05
$IIGLL,5417.318,N,01213.236,E,114211,A,A*5D
$IIMWV,245,R,10.7,N,A*16
$IIMWV,226,T,13.6,N,A*17
$IIRMC,114212,A,5417.319,N,01213.238,E,05.1,039,010821,03,E,A*0A
$IIGLL,5417.319,N,01213.238,E,114212,A,A*51
$IIMWV,244,R,10.5,N,A*15
$IIMWV,225,T,13.6,N,A*14
$IIRMC,114213,A,5417.320,N,01213.239,E,05.1,039,010821,03,E,A*00
$IIGLL,5417.320,N,01213.239,E,114213,A,A*5B
$IIMWV,246,R,10.8,N,A*1A
$IIMWV,224,T,13.5,N,A*16
$IIRMC,114214,A,5417.321,N,01213.241,E,05.1,039,010821,03,E,A*09
$IIGLL,5417.321,N,01213.241,E,114214,A,A*52
$IIMWV,246,R,11.2,N,A*11
$IIMWV,226,T,13.6,N,A*17
$IIRMC,114215,A,5417.322,N,01213.242,E,05.1,039,010821,03,E,A*08
$IIGLL,5417.322,N,01213.242,E,114215,A,A*53
$IIMWV,243,R,11.0,N,A*16
$IIMWV,226,T,13.9,N,A*18
$IIRMC,114216,A,5417.323,N,01213.244,E,05.1,039,010821,03,E,A*0C
$IIGLL,5417.323,N,01213.244,E,114216,A,A*57
$IIMWV,242,R,10.5,N,A*13
$IIMWV,224,T,13.9,N,A*1A
$IIRMC,114217,A,5417.325,N,01213.246,E,05.4,041,010821,03,E,A*03
$IIGLL,5417.325,N,01213.246,E,114217,A,A*52
$IIMWV,242,R,10.3,N,A*15
$IIMWV,223,T,13.5,N,A*11
$IIRMC,114218,A,5417.326,N,01213.247,E,05.5,042,010821,03,E,A*0C
$IIGLL,5417.326,N,01213.247,E,114218,A,A*5F
$IIMWV,243,R,10.5,N,A*12
$IIMWV,221,T,13.6,N,A*10
$IIRMC,114219,A,5417.327,N,01213.249,E,05.6,043,010821,03,E,A*00
$IIGLL,5417.327,N,01213.249,E,114219,A,A*51
$IIMWV,246,R,10.7,N,A*15
$IIMWV,222,T,13.8,N,A*1D
$IIRMC,114220,A,5417.328,N,01213.251,E,05.7,043,010821,03,E,A*0D
$IIGLL,5417.328,N,01213.251,E,114220,A,A*5D
$IIMWV,245,R,10.7,N,A*16
$IIMWV,224,T,13.8,N,A*1B
$IIRMC,114221,A,5417.329,N,01213.253,E,05.7,043,010821,03,E,A*0F
$IIGLL,5417.329,N,01213.253,E,114221,A,A*5F
$IIMWV,244,R,10.0,N,A*10
$IIMWV,224,T,14.0,N,A*14
$IIRMC,114222,A,5417.330,N,01213.255,E,05.7,043,010821,03,E,A*02
$IIGLL,5417.330,N,01213.255,E,114222,A,A*52
$IIMWV,242,R,09.5,N,A*1B
$IIMWV,222,T,13.5,N,A*10
$IIRMC,114223,A,5417.331,N,01213.257,E,05.7,043,010821,03,E,A*00
$IIGLL,5417.331,N,01213.257,E,114223,A,A*50
$IIMWV,245,R,09.5,N,A*1C
$IIMWV,219,T,13.0,N,A*1D
$IIRMC,114224,A,5417.332,N,01213.259,E,05.7,043,010821,03,E,A*0A
$IIGLL,5417.332,N,01213.259,E,114224,A,A*5A
$IIMWV,248,R,10.2,N,A*1E
$IIMWV,222,T,12.8,N,A*1C
$IIRMC,114225,A,5417.334,N,01213.260,E,05.7,044,010821,03,E,A*00
$IIGLL,5417.334,N,01213.260,E,114225,A,A*57
$IIMWV,248,R,10.4,N,A*18
$IIMWV,225,T,13.2,N,A*10
$IIRMC,114226,A,5417.335,N,01213.262,E,05.7,044,010821,03,E,A*00
$IIGLL,5417.335,N,01213.262,E,114226,A,A*57
$IIMWV,244,R,09.7,N,A*1F
$IIMWV,225,T,13.5,N,A*17
$IIRMC,114227,A,5417.335,N,01213.262,E,05.7,044,010821,03,E,A*01
$IIGLL,5417.335,N,01213.262,E,114227,A,A*56
$IIMWV,246,R,09.6,N,A*1C
$IIMWV,221,T,13.1,N,A*17
$IIRMC,114228,A,5417.335,N,01213.262,E,05.7,044,010821,03,E,A*0E
$IIGLL,5417.335,N,01213.262,E,114228,A,A*59
$IIMWV,249,R,10.3,N,A*1E
$IIMWV,222,T,12.9,N,A*1D
$IIRMC,114229,A,5417.335,N,01213.262,E,05.7,044,010821,03,E,A*0F
$IIGLL,5417.335,N,01213.262,E,114229,A,A*58
$IIMWV,247,R,10.5,N,A*16
$IIMWV,225,T,13.3,N,A*11
$IIRMC,114230,A,5417.339,N,01213.270,E,05.6,044,010821,03,E,A*09
$IIGLL,5417.339,N,01213.270,E,114230,A,A*5F
$IIMWV,246,R,10.3,N,A*11
$IIMWV,225,T,13.6,N,A*14
$IIRMC,114231,A,5417.340,N,01213.272,E,05.6,044,010821,03,E,A*04
$IIGLL,5417.340,N,01213.272,E,114231,A,A*52
$IIMWV,246,R,10.2,N,A*10
$IIMWV,224,T,13.5,N,A*16
$IIRMC,114232,A,5417.342,N,01213.274,E,05.5,042,010821,03,E,A*06
$IIGLL,5417.342,N,01213.274,E,114232,A,A*55
$IIMWV,242,R,09.7,N,A*19
$IIMWV,223,T,13.3,N,A*17
$IIRMC,114233,A,5417.343,N,01213.275,E,05.4,039,010821,03,E,A*0A
$IIGLL,5417.343,N,01213.275,E,114233,A,A*54
$IIMWV,243,R,09.7,N,A*18
$IIMWV,220,T,13.1,N,A*16
$IIRMC,114234,A,5417.344,N,01213.278,E,06.0,044,010821,03,E,A*0A
$IIGLL,5417.344,N,01213.278,E,114234,A,A*59
$IIMWV,246,R,10.7,N,A*15
$IIMWV,222,T,12.9,N,A*1D
$IIRMC,114235,A,5417.345,N,01213.280,E,05.9,045,010821,03,E,A*06
$IIGLL,5417.345,N,01213.280,E,114235,A,A*5E
$IIMWV,248,R,11.3,N,A*1E
$IIMWV,223,T,14.1,N,A*12
$IIRMC,114236,A,5417.346,N,01213.282,E,05.9,046,010821,03,E,A*07
$IIGLL,5417.346,N,01213.282,E,114236,A,A*5C
$IIMWV,242,R,10.7,N,A*11
$IIMWV,226,T,14.5,N,A*13
$IIRMC,114237,A,5417.348,N,01213.284,E,05.9,046,010821,03,E,A*0E
$IIGLL,5417.348,N,01213.284,E,114237,A,A*55
$IIMWV,237,R,09.8,N,A*14
$IIMWV,221,T,14.3,N,A*12
$IIRMC,114238,A,5417.349,N,01213.286,E,05.9,046,010821,03,E,A*02
$IIGLL,5417.349,N,01213.286,E,114238,A,A*59
$IIMWV,242,R,09.4,N,A*1A
$IIMWV,217,T,13.8,N,A*1B
$IIRMC,114239,A,5417.350,N,01213.288,E,06.3,046,010821,03,E,A*0C
$IIGLL,5417.350,N,01213.288,E,114239,A,A*5E
$IIMWV,247,R,10.7,N,A*14
$IIMWV,218,T,13.1,N,A*1D
$IIRMC,114240,A,5417.352,N,01213.291,E,06.5,041,010821,03,E,A*09
$IIGLL,5417.352,N,01213.291,E,114240,A,A*5A
$IIMWV,252,R,11.5,N,A*13
$IIMWV,223,T,14.2,N,A*11
$IIRMC,114241,A,5417.353,N,01213.293,E,06.6,039,010821,03,E,A*07
$IIGLL,5417.353,N,01213.293,E,114241,A,A*58
$IIMWV,248,R,11.4,N,A*19
$IIMWV,227,T,14.7,N,A*10
$IIRMC,114242,A,5417.355,N,01213.295,E,06.7,038,010821,03,E,A*04
$IIGLL,5417.355,N,01213.295,E,114242,A,A*5B
$IIMWV,247,R,10.6,N,A*15
$IIMWV,225,T,15.1,N,A*15
$IIRMC,114243,A,5417.356,N,01213.297,E,06.7,037,010821,03,E,A*0B
$IIGLL,5417.356,N,01213.297,E,114243,A,A*5B
$IIMWV,248,R,10.7,N,A*1B
$IIMWV,222,T,14.5,N,A*17
$IIRMC,114244,A,5417.358,N,01213.299,E,06.7,037,010821,03,E,A*0C
$IIGLL,5417.358,N,01213.299,E,114244,A,A*5C
$IIMWV,247,R,10.3,N,A*10
$IIMWV,223,T,14.5,N,A*16
$IIRMC,114245,A,5417.359,N,01213.301,E,06.7,037,010821,03,E,A*0C
$IIGLL,5417.359,N,01213.301,E,114245,A,A*5C
$IIMWV,249,R,10.2,N,A*1F
$IIMWV,221,T,14.2,N,A*13
$IIRMC,114246,A,5417.361,N,01213.303,E,06.7,037,010821,03,E,A*06
$IIGLL,5417.361,N,01213.303,E,114246,A,A*56
$IIMWV,250,R,10.7,N,A*12
$IIMWV,222,T,13.9,N,A*1C
$IIRMC,114247,A,5417.362,N,01213.305,E,06.7,037,010821,03,E,A*02
$IIGLL,5417.362,N,01213.305,E,114247,A,A*52
$IIMWV,251,R,11.0,N,A*15
$IIMWV,224,T,14.3,N,A*17
$IIRMC,114248,A,5417.364,N,01213.307,E,06.7,037,010821,03,E,A*09
$IIGLL,5417.364,N,01213.307,E,114248,A,A*59
$IIMWV,247,R,11.0,N,A*12
$IIMWV,225,T,14.6,N,A*13
$IIRMC,114249,A,5417.365,N,01213.308,E,06.7,037,010821,03,E,A*06
$IIGLL,5417.365,N,01213.308,E,114249,A,A*56
$IIMWV,241,R,10.1,N,A*14
$IIMWV,223,T,14.8,N,A*1B
$IIRMC,114250,A,5417.366,N,01213.310,E,06.7,037,010821,03,E,A*04
$IIGLL,5417.366,N,01213.310,E,114250,A,A*54
$IIMWV,244,R,09.9,N,A*11
$IIMWV,217,T,14.4,N,A*10
$IIRMC,114251,A,5417.368,N,01213.312,E,06.7,037,010821,03,E,A*09
$IIGLL,5417.368,N,01213.312,E,114251,A,A*59
$IIMWV,249,R,10.6,N,A*1B
$IIMWV,219,T,14.1,N,A*1B
$IIRMC,114252,A,5417.370,N,01213.315,E,06.7,037,010821,03,E,A*04
$IIGLL,5417.370,N,01213.315,E,114252,A,A*54
$IIMWV,252,R,11.1,N,A*17
$IIMWV,223,T,14.3,N,A*10
$IIRMC,114253,A,5417.371,N,01213.316,E,06.6,037,010821,03,E,A*06
$IIGLL,5417.371,N,01213.316,E,114253,A,A*57
$IIMWV,253,R,11.2,N,A*15
$IIMWV,226,T,14.5,N,A*13
$IIRMC,114254,A,5417.372,N,01213.318,E,06.6,037,010821,03,E,A*0C
$IIGLL,5417.372,N,01213.318,E,114254,A,A*5D
$IIMWV,249,R,10.7,N,A*1A
$IIMWV,228,T,14.5,N,A*1D
$IIRMC,114255,A,5417.374,N,01213.320,E,06.6,036,010821,03,E,A*01
$IIGLL,5417.374,N,01213.320,E,114255,A,A*51
$IIMWV,248,R,10.3,N,A*1F
$IIMWV,224,T,14.3,N,A*17
$IIRMC,114256,A,5417.375,N,01213.322,E,06.6,036,010821,03,E,A*01
$IIGLL,5417.375,N,01213.322,E,114256,A,A*51
$IIMWV,247,R,10.6,N,A*15
$IIMWV,222,T,14.0,N,A*12
$IIRMC,114257,A,5417.377,N,01213.324,E,06.6,036,010821,03,E,A*04
$IIGLL,5417.377,N,01213.324,E,114257,A,A*54
$IIMWV,246,R,10.4,N,A*16
$IIMWV,222,T,14.4,N,A*16
$IIRMC,114258,A,5417.378,N,01213.326,E,06.6,036,010821,03,E,A*06
$IIGLL,5417.378,N,01213.326,E,114258,A,A*56
$IIMWV,242,R,09.8,N,A*16
$IIMWV,221,T,14.3,N,A*12
$IIRMC,114259,A,5417.380,N,01213.328,E,06.6,036,010821,03,E,A*0E
$IIGLL,5417.380,N,01213.328,E,114259,A,A*5E
$IIMWV,240,R,09.4,N,A*18
$IIMWV,218,T,14.1,N,A*1A
$IIRMC,114300,A,5417.381,N,01213.330,E,06.6,036,010821,03,E,A*0B
$IIGLL,5417.381,N,01213.330,E,114300,A,A*5B
$IIMWV,243,R,09.5,N,A*1A
$IIMWV,216,T,13.9,N,A*1B
$IIRMC,114300,A,5417.381,N,01213.330,E,06.6,036,010821,03,E,A*0B
$IIGLL,5417.381,N,01213.330,E,114300,A,A*5B
$IIMWV,244,R,09.9,N,A*11
$IIMWV,218,T,13.6,N,A*1A
$IIRMC,114302,A,5417.383,N,01213.331,E,06.6,036,010821,03,E,A*0A
$IIGLL,5417.383,N,01213.331,E,114302,A,A*5A
$IIMWV,243,R,09.8,N,A*17
$IIMWV,219,T,14.0,N,A*1A
$IIRMC,114303,A,5417.383,N,01213.331,E,06.6,036,010821,03,E,A*0B
$IIGLL,5417.383,N,01213.331,E,114303,A,A*5B
$IIMWV,242,R,09.5,N,A*1B
$IIMWV,218,T,14.0,N,A*1B
$IIRMC,114304,A,5417.383,N,01213.331,E,06.6,036,010821,03,E,A*0C
$IIGLL,5417.383,N,01213.331,E,114304,A,A*5C
$IIMWV,246,R,09.6,N,A*1C
$IIMWV,217,T,13.7,N,A*14
$IIRMC,114305,A,5417.383,N,01213.331,E,06.6,036,010821,03,E,A*0D
$IIGLL,5417.383,N,01213.331,E,114305,A,A*5D
$IIMWV,246,R,09.9,N,A*13
$IIMWV,220,T,13.6,N,A*11
$IIRMC,114306,A,5417.383,N,01213.331,E,06.6,036,010821,03,E,A*0E
$IIGLL,5417.383,N,01213.331,E,114307,A,A*5F
$IIMWV,248,R,09.6,N,A*12
$IIMWV,220,T,13.7,N,A*10
$IIRMC,114307,A,5417.383,N,01213.331,E,06.6,036,010821,03,E,A*0F
$IIGLL,5417.383,N,01213.331,E,114307,A,A*5F
$IIMWV,250,R,09.9,N,A*14
$IIMWV,221,T,13.4,N,A*12
$IIRMC,114307,A,5417.383,N,01213.331,E,06.6,036,010821,03,E,A*0F
$IIGLL,5417.383,N,01213.331,E,114309,A,A*51
$IIMWV,250,R,09.7,N,A*1A
$IIMWV,223,T,13.5,N,A*11
$IIRMC,114309,A,5417.383,N,01213.331,E,06.6,036,010821,03,E,A*01
$IIGLL,5417.383,N,01213.331,E,114310,A,A*59
$IIMWV,247,R,09.5,N,A*1E
$IIMWV,223,T,13.3,N,A*17
$IIRMC,114310,A,5417.383,N,01213.331,E,06.6,036,010821,03,E,A*09
$IIGLL,5417.383,N,01213.331,E,114311,A,A*58
$IIMWV,246,R,09.8,N,A*12
$IIMWV,220,T,13.4,N,A*13
$IIRMC,114311,A,5417.383,N,01213.331,E,06.6,036,010821,03,E,A*08
$IIGLL,5417.383,N,01213.331,E,114312,A,A*5B
$IIMWV,242,R,10.1,N,A*17
$IIMWV,220,T,13.8,N,A*1F
$IIRMC,114312,A,5417.383,N,01213.331,E,06.6,036,010821,03,E,A*0B
$IIGLL,5417.383,N,01213.331,E,114313,A,A*5A
$IIMWV,237,R,10.2,N,A*16
$IIMWV,218,T,14.3,N,A*18
$IIRMC,114313,A,5417.383,N,01213.331,E,06.6,036,010821,03,E,A*0A
$IIGLL,5417.383,N,01213.331,E,114314,A,A*5D
$IIMWV,239,R,10.4,N,A*1E
$IIMWV,215,T,14.7,N,A*11
$IIRMC,114314,A,5417.383,N,01213.331,E,06.6,036,010821,03,E,A*0D
$IIGLL,5417.383,N,01213.331,E,114315,A,A*5C
$IIMWV,240,R,11.0,N,A*15
$IIMWV,217,T,14.9,N,A*1D
$IIRMC,114315,A,5417.383,N,01213.331,E,06.6,036,010821,03,E,A*0C
$IIGLL,5417.383,N,01213.331,E,114316,A,A*5F
$IIMWV,240,R,11.2,N,A*17
$IIMWV,218,T,15.3,N,A*19
$IIRMC,114316,A,5417.383,N,01213.331,E,06.6,036,010821,03,E,A*0F
$IIGLL,5417.383,N,01213.331,E,114317,A,A*5E
$IIMWV,242,R,11.3,N,A*14
$IIMWV,218,T,15.5,N,A*1F
$IIRMC,114317,A,5417.383,N,01213.331,E,06.6,036,010821,03,E,A*0E
$IIGLL,5417.384,N,01213.333,E,114318,A,A*54
$IIMWV,237,R,11.0,N,A*15
$IIMWV,220,T,15.4,N,A*15
$IIRMC,114318,A,5417.384,N,01213.333,E,05.9,036,010821,03,E,A*08
$IIGLL,5417.384,N,01213.333,E,114318,A,A*54
$IIMWV,238,R,10.7,N,A*1C
$IIMWV,218,T,14.9,N,A*12
$IIRMC,114318,A,5417.384,N,01213.333,E,05.9,036,010821,03,E,A*08
$IIGLL,5417.387,N,01213.337,E,114320,A,A*58
$IIMWV,242,R,11.5,N,A*12
$IIMWV,218,T,14.6,N,A*1D
$IIRMC,114320,A,5417.387,N,01213.337,E,05.9,039,010821,03,E,A*0B
$IIGLL,5417.388,N,01213.339,E,114321,A,A*58
$IIMWV,245,R,12.0,N,A*13
$IIMWV,222,T,15.1,N,A*12
$IIRMC,114321,A,5417.388,N,01213.339,E,05.8,040,010821,03,E,A*04
$IIGLL,5417.389,N,01213.341,E,114322,A,A*55
$IIMWV,237,R,11.6,N,A*13
$IIMWV,225,T,15.3,N,A*17
$IIRMC,114322,A,5417.389,N,01213.341,E,05.8,040,010821,03,E,A*09
$IIGLL,5417.390,N,01213.343,E,114323,A,A*5E
$IIMWV,237,R,10.7,N,A*13
$IIMWV,219,T,15.4,N,A*1F
$IIRMC,114323,A,5417.390,N,01213.343,E,05.8,040,010821,03,E,A*02
$IIGLL,5417.391,N,01213.344,E,114324,A,A*5F
$IIMWV,240,R,10.8,N,A*1C
$IIMWV,218,T,14.5,N,A*1E
$IIRMC,114324,A,5417.391,N,01213.344,E,05.8,040,010821,03,E,A*03
$IIGLL,5417.393,N,01213.346,E,114325,A,A*5E
$IIMWV,241,R,11.0,N,A*14
$IIMWV,220,T,14.5,N,A*15
$IIRMC,114325,A,5417.393,N,01213.346,E,05.8,040,010821,03,E,A*02
$IIGLL,5417.394,N,01213.348,E,114326,A,A*54
$IIMWV,241,R,10.8,N,A*1D
$IIMWV,221,T,14.5,N,A*14
$IIRMC,114326,A,5417.394,N,01213.348,E,05.8,040,010821,03,E,A*08
$IIGLL,5417.394,N,01213.348,E,114326,A,A*54
$IIMWV,244,R,10.5,N,A*15
$IIMWV,220,T,14.3,N,A*13
$IIRMC,114326,A,5417.394,N,01213.348,E,05.8,040,010821,03,E,A*08
$IIGLL,5417.397,N,01213.352,E,114328,A,A*52
$IIMWV,246,R,10.3,N,A*11
$IIMWV,222,T,14.0,N,A*12
$IIRMC,114328,A,5417.397,N,01213.352,E,06.0,040,010821,03,E,A*05
$IIGLL,5417.398,N,01213.354,E,114329,A,A*5A
$IIMWV,247,R,09.6,N,A*1D
$IIMWV,222,T,13.8,N,A*1D
$IIRMC,114329,A,5417.398,N,01213.354,E,06.0,041,010821,03,E,A*0C
$IIGLL,5417.399,N,01213.356,E,114330,A,A*51
$IIMWV,246,R,08.8,N,A*13
$IIMWV,222,T,13.0,N,A*15
$IIRMC,114330,A,5417.399,N,01213.356,E,06.0,041,010821,03,E,A*07
$IIGLL,5417.400,N,01213.357,E,114331,A,A*56
$IIMWV,248,R,08.7,N,A*12
$IIMWV,220,T,12.4,N,A*12
$IIRMC,114331,A,5417.400,N,01213.357,E,06.0,041,010821,03,E,A*00
$IIGLL,5417.402,N,01213.359,E,114332,A,A*59
$IIMWV,251,R,09.6,N,A*1A
$IIMWV,221,T,12.1,N,A*16
$IIRMC,114332,A,5417.402,N,01213.359,E,06.0,041,010821,03,E,A*0F
$IIGLL,5417.403,N,01213.361,E,114333,A,A*52
$IIMWV,252,R,10.0,N,A*17
$IIMWV,225,T,12.8,N,A*1B
$IIRMC,114333,A,5417.403,N,01213.361,E,06.0,041,010821,03,E,A*04
$IIGLL,5417.404,N,01213.363,E,114334,A,A*50
$IIMWV,239,R,09.3,N,A*11
$IIMWV,226,T,13.1,N,A*10
$IIRMC,114334,A,5417.404,N,01213.363,E,06.0,041,010821,03,E,A*06
$IIGLL,5417.405,N,01213.365,E,114335,A,A*56
$IIMWV,242,R,08.7,N,A*18
$IIMWV,216,T,13.3,N,A*11
$IIRMC,114335,A,5417.405,N,01213.365,E,06.0,041,010821,03,E,A*00
$IIGLL,5417.407,N,01213.367,E,114336,A,A*55
$IIMWV,245,R,09.6,N,A*1F
$IIMWV,217,T,12.5,N,A*17
$IIRMC,114336,A,5417.407,N,01213.367,E,06.0,041,010821,03,E,A*03
$IIGLL,5417.408,N,01213.369,E,114337,A,A*55
$IIMWV,244,R,10.3,N,A*13
$IIMWV,221,T,13.2,N,A*14
$IIRMC,114337,A,5417.408,N,01213.369,E,05.7,041,010821,03,E,A*07
$IIGLL,5417.409,N,01213.370,E,114338,A,A*53
$IIMWV,239,R,10.1,N,A*1B
$IIMWV,222,T,13.7,N,A*12
$IIRMC,114338,A,5417.409,N,01213.370,E,05.6,041,010821,03,E,A*00
$IIGLL,5417.410,N,01213.372,E,114339,A,A*58
$IIMWV,239,R,09.9,N,A*1B
$IIMWV,218,T,13.8,N,A*14
$IIRMC,114339,A,5417.410,N,01213.372,E,05.5,041,010821,03,E,A*08
$IIGLL,5417.411,N,01213.374,E,114340,A,A*51
$IIMWV,239,R,10.0,N,A*1A
$IIMWV,219,T,13.5,N,A*18
$IIRMC,114340,A,5417.411,N,01213.374,E,05.5,041,010821,03,E,A*01
$IIGLL,5417.413,N,01213.376,E,114341,A,A*50
$IIMWV,238,R,10.2,N,A*19
$IIMWV,219,T,13.7,N,A*1A
$IIRMC,114341,A,5417.413,N,01213.376,E,05.4,041,010821,03,E,A*01
$IIGLL,5417.414,N,01213.377,E,114342,A,A*55
$IIMWV,238,R,10.3,N,A*18
$IIMWV,218,T,13.8,N,A*14
$IIRMC,114342,A,5417.414,N,01213.377,E,05.4,041,010821,03,E,A*04
$IIGLL,5417.415,N,01213.379,E,114343,A,A*5B
$IIMWV,236,R,10.0,N,A*15
$IIMWV,219,T,13.8,N,A*15
$IIRMC,114343,A,5417.415,N,01213.379,E,05.3,041,010821,03,E,A*0D
$IIGLL,5417.416,N,01213.381,E,114344,A,A*58
$IIMWV,234,R,09.7,N,A*18
$IIMWV,217,T,13.7,N,A*14
$IIRMC,114344,A,5417.416,N,01213.381,E,05.3,041,010821,03,E,A*0E
$IIGLL,5417.417,N,01213.382,E,114345,A,A*5B
$IIMWV,234,R,09.5,N,A*1A
$IIMWV,215,T,13.4,N,A*15
$IIRMC,114345,A,5417.417,N,01213.382,E,05.3,041,010821,03,E,A*0D
$IIGLL,5417.418,N,01213.385,E,114346,A,A*50
$IIMWV,235,R,09.5,N,A*1B
$IIMWV,215,T,13.2,N,A*13
$IIRMC,114346,A,5417.418,N,01213.385,E,05.5,045,010821,03,E,A*04
$IIGLL,5417.420,N,01213.387,E,114347,A,A*58
$IIMWV,236,R,09.5,N,A*18
$IIMWV,215,T,13.3,N,A*12
$IIRMC,114347,A,5417.420,N,01213.387,E,05.4,044,010821,03,E,A*0C
$IIGLL,5417.421,N,01213.388,E,114348,A,A*59
$IIMWV,234,R,09.2,N,A*1D
$IIMWV,216,T,13.2,N,A*10
$IIRMC,114348,A,5417.421,N,01213.388,E,05.4,044,010821,03,E,A*0D
$IIGLL,5417.422,N,01213.390,E,114349,A,A*52
$IIMWV,236,R,09.3,N,A*1E
$IIMWV,214,T,13.0,N,A*10
$IIRMC,114349,A,5417.422,N,01213.390,E,05.4,044,010821,03,E,A*06
$IIGLL,5417.423,N,01213.392,E,114350,A,A*59
$IIMWV,238,R,09.4,N,A*17
$IIMWV,216,T,13.1,N,A*13
$IIRMC,114350,A,5417.423,N,01213.392,E,05.2,045,010821,03,E,A*0A
$IIGLL,5417.424,N,01213.394,E,114351,A,A*59
$IIMWV,235,R,09.2,N,A*1C
$IIMWV,218,T,12.8,N,A*15
$IIRMC,114351,A,5417.424,N,01213.394,E,05.0,045,010821,03,E,A*08
$IIGLL,5417.425,N,01213.396,E,114352,A,A*59
$IIMWV,237,R,09.1,N,A*1D
$IIMWV,216,T,12.6,N,A*15
$IIRMC,114352,A,5417.425,N,01213.396,E,05.4,043,010821,03,E,A*0A
$IIGLL,5417.426,N,01213.398,E,114353,A,A*55
$IIMWV,241,R,09.7,N,A*1A
$IIMWV,217,T,12.8,N,A*1A
$IIRMC,114353,A,5417.426,N,01213.398,E,05.6,042,010821,03,E,A*05
$IIGLL,5417.427,N,01213.400,E,114354,A,A*55
$IIMWV,242,R,09.9,N,A*17
$IIMWV,220,T,13.2,N,A*15
$IIRMC,114354,A,5417.427,N,01213.400,E,05.7,042,010821,03,E,A*04
$IIGLL,5417.429,N,01213.401,E,114355,A,A*5B
$IIMWV,234,R,09.6,N,A*19
$IIMWV,220,T,13.4,N,A*13
$IIRMC,114355,A,5417.429,N,01213.401,E,05.8,041,010821,03,E,A*06
$IIGLL,5417.430,N,01213.403,E,114356,A,A*52
$IIMWV,235,R,09.3,N,A*1D
$IIMWV,214,T,13.7,N,A*17
$IIRMC,114356,A,5417.430,N,01213.403,E,05.4,041,010821,03,E,A*03
$IIGLL,5417.431,N,01213.405,E,114357,A,A*54
$IIMWV,238,R,10.0,N,A*1B
$IIMWV,215,T,13.1,N,A*10
$IIRMC,114357,A,5417.431,N,01213.405,E,05.2,040,010821,03,E,A*02
$IIGLL,5417.432,N,01213.406,E,114358,A,A*5B
$IIMWV,237,R,10.2,N,A*16
$IIMWV,219,T,13.5,N,A*18
$IIRMC,114358,A,5417.432,N,01213.406,E,05.1,040,010821,03,E,A*0E
$IIGLL,5417.433,N,01213.408,E,114359,A,A*55
$IIMWV,235,R,10.0,N,A*16
$IIMWV,219,T,13.5,N,A*18
$IIRMC,114359,A,5417.433,N,01213.408,E,05.0,040,010821,03,E,A*01
$IIGLL,5417.434,N,01213.409,E,114400,A,A*58
$IIMWV,237,R,10.2,N,A*16
$IIMWV,217,T,13.4,N,A*17
$IIRMC,114400,A,5417.434,N,01213.409,E,05.0,040,010821,03,E,A*0C
$IIGLL,5417.435,N,01213.411,E,114401,A,A*51
$IIMWV,237,R,10.4,N,A*10
$IIMWV,219,T,13.5,N,A*18
$IIRMC,114401,A,5417.435,N,01213.411,E,05.0,040,010821,03,E,A*05
$IIGLL,5417.436,N,01213.412,E,114402,A,A*52
$IIMWV,230,R,10.1,N,A*12
$IIMWV,219,T,13.7,N,A*1A
$IIRMC,114402,A,5417.436,N,01213.412,E,05.0,040,010821,03,E,A*06
$IIGLL,5417.437,N,01213.414,E,114403,A,A*54
$IIMWV,229,R,09.6,N,A*15
$IIMWV,214,T,13.7,N,A*17
$IIRMC,114403,A,5417.437,N,01213.414,E,05.0,040,010821,03,E,A*00
$IIGLL,5417.438,N,01213.415,E,114404,A,A*5D
$IIMWV,233,R,10.0,N,A*10
$IIMWV,213,T,13.3,N,A*14
$IIRMC,114404,A,5417.438,N,01213.415,E,05.0,040,010821,03,E,A*09
$IIGLL,5417.438,N,01213.415,E,114404,A,A*5D
$IIMWV,237,R,10.5,N,A*11
$IIMWV,216,T,13.6,N,A*14
$IIRMC,114404,A,5417.438,N,01213.415,E,05.0,040,010821,03,E,A*09
$IIGLL,5417.439,N,01213.417,E,114406,A,A*5C
$IIMWV,240,R,10.5,N,A*11
$IIMWV,220,T,13.7,N,A*10
$IIRMC,114406,A,5417.439,N,01213.417,E,05.0,040,010821,03,E,A*08
$IIGLL,5417.439,N,01213.417,E,114407,A,A*5D
$IIMWV,242,R,10.1,N,A*17
$IIMWV,222,T,13.6,N,A*13
$IIRMC,114408,A,5417.439,N,01213.417,E,05.0,040,010821,03,E,A*06
$IIGLL,5417.439,N,01213.417,E,114408,A,A*52
$IIMWV,241,R,09.4,N,A*19
$IIMWV,222,T,13.0,N,A*15
$IIRMC,114409,A,5417.439,N,01213.417,E,05.0,040,010821,03,E,A*07
$IIGLL,5417.439,N,01213.417,E,114409,A,A*53
$IIMWV,242,R,08.9,N,A*16
$IIMWV,220,T,12.4,N,A*12
$IIRMC,114410,A,5417.441,N,01213.419,E,05.5,040,010821,03,E,A*0B
$IIGLL,5417.441,N,01213.419,E,114410,A,A*5A
$IIMWV,246,R,09.3,N,A*19
$IIMWV,221,T,11.9,N,A*1D
$IIRMC,114411,A,5417.442,N,01213.421,E,05.7,040,010821,03,E,A*00
$IIGLL,5417.442,N,01213.421,E,114411,A,A*53
$IIMWV,248,R,09.7,N,A*13
$IIMWV,222,T,12.5,N,A*11
$IIRMC,114412,A,5417.443,N,01213.423,E,05.9,041,010821,03,E,A*0F
$IIGLL,5417.443,N,01213.423,E,114412,A,A*53
$IIMWV,244,R,09.5,N,A*1D
$IIMWV,224,T,12.8,N,A*1A
$IIRMC,114413,A,5417.445,N,01213.425,E,06.1,041,010821,03,E,A*05
$IIGLL,5417.445,N,01213.425,E,114413,A,A*52
$IIMWV,244,R,09.0,N,A*18
$IIMWV,220,T,13.1,N,A*16
$IIRMC,114414,A,5417.446,N,01213.427,E,06.1,041,010821,03,E,A*03
$IIGLL,5417.446,N,01213.427,E,114414,A,A*54
$IIMWV,247,R,09.2,N,A*19
$IIMWV,219,T,12.8,N,A*14
$IIRMC,114415,A,5417.447,N,01213.429,E,06.1,041,010821,03,E,A*0D
$IIGLL,5417.447,N,01213.429,E,114415,A,A*5A
$IIMWV,249,R,09.8,N,A*1D
$IIMWV,221,T,12.7,N,A*10
$IIRMC,114416,A,5417.448,N,01213.431,E,06.1,041,010821,03,E,A*08
$IIGLL,5417.448,N,01213.431,E,114416,A,A*5F
$IIMWV,244,R,09.6,N,A*1E
$IIMWV,223,T,13.2,N,A*16
$IIRMC,114417,A,5417.450,N,01213.433,E,06.1,041,010821,03,E,A*02
$IIGLL,5417.450,N,01213.433,E,114417,A,A*55
$IIMWV,244,R,09.5,N,A*1D
$IIMWV,220,T,13.4,N,A*13
$IIRMC,114418,A,5417.451,N,01213.435,E,06.1,041,010821,03,E,A*0A
$IIGLL,5417.451,N,01213.435,E,114418,A,A*5D
$IIMWV,247,R,09.7,N,A*1C
$IIMWV,220,T,13.2,N,A*15
$IIRMC,114419,A,5417.452,N,01213.436,E,06.1,041,010821,03,E,A*0B
$IIGLL,5417.452,N,01213.436,E,114419,A,A*5C
$IIMWV,240,R,09.6,N,A*1A
$IIMWV,222,T,13.2,N,A*17
$IIRMC,114420,A,5417.453,N,01213.438,E,06.1,041,010821,03,E,A*0E
$IIGLL,5417.453,N,01213.438,E,114420,A,A*59
$IIMWV,240,R,09.4,N,A*18
$IIMWV,217,T,13.7,N,A*14
$IIRMC,114420,A,5417.453,N,01213.438,E,06.1,041,010821,03,E,A*0E
$IIGLL,5417.453,N,01213.438,E,114420,A,A*59
$IIMWV,243,R,09.5,N,A*1A
$IIMWV,217,T,13.5,N,A*16
$IIRMC,114422,A,5417.453,N,01213.438,E,06.1,041,010821,03,E,A*0C
$IIGLL,5417.453,N,01213.438,E,114422,A,A*5B
$IIMWV,240,R,09.5,N,A*19
$IIMWV,219,T,13.2,N,A*1F
$IIRMC,114423,A,5417.453,N,01213.438,E,06.1,041,010821,03,E,A*0D
$IIGLL,5417.453,N,01213.438,E,114423,A,A*5A
$IIMWV,238,R,09.4,N,A*17
$IIMWV,217,T,13.5,N,A*16
$IIRMC,114424,A,5417.453,N,01213.438,E,06.1,041,010821,03,E,A*0A
$IIGLL,5417.453,N,01213.438,E,114424,A,A*5D
$IIMWV,243,R,09.5,N,A*1A
$IIMWV,216,T,13.5,N,A*17
$IIRMC,114425,A,5417.453,N,01213.438,E,06.1,041,010821,03,E,A*0B
$IIGLL,5417.453,N,01213.438,E,114425,A,A*5C
$IIMWV,244,R,09.7,N,A*1F
$IIMWV,219,T,13.2,N,A*1F
$IIRMC,114426,A,5417.453,N,01213.438,E,06.1,041,010821,03,E,A*08
$IIGLL,5417.453,N,01213.438,E,114426,A,A*5F
$IIMWV,247,R,09.8,N,A*13
$IIMWV,220,T,13.4,N,A*13
$IIRMC,114427,A,5417.453,N,01213.438,E,06.1,041,010821,03,E,A*09
$IIGLL,5417.453,N,01213.438,E,114427,A,A*5E
$IIMWV,251,R,09.6,N,A*1A
$IIMWV,222,T,13.3,N,A*16
$IIRMC,114427,A,5417.453,N,01213.438,E,06.1,041,010821,03,E,A*09
$IIGLL,5417.453,N,01213.438,E,114427,A,A*5E
$IIMWV,249,R,09.2,N,A*17
$IIMWV,225,T,12.9,N,A*1A
$IIRMC,114429,A,5417.453,N,01213.438,E,06.1,041,010821,03,E,A*07
$IIGLL,5417.453,N,01213.438,E,114429,A,A*50
$IIMWV,253,R,09.1,N,A*1F
$IIMWV,222,T,12.6,N,A*12
$IIRMC,114430,A,5417.453,N,01213.438,E,06.1,041,010821,03,E,A*0F
$IIGLL,5417.453,N,01213.438,E,114430,A,A*58
$IIMWV,255,R,09.0,N,A*18
$IIMWV,225,T,12.3,N,A*10
$IIRMC,114431,A,5417.453,N,01213.438,E,06.1,041,010821,03,E,A*0E
$IIGLL,5417.453,N,01213.438,E,114431,A,A*59
$IIMWV,254,R,08.7,N,A*1F
$IIMWV,226,T,12.0,N,A*10
$IIRMC,114432,A,5417.453,N,01213.438,E,06.1,041,010821,03,E,A*0D
$IIGLL,5417.453,N,01213.438,E,114432,A,A*5A
$IIMWV,255,R,09.0,N,A*18
$IIMWV,224,T,11.8,N,A*19
$IIRMC,114433,A,5417.453,N,01213.438,E,06.1,041,010821,03,E,A*0C
$IIGLL,5417.453,N,01213.438,E,114433,A,A*5B
$IIMWV,254,R,09.1,N,A*18
$IIMWV,226,T,12.0,N,A*10
$IIRMC,114434,A,5417.453,N,01213.438,E,06.1,041,010821,03,E,A*0B
$IIGLL,5417.453,N,01213.438,E,114434,A,A*5C
$IIMWV,242,R,08.6,N,A*19
$IIMWV,225,T,12.2,N,A*11
$IIRMC,114434,A,5417.453,N,01213.438,E,06.1,041,010821,03,E,A*0B
$IIGLL,5417.453,N,01213.438,E,114434,A,A*5C
$IIMWV,247,R,08.3,N,A*19
$IIMWV,217,T,12.5,N,A*17
$IIRMC,114436,A,5417.453,N,01213.438,E,06.1,041,010821,03,E,A*09
$IIGLL,5417.453,N,01213.438,E,114436,A,A*5E
$IIMWV,250,R,09.0,N,A*1D
$IIMWV,219,T,12.0,N,A*1C
$IIRMC,114437,A,5417.453,N,01213.438,E,06.1,041,010821,03,E,A*08
$IIGLL,5417.453,N,01213.438,E,114437,A,A*5F
$IIMWV,251,R,09.3,N,A*1F
$IIMWV,223,T,12.3,N,A*16
$IIRMC,114438,A,5417.453,N,01213.438,E,06.1,041,010821,03,E,A*07
$IIGLL,5417.453,N,01213.438,E,114438,A,A*50
$IIMWV,252,R,09.3,N,A*1C
$IIMWV,224,T,12.6,N,A*14
$IIRMC,114439,A,5417.453,N,01213.438,E,06.1,041,010821,03,E,A*06
$IIGLL,5417.453,N,01213.438,E,114439,A,A*51
$IIMWV,254,R,09.2,N,A*1B
$IIMWV,225,T,12.5,N,A*16
$IIRMC,114440,A,5417.453,N,01213.438,E,06.1,041,010821,03,E,A*08
$IIGLL,5417.453,N,01213.438,E,114440,A,A*5F
$IIMWV,254,R,09.1,N,A*18
$IIMWV,226,T,12.3,N,A*13
$IIRMC,114440,A,5417.453,N,01213.438,E,06.1,041,010821,03,E,A*08
$IIGLL,5417.453,N,01213.438,E,114440,A,A*5F
$IIMWV,255,R,09.0,N,A*18
$IIMWV,225,T,12.2,N,A*11
$IIRMC,114440,A,5417.453,N,01213.438,E,06.1,041,010821,03,E,A*08
$IIGLL,5417.453,N,01213.438,E,114440,A,A*5F
$IIMWV,255,R,09.2,N,A*1A
$IIMWV,226,T,12.0,N,A*10
$IIRMC,114440,A,5417.453,N,01213.438,E,06.1,041,010821,03,E,A*08
$IIGLL,5417.453,N,01213.438,E,114440,A,A*5F
$IIMWV,258,R,09.9,N,A*1C
$IIMWV,227,T,12.2,N,A*13
$IIRMC,114440,A,5417.453,N,01213.438,E,06.1,041,010821,03,E,A*08
$IIGLL,5417.453,N,01213.438,E,114440,A,A*5F
$IIMWV,253,R,09.8,N,A*16
$IIMWV,230,T,12.6,N,A*11
$IIRMC,,A,5417.453,N,01213.438,E,06.1,041,,03,E,A*06
$IIGLL,5417.453,N,01213.438,E,,A,A*5B
$IIMWV,252,R,09.3,N,A*1C
$IIMWV,227,T,12.9,N,A*18
$IIRMC,,A,5417.453,N,01213.438,E,06.1,041,,03,E,A*06
$IIGLL,5417.453,N,01213.438,E,,A,A*5B
$IIMWV,253,R,09.3,N,A*1D
$IIMWV,225,T,12.5,N,A*16
$IIRMC,,A,5417.453,N,01213.438,E,06.1,041,,03,E,A*06
$IIGLL,5417.453,N,01213.438,E,,A,A*5B
$IIMWV,255,R,10.1,N,A*11
$IIMWV,226,T,12.4,N,A*14
$IIRMC,,A,5417.453,N,01213.438,E,06.1,041,,03,E,A*06
$IIGLL,5417.453,N,01213.438,E,,A,A*5B
$IIMWV,256,R,10.5,N,A*16
$IIMWV,228,T,13.0,N,A*1F
$IIRMC,,A,5417.453,N,01213.438,E,06.1,041,,03,E,A*06
$IIGLL,5417.453,N,01213.438,E,,A,A*5B
$IIMWV,257,R,10.4,N,A*16
$IIMWV,230,T,13.2,N,A*14
$IIMWV,253,R,09.8,N,A*16
$IIMWV,230,T,12.9,N,A*1E
$IIMWV,255,R,09.4,N,A*1C
$IIRMC,114452,A,5417.455,N,01213.440,E,06.0,041,010821,03,E,A*03
$IIGLL,5417.455,N,01213.440,E,114452,A,A*55
$IIMWV,255,R,09.7,N,A*1F
$IIRMC,114453,A,5417.456,N,01213.442,E,06.0,041,010821,03,E,A*03
$IIGLL,5417.456,N,01213.442,E,114453,A,A*55
$IIMWV,259,R,10.5,N,A*19
$IIMWV,228,T,12.6,N,A*18
$IIRMC,114454,A,5417.457,N,01213.444,E,05.7,038,010821,03,E,A*09
$IIGLL,5417.457,N,01213.444,E,114454,A,A*55
$IIMWV,258,R,10.3,N,A*1E
$IIMWV,232,T,12.9,N,A*1C
$IIRMC,114455,A,5417.458,N,01213.446,E,05.5,035,010821,03,E,A*0A
$IIGLL,5417.458,N,01213.446,E,114455,A,A*59
$IIMWV,256,R,09.8,N,A*13
$IIMWV,232,T,12.6,N,A*13
$IIRMC,114456,A,5417.460,N,01213.447,E,05.5,035,010821,03,E,A*03
$IIGLL,5417.460,N,01213.447,E,114456,A,A*50
$IIMWV,252,R,09.3,N,A*1C
$IIMWV,231,T,12.2,N,A*14
$IIRMC,114457,A,5417.461,N,01213.449,E,05.5,035,010821,03,E,A*0D
$IIGLL,5417.461,N,01213.449,E,114457,A,A*5E
$IIMWV,249,R,08.8,N,A*1C
$IIMWV,227,T,12.0,N,A*11
$IIRMC,114458,A,5417.462,N,01213.451,E,05.5,041,010821,03,E,A*0B
$IIGLL,5417.462,N,01213.451,E,114458,A,A*5B
$IIMWV,249,R,09.6,N,A*13
$IIMWV,225,T,11.9,N,A*19
$IIRMC,114458,A,5417.462,N,01213.451,E,05.5,041,010821,03,E,A*0B
$IIGLL,5417.464,N,01213.454,E,114500,A,A*54
$IIMWV,241,R,09.4,N,A*19
$IIMWV,225,T,12.5,N,A*16
$IIRMC,114500,A,5417.464,N,01213.454,E,05.5,045,010821,03,E,A*00
$IIGLL,5417.465,N,01213.456,E,114501,A,A*56
$IIMWV,242,R,08.8,N,A*17
$IIMWV,219,T,12.8,N,A*14
$IIRMC,114501,A,5417.465,N,01213.456,E,05.5,046,010821,03,E,A*01
$IIGLL,5417.466,N,01213.458,E,114502,A,A*58
$IIMWV,243,R,08.7,N,A*19
$IIMWV,219,T,12.3,N,A*1F
$IIRMC,114502,A,5417.466,N,01213.458,E,05.5,047,010821,03,E,A*0E
$IIGLL,5417.468,N,01213.460,E,114503,A,A*5C
$IIMWV,246,R,09.0,N,A*1A
$IIMWV,219,T,12.1,N,A*1D
$IIRMC,114503,A,5417.468,N,01213.460,E,05.4,043,010821,03,E,A*0F
$IIGLL,5417.469,N,01213.462,E,114504,A,A*58
$IIMWV,247,R,09.3,N,A*18
$IIMWV,222,T,12.1,N,A*15
$IIRMC,114504,A,5417.469,N,01213.462,E,05.4,040,010821,03,E,A*08
$IIGLL,5417.470,N,01213.463,E,114505,A,A*50
$IIMWV,250,R,09.1,N,A*1C
$IIMWV,223,T,12.3,N,A*16
$IIRMC,114505,A,5417.470,N,01213.463,E,05.4,039,010821,03,E,A*0E
$IIGLL,5417.471,N,01213.465,E,114506,A,A*54
$IIMWV,252,R,09.1,N,A*1E
$IIMWV,225,T,11.9,N,A*19
$IIRMC,114506,A,5417.471,N,01213.465,E,05.3,039,010821,03,E,A*0D
$IIGLL,5417.472,N,01213.467,E,114507,A,A*54
$IIMWV,253,R,09.2,N,A*1C
$IIMWV,227,T,11.8,N,A*1A
$IIRMC,114507,A,5417.472,N,01213.467,E,05.3,039,010821,03,E,A*0D
$IIGLL,5417.474,N,01213.468,E,114508,A,A*52
$IIMWV,253,R,09.3,N,A*1D
$IIMWV,228,T,11.8,N,A*15
$IIRMC,114508,A,5417.474,N,01213.468,E,05.3,039,010821,03,E,A*0B
$IIGLL,5417.475,N,01213.470,E,114509,A,A*5B
$IIMWV,253,R,09.3,N,A*1D
$IIMWV,228,T,11.9,N,A*14
$IIRMC,114509,A,5417.475,N,01213.470,E,05.3,038,010821,03,E,A*03
$IIGLL,5417.476,N,01213.472,E,114510,A,A*52
$IIMWV,255,R,09.2,N,A*1A
$IIMWV,228,T,11.9,N,A*14
$IIRMC,114510,A,5417.476,N,01213.472,E,05.1,037,010821,03,E,A*07
$IIGLL,5417.477,N,01213.473,E,114511,A,A*53
$IIMWV,255,R,08.6,N,A*1F
$IIMWV,230,T,11.5,N,A*11
$IIRMC,114511,A,5417.477,N,01213.473,E,05.0,037,010821,03,E,A*07
$IIGLL,5417.478,N,01213.475,E,114512,A,A*59
$IIMWV,255,R,08.4,N,A*1D
$IIMWV,229,T,10.9,N,A*14
$IIRMC,114512,A,5417.478,N,01213.475,E,05.0,036,010821,03,E,A*0C
$IIGLL,5417.480,N,01213.477,E,114513,A,A*5D
$IIMWV,256,R,08.8,N,A*12
$IIMWV,229,T,10.7,N,A*1A
$IIRMC,114513,A,5417.480,N,01213.477,E,05.4,039,010821,03,E,A*03
$IIGLL,5417.481,N,01213.479,E,114514,A,A*55
$IIMWV,256,R,09.3,N,A*18
$IIMWV,229,T,11.3,N,A*1F
$IIRMC,114514,A,5417.481,N,01213.479,E,05.5,040,010821,03,E,A*04
$IIGLL,5417.481,N,01213.479,E,114514,A,A*55
$IIMWV,249,R,09.0,N,A*15
$IIMWV,229,T,11.8,N,A*14
$IIRMC,114514,A,5417.481,N,01213.479,E,05.5,040,010821,03,E,A*04
$IIGLL,5417.483,N,01213.482,E,114516,A,A*51
$IIMWV,253,R,08.7,N,A*18
$IIMWV,224,T,12.0,N,A*12
$IIRMC,114516,A,5417.483,N,01213.482,E,05.6,041,010821,03,E,A*02
$IIGLL,5417.485,N,01213.484,E,114517,A,A*50
$IIMWV,255,R,09.0,N,A*18
$IIMWV,226,T,11.5,N,A*16
$IIRMC,114517,A,5417.485,N,01213.484,E,05.6,041,010821,03,E,A*03
$IIGLL,5417.486,N,01213.486,E,114518,A,A*5E
$IIMWV,258,R,09.3,N,A*16
$IIMWV,228,T,11.7,N,A*1A
$IIRMC,114518,A,5417.486,N,01213.486,E,05.6,038,010821,03,E,A*03
$IIGLL,5417.488,N,01213.488,E,114519,A,A*5F
$IIMWV,260,R,09.4,N,A*1A
$IIMWV,230,T,11.7,N,A*13
$IIRMC,114519,A,5417.488,N,01213.488,E,05.7,035,010821,03,E,A*0E
$IIGLL,5417.489,N,01213.489,E,114520,A,A*55
$IIMWV,261,R,09.0,N,A*1F
$IIMWV,232,T,11.6,N,A*10
$IIRMC,114520,A,5417.489,N,01213.489,E,05.7,033,010821,03,E,A*02
$IIGLL,5417.490,N,01213.491,E,114521,A,A*55
$IIMWV,260,R,08.9,N,A*16
$IIMWV,232,T,11.3,N,A*15
$IIRMC,114521,A,5417.490,N,01213.491,E,05.7,033,010821,03,E,A*02
$IIGLL,5417.492,N,01213.492,E,114522,A,A*57
$IIMWV,259,R,09.0,N,A*14
$IIMWV,230,T,11.2,N,A*16
$IIRMC,114522,A,5417.492,N,01213.492,E,05.7,032,010821,03,E,A*01
$IIGLL,5417.493,N,01213.494,E,114523,A,A*51
$IIMWV,259,R,09.1,N,A*15
$IIMWV,230,T,11.4,N,A*10
$IIRMC,114523,A,5417.493,N,01213.494,E,05.7,032,010821,03,E,A*07
$IIGLL,5417.494,N,01213.495,E,114524,A,A*50
$IIMWV,260,R,09.1,N,A*1F
$IIMWV,230,T,11.5,N,A*11
$IIRMC,114524,A,5417.494,N,01213.495,E,05.7,032,010821,03,E,A*06
$IIGLL,5417.496,N,01213.496,E,114525,A,A*50
$IIMWV,256,R,08.7,N,A*1D
$IIMWV,231,T,11.4,N,A*11
$IIRMC,114525,A,5417.496,N,01213.496,E,05.7,032,010821,03,E,A*06
$IIGLL,5417.497,N,01213.498,E,114526,A,A*5C
$IIMWV,257,R,09.0,N,A*1A
$IIMWV,228,T,11.3,N,A*1E
$IIRMC,114526,A,5417.497,N,01213.498,E,05.7,037,010821,03,E,A*0F
$IIGLL,5417.498,N,01213.500,E,114527,A,A*52
$IIMWV,259,R,09.9,N,A*1D
$IIMWV,229,T,11.5,N,A*19
$IIRMC,114527,A,5417.498,N,01213.500,E,05.5,039,010821,03,E,A*0D
$IIGLL,5417.499,N,01213.502,E,114528,A,A*5E
$IIMWV,255,R,10.0,N,A*10
$IIMWV,233,T,12.1,N,A*15
$IIRMC,114528,A,5417.499,N,01213.502,E,05.5,040,010821,03,E,A*0F
$IIGLL,5417.501,N,01213.504,E,114529,A,A*59
$IIMWV,252,R,09.4,N,A*1B
$IIMWV,230,T,12.6,N,A*11
$IIRMC,114529,A,5417.501,N,01213.504,E,05.4,040,010821,03,E,A*09
$IIGLL,5417.502,N,01213.505,E,114530,A,A*53
$IIMWV,253,R,09.1,N,A*1F
$IIMWV,227,T,12.1,N,A*10
$IIRMC,114530,A,5417.502,N,01213.505,E,05.4,040,010821,03,E,A*03
$IIGLL,5417.503,N,01213.507,E,114531,A,A*51
$IIMWV,255,R,09.8,N,A*10
$IIMWV,227,T,11.8,N,A*1A
$IIRMC,114531,A,5417.503,N,01213.507,E,05.4,040,010821,03,E,A*01
$IIGLL,5417.504,N,01213.509,E,114532,A,A*5B
$IIMWV,253,R,10.2,N,A*14
$IIMWV,230,T,12.3,N,A*14
$IIRMC,114532,A,5417.504,N,01213.509,E,05.4,041,010821,03,E,A*0A
$IIGLL,5417.504,N,01213.509,E,114532,A,A*5B
$IIMWV,246,R,09.9,N,A*13
$IIMWV,229,T,12.7,N,A*18
$IIRMC,114532,A,5417.504,N,01213.509,E,05.4,041,010821,03,E,A*0A
$IIGLL,5417.506,N,01213.512,E,114534,A,A*55
$IIMWV,247,R,09.2,N,A*19
$IIMWV,224,T,13.0,N,A*13
$IIRMC,114534,A,5417.506,N,01213.512,E,05.4,041,010821,03,E,A*04
$IIGLL,5417.507,N,01213.514,E,114535,A,A*53
$IIMWV,244,R,08.9,N,A*10
$IIMWV,223,T,12.2,N,A*17
$IIRMC,114535,A,5417.507,N,01213.514,E,05.4,041,010821,03,E,A*02
$IIGLL,5417.508,N,01213.515,E,114536,A,A*5E
$IIMWV,245,R,08.6,N,A*1E
$IIMWV,221,T,12.2,N,A*15
$IIRMC,114536,A,5417.508,N,01213.515,E,05.4,041,010821,03,E,A*0F
$IIGLL,5417.508,N,01213.515,E,114536,A,A*5E
$IIMWV,249,R,09.5,N,A*10
$IIMWV,221,T,11.9,N,A*1D
$IIRMC,114536,A,5417.508,N,01213.515,E,05.4,041,010821,03,E,A*0F
$IIGLL,5417.508,N,01213.515,E,114536,A,A*5E
$IIMWV,245,R,09.7,N,A*1E
$IIMWV,225,T,12.4,N,A*17
$IIRMC,114536,A,5417.508,N,01213.515,E,05.4,041,010821,03,E,A*0F
$IIGLL,5417.512,N,01213.522,E,114539,A,A*5E
$IIMWV,229,R,09.0,N,A*13
$IIMWV,223,T,12.8,N,A*1D
$IIRMC,114539,A,5417.512,N,01213.522,E,06.0,045,010821,03,E,A*0C
$IIGLL,5417.512,N,01213.522,E,114539,A,A*5E
$IIMWV,234,R,08.5,N,A*1B
$IIMWV,210,T,13.6,N,A*12
$IIRMC,114539,A,5417.512,N,01213.522,E,06.0,045,010821,03,E,A*0C
$IIGLL,5417.512,N,01213.522,E,114539,A,A*5E
$IIMWV,239,R,09.0,N,A*12
$IIMWV,212,T,12.9,N,A*1E
$IIRMC,114539,A,5417.512,N,01213.522,E,06.0,045,010821,03,E,A*0C
$IIGLL,5417.516,N,01213.528,E,114542,A,A*5C
$IIMWV,245,R,09.5,N,A*1C
$IIMWV,216,T,13.1,N,A*13
$IIRMC,114542,A,5417.516,N,01213.528,E,05.9,042,010821,03,E,A*03
$IIGLL,5417.517,N,01213.529,E,114543,A,A*5D
$IIMWV,248,R,09.4,N,A*10
$IIMWV,222,T,12.9,N,A*1D
$IIRMC,114543,A,5417.517,N,01213.529,E,05.8,040,010821,03,E,A*01
$IIGLL,5417.518,N,01213.531,E,114544,A,A*5C
$IIMWV,251,R,09.0,N,A*1C
$IIMWV,223,T,12.6,N,A*13
$IIRMC,114544,A,5417.518,N,01213.531,E,05.7,039,010821,03,E,A*01
$IIGLL,5417.519,N,01213.533,E,114545,A,A*5E
$IIMWV,251,R,09.0,N,A*1C
$IIMWV,225,T,12.0,N,A*13
$IIRMC,114545,A,5417.519,N,01213.533,E,05.7,039,010821,03,E,A*03
$IIGLL,5417.521,N,01213.535,E,114546,A,A*50
$IIMWV,252,R,09.0,N,A*1F
$IIMWV,225,T,12.0,N,A*13
$IIRMC,114546,A,5417.521,N,01213.535,E,05.7,039,010821,03,E,A*0D
$IIGLL,5417.522,N,01213.536,E,114547,A,A*51
$IIMWV,250,R,09.0,N,A*1D
$IIMWV,225,T,11.9,N,A*19
$IIRMC,114547,A,5417.522,N,01213.536,E,05.4,039,010821,03,E,A*0F
$IIGLL,5417.523,N,01213.538,E,114548,A,A*51
$IIMWV,249,R,08.7,N,A*13
$IIMWV,225,T,11.8,N,A*18
$IIRMC,114548,A,5417.523,N,01213.538,E,05.4,038,010821,03,E,A*0E
$IIGLL,5417.525,N,01213.540,E,114549,A,A*59
$IIMWV,252,R,08.8,N,A*16
$IIMWV,223,T,11.6,N,A*10
$IIRMC,114550,A,5417.526,N,01213.541,E,05.3,038,010821,03,E,A*0B
$IIGLL,5417.526,N,01213.541,E,114550,A,A*53
$IIMWV,256,R,09.1,N,A*1A
$IIMWV,226,T,11.5,N,A*16
$IIRMC,114550,A,5417.526,N,01213.541,E,05.3,038,010821,03,E,A*0B
$IIGLL,5417.526,N,01213.541,E,114550,A,A*53
$IIMWV,255,R,08.9,N,A*10
$IIMWV,230,T,11.4,N,A*10
$IIRMC,114552,A,5417.528,N,01213.545,E,05.3,038,010821,03,E,A*03
$IIGLL,5417.528,N,01213.545,E,114552,A,A*5B
$IIMWV,256,R,08.2,N,A*18
$IIMWV,229,T,11.4,N,A*18
$IIRMC,114553,A,5417.529,N,01213.546,E,05.3,037,010821,03,E,A*0F
$IIGLL,5417.529,N,01213.546,E,114553,A,A*58
$IIMWV,256,R,09.0,N,A*1B
$IIMWV,228,T,10.6,N,A*1A
$IIRMC,114554,A,5417.530,N,01213.548,E,05.3,037,010821,03,E,A*0E
$IIGLL,5417.530,N,01213.548,E,114554,A,A*59
$IIMWV,258,R,10.2,N,A*1F
$IIMWV,230,T,11.4,N,A*10
$IIRMC,114555,A,5417.532,N,01213.549,E,05.3,037,010821,03,E,A*0C
$IIGLL,5417.532,N,01213.549,E,114555,A,A*5B
$IIMWV,252,R,10.3,N,A*14
$IIMWV,233,T,12.3,N,A*17
$IIRMC,114555,A,5417.532,N,01213.549,E,05.3,037,010821,03,E,A*0C
$IIGLL,5417.532,N,01213.549,E,114555,A,A*5B
$IIMWV,250,R,09.5,N,A*18
$IIMWV,229,T,12.8,N,A*17
$IIRMC,114557,A,5417.534,N,01213.552,E,05.3,037,010821,03,E,A*02
$IIGLL,5417.534,N,01213.552,E,114557,A,A*55
$IIMWV,252,R,09.6,N,A*19
$IIMWV,226,T,12.3,N,A*13
$IIRMC,114557,A,5417.534,N,01213.552,E,05.3,037,010821,03,E,A*02
$IIGLL,5417.534,N,01213.552,E,114557,A,A*55
$IIMWV,255,R,10.3,N,A*13
$IIMWV,228,T,12.2,N,A*1C
$IIRMC,114559,A,5417.534,N,01213.552,E,05.3,037,010821,03,E,A*0C
$IIGLL,5417.534,N,01213.552,E,114559,A,A*5B
$IIMWV,257,R,10.9,N,A*1B
$IIMWV,232,T,12.6,N,A*13
$IIRMC,114600,A,5417.534,N,01213.552,E,05.3,037,010821,03,E,A*03
$IIGLL,5417.534,N,01213.552,E,114602,A,A*56
$IIMWV,252,R,09.7,N,A*18
$IIMWV,229,T,12.7,N,A*18
$IIRMC,114602,A,5417.534,N,01213.552,E,05.3,037,010821,03,E,A*01
$IIGLL,5417.535,N,01213.554,E,114603,A,A*50
$IIMWV,254,R,10.3,N,A*12
$IIMWV,228,T,12.3,N,A*1D
$IIRMC,114603,A,5417.535,N,01213.554,E,05.6,038,010821,03,E,A*0D
$IIGLL,5417.536,N,01213.556,E,114604,A,A*56
$IIMWV,255,R,10.5,N,A*15
$IIMWV,229,T,12.9,N,A*16
$IIRMC,114604,A,5417.536,N,01213.556,E,05.7,039,010821,03,E,A*0B
$IIGLL,5417.537,N,01213.558,E,114605,A,A*58
$IIMWV,250,R,10.2,N,A*17
$IIMWV,230,T,13.1,N,A*17
$IIRMC,114605,A,5417.537,N,01213.558,E,05.9,042,010821,03,E,A*07
$IIGLL,5417.539,N,01213.560,E,114606,A,A*5E
$IIMWV,252,R,10.0,N,A*17
$IIMWV,226,T,13.2,N,A*13
$IIRMC,114606,A,5417.539,N,01213.560,E,06.0,044,010821,03,E,A*0D
$IIGLL,5417.540,N,01213.562,E,114607,A,A*53
$IIMWV,253,R,10.2,N,A*14
$IIMWV,226,T,13.1,N,A*10
$IIRMC,114607,A,5417.540,N,01213.562,E,06.0,044,010821,03,E,A*00
$IIGLL,5417.541,N,01213.564,E,114608,A,A*5B
$IIMWV,253,R,09.8,N,A*16
$IIMWV,227,T,13.1,N,A*11
$IIRMC,114608,A,5417.541,N,01213.564,E,05.7,039,010821,03,E,A*06
$IIGLL,5417.542,N,01213.565,E,114609,A,A*58
$IIMWV,253,R,09.8,N,A*16
$IIMWV,228,T,12.6,N,A*18
$IIRMC,114609,A,5417.542,N,01213.565,E,05.6,036,010821,03,E,A*0B
$IIGLL,5417.544,N,01213.567,E,114610,A,A*54
$IIMWV,254,R,09.7,N,A*1E
$IIMWV,228,T,12.6,N,A*18
$IIRMC,114610,A,5417.544,N,01213.567,E,05.6,035,010821,03,E,A*04
$IIGLL,5417.545,N,01213.569,E,114611,A,A*5A
$IIMWV,254,R,10.0,N,A*11
$IIMWV,228,T,12.4,N,A*1A
$IIRMC,114611,A,5417.545,N,01213.569,E,05.7,037,010821,03,E,A*09
$IIGLL,5417.546,N,01213.571,E,114612,A,A*53
$IIMWV,252,R,10.1,N,A*16
$IIMWV,229,T,12.8,N,A*17
$IIRMC,114612,A,5417.546,N,01213.571,E,05.7,038,010821,03,E,A*0F
$IIGLL,5417.548,N,01213.572,E,114613,A,A*5F
$IIMWV,246,R,09.4,N,A*1E
$IIMWV,227,T,12.9,N,A*18
$IIRMC,114613,A,5417.548,N,01213.572,E,05.8,039,010821,03,E,A*0D
$IIGLL,5417.549,N,01213.574,E,114614,A,A*5F
$IIMWV,246,R,09.0,N,A*1A
$IIMWV,221,T,12.8,N,A*1F
$IIRMC,114614,A,5417.549,N,01213.574,E,05.8,039,010821,03,E,A*0D
$IIGLL,5417.550,N,01213.576,E,114615,A,A*54
$IIMWV,248,R,09.2,N,A*16
$IIMWV,221,T,12.4,N,A*13
$IIRMC,114615,A,5417.550,N,01213.576,E,06.0,042,010821,03,E,A*01
$IIGLL,5417.551,N,01213.578,E,114616,A,A*58
$IIMWV,251,R,10.3,N,A*17
$IIMWV,222,T,12.6,N,A*12
$IIRMC,114616,A,5417.551,N,01213.578,E,06.1,043,010821,03,E,A*0D
$IIGLL,5417.551,N,01213.578,E,114616,A,A*58
$IIMWV,250,R,10.4,N,A*11
$IIMWV,226,T,13.5,N,A*14
$IIRMC,114616,A,5417.551,N,01213.578,E,06.1,043,010821,03,E,A*0D
$IIGLL,5417.554,N,01213.582,E,114618,A,A*56
$IIMWV,250,R,09.8,N,A*15
$IIMWV,225,T,13.6,N,A*14
$IIRMC,114618,A,5417.554,N,01213.582,E,06.2,044,010821,03,E,A*07
$IIGLL,5417.555,N,01213.584,E,114619,A,A*50
$IIMWV,251,R,09.3,N,A*1F
$IIMWV,224,T,13.2,N,A*11
$IIRMC,114619,A,5417.555,N,01213.584,E,06.2,044,010821,03,E,A*01
$IIGLL,5417.555,N,01213.584,E,114619,A,A*50
$IIMWV,251,R,09.5,N,A*19
$IIMWV,224,T,12.7,N,A*15
$IIRMC,114619,A,5417.555,N,01213.584,E,06.2,044,010821,03,E,A*01
$IIGLL,5417.558,N,01213.589,E,114621,A,A*5B
$IIMWV,253,R,10.3,N,A*15
$IIMWV,224,T,12.9,N,A*1B
$IIRMC,114621,A,5417.558,N,01213.589,E,06.2,040,010821,03,E,A*0E
$IIGLL,5417.559,N,01213.590,E,114622,A,A*51
$IIMWV,256,R,11.1,N,A*13
$IIMWV,227,T,13.3,N,A*13
$IIRMC,114622,A,5417.559,N,01213.590,E,06.2,038,010821,03,E,A*0B
$IIGLL,5417.561,N,01213.592,E,114623,A,A*59
$IIMWV,252,R,10.8,N,A*1F
$IIMWV,231,T,13.8,N,A*1F
$IIRMC,114623,A,5417.561,N,01213.592,E,06.2,037,010821,03,E,A*0C
$IIGLL,5417.562,N,01213.594,E,114624,A,A*5B
$IIMWV,250,R,09.9,N,A*14
$IIMWV,227,T,13.9,N,A*19
$IIRMC,114624,A,5417.562,N,01213.594,E,06.2,036,010821,03,E,A*0F
$IIGLL,5417.563,N,01213.596,E,114625,A,A*59
$IIMWV,252,R,09.4,N,A*1B
$IIMWV,224,T,13.2,N,A*11
$IIRMC,114625,A,5417.563,N,01213.596,E,06.2,036,010821,03,E,A*0D
$IIGLL,5417.565,N,01213.597,E,114626,A,A*5D
$IIMWV,253,R,09.8,N,A*16
$IIMWV,224,T,12.7,N,A*15
$IIRMC,114626,A,5417.565,N,01213.597,E,06.2,036,010821,03,E,A*09
$IIGLL,5417.566,N,01213.599,E,114627,A,A*51
$IIMWV,255,R,10.4,N,A*14
$IIMWV,226,T,13.0,N,A*11
$IIRMC,114627,A,5417.566,N,01213.599,E,06.2,036,010821,03,E,A*05
$IIGLL,5417.567,N,01213.601,E,114628,A,A*5D
$IIMWV,253,R,10.4,N,A*12
$IIMWV,228,T,13.3,N,A*1C
$IIRMC,114628,A,5417.567,N,01213.601,E,06.2,036,010821,03,E,A*09
$IIGLL,5417.569,N,01213.602,E,114629,A,A*51
$IIMWV,245,R,09.8,N,A*11
$IIMWV,227,T,13.5,N,A*15
$IIRMC,114629,A,5417.569,N,01213.602,E,06.2,036,010821,03,E,A*05
$IIGLL,5417.570,N,01213.604,E,114630,A,A*57
$IIMWV,246,R,09.3,N,A*19
$IIMWV,221,T,13.6,N,A*10
$IIRMC,114630,A,5417.570,N,01213.604,E,06.2,036,010821,03,E,A*03
$IIGLL,5417.571,N,01213.606,E,114631,A,A*55
$IIMWV,250,R,09.9,N,A*14
$IIMWV,220,T,13.0,N,A*17
$IIRMC,114631,A,5417.571,N,01213.606,E,05.7,040,010821,03,E,A*06
$IIGLL,5417.573,N,01213.608,E,114632,A,A*5A
$IIMWV,249,R,09.8,N,A*1D
$IIMWV,226,T,12.9,N,A*19
$IIRMC,114632,A,5417.573,N,01213.608,E,05.6,036,010821,03,E,A*09
$IIGLL,5417.574,N,01213.609,E,114633,A,A*5D
$IIMWV,249,R,09.8,N,A*1D
$IIMWV,225,T,12.8,N,A*1B
$IIRMC,114633,A,5417.574,N,01213.609,E,05.5,034,010821,03,E,A*0F
$IIGLL,5417.575,N,01213.611,E,114634,A,A*52
$IIMWV,251,R,09.8,N,A*14
$IIMWV,225,T,12.7,N,A*14
$IIRMC,114634,A,5417.575,N,01213.611,E,05.5,033,010821,03,E,A*07
$IIGLL,5417.577,N,01213.612,E,114635,A,A*52
$IIMWV,241,R,09.4,N,A*19
$IIMWV,227,T,12.7,N,A*16
$IIRMC,114635,A,5417.577,N,01213.612,E,05.5,032,010821,03,E,A*06
$IIGLL,5417.578,N,01213.613,E,114636,A,A*5F
$IIMWV,244,R,09.1,N,A*19
$IIMWV,219,T,12.8,N,A*14
$IIRMC,114636,A,5417.578,N,01213.613,E,05.5,032,010821,03,E,A*0B
$IIGLL,5417.579,N,01213.615,E,114637,A,A*59
$IIMWV,246,R,09.1,N,A*1B
$IIMWV,220,T,12.4,N,A*12
$IIRMC,114637,A,5417.579,N,01213.615,E,05.5,032,010821,03,E,A*0D
$IIGLL,5417.581,N,01213.616,E,114638,A,A*52
$IIMWV,249,R,09.4,N,A*11
$IIMWV,222,T,12.3,N,A*17
$IIRMC,114638,A,5417.581,N,01213.616,E,05.5,032,010821,03,E,A*06
