$IIRMC,122426,A,5419.385,N,01346.189,E,04.4,009,070821,04,E,A*0B
$IIGLL,5419.385,N,01346.189,E,122426,A,A*56
$IIMWV,099,R,08.9,N,A*12
$IIMWV,123,T,10.5,N,A*11
$IIRMC,122427,A,5419.386,N,01346.189,E,04.4,010,070821,04,E,A*01
$IIGLL,5419.386,N,01346.189,E,122427,A,A*54
$IIMWV,099,R,08.6,N,A*1D
$IIMWV,123,T,10.5,N,A*11
$IIRMC,122428,A,5419.387,N,01346.189,E,04.4,007,070821,04,E,A*09
$IIGLL,5419.387,N,01346.189,E,122428,A,A*5A
$IIMWV,101,R,08.6,N,A*1D
$IIMWV,124,T,10.2,N,A*11
$IIRMC,122429,A,5419.388,N,01346.189,E,04.4,007,070821,04,E,A*07
$IIGLL,5419.388,N,01346.189,E,122429,A,A*54
$IIMWV,103,R,08.4,N,A*1D
$IIMWV,126,T,10.3,N,A*12
$IIRMC,122430,A,5419.389,N,01346.189,E,04.5,006,070821,04,E,A*0E
$IIGLL,5419.389,N,01346.189,E,122430,A,A*5D
$IIMWV,101,R,08.5,N,A*1E
$IIMWV,127,T,10.2,N,A*12
$IIRMC,122431,A,5419.391,N,01346.189,E,04.5,004,070821,04,E,A*04
$IIGLL,5419.391,N,01346.189,E,122431,A,A*55
$IIMWV,104,R,08.4,N,A*1A
$IIMWV,126,T,10.3,N,A*12
$IIRMC,122432,A,5419.391,N,01346.188,E,04.4,005,070821,04,E,A*06
$IIGLL,5419.391,N,01346.188,E,122432,A,A*57
$IIMWV,101,R,08.0,N,A*1B
$IIMWV,129,T,10.3,N,A*1D
$IIRMC,122433,A,5419.392,N,01346.187,E,04.4,006,070821,04,E,A*08
$IIGLL,5419.392,N,01346.187,E,122433,A,A*5A
$IIMWV,099,R,08.5,N,A*1E
$IIMWV,127,T,09.7,N,A*1F
$IIRMC,122434,A,5419.393,N,01346.188,E,04.3,006,070821,04,E,A*06
$IIGLL,5419.393,N,01346.188,E,122434,A,A*53
$IIMWV,099,R,08.3,N,A*18
$IIMWV,124,T,10.1,N,A*12
$IIRMC,122435,A,5419.394,N,01346.188,E,04.4,008,070821,04,E,A*09
$IIGLL,5419.394,N,01346.188,E,122435,A,A*55
$IIMWV,095,R,08.3,N,A*14
$IIMWV,124,T,09.9,N,A*12
$IIRMC,122436,A,5419.395,N,01346.189,E,04.5,008,070821,04,E,A*0B
$IIGLL,5419.395,N,01346.189,E,122436,A,A*56
$IIMWV,096,R,08.8,N,A*1C
$IIMWV,122,T,09.7,N,A*1A
$IIRMC,122437,A,5419.396,N,01346.190,E,04.4,013,070821,04,E,A*0A
$IIGLL,5419.396,N,01346.190,E,122437,A,A*5C
$IIMWV,093,R,08.8,N,A*19
$IIMWV,121,T,10.1,N,A*17
$IIRMC,122438,A,5419.398,N,01346.190,E,04.5,015,070821,04,E,A*0C
$IIGLL,5419.398,N,01346.190,E,122438,A,A*5D
$IIMWV,092,R,08.8,N,A*18
$IIMWV,119,T,10.0,N,A*1D
$IIRMC,122438,A,5419.398,N,01346.190,E,04.5,015,070821,04,E,A*0C
$IIGLL,5419.398,N,01346.190,E,122438,A,A*5D
$IIMWV,091,R,08.9,N,A*1A
$IIMWV,118,T,09.9,N,A*1D
$IIRMC,122440,A,5419.401,N,01346.191,E,04.6,019,070821,04,E,A*0A
$IIGLL,5419.401,N,01346.191,E,122440,A,A*54
$IIMWV,089,R,09.0,N,A*1B
$IIMWV,117,T,10.0,N,A*13
$IIRMC,122441,A,5419.402,N,01346.191,E,04.5,019,070821,04,E,A*0B
$IIGLL,5419.402,N,01346.191,E,122441,A,A*56
$IIMWV,088,R,09.2,N,A*18
$IIMWV,117,T,10.0,N,A*13
$IIRMC,122442,A,5419.404,N,01346.191,E,04.5,020,070821,04,E,A*04
$IIGLL,5419.404,N,01346.191,E,122442,A,A*53
$IIMWV,087,R,09.3,N,A*16
$IIMWV,115,T,10.1,N,A*10
$IIRMC,122443,A,5419.405,N,01346.192,E,04.5,020,070821,04,E,A*07
$IIGLL,5419.405,N,01346.192,E,122443,A,A*50
$IIMWV,086,R,09.2,N,A*16
$IIMWV,114,T,10.1,N,A*11
$IIRMC,122444,A,5419.406,N,01346.193,E,04.6,021,070821,04,E,A*00
$IIGLL,5419.406,N,01346.193,E,122444,A,A*55
$IIMWV,087,R,09.4,N,A*11
$IIMWV,113,T,09.9,N,A*16
$IIRMC,122445,A,5419.407,N,01346.194,E,04.6,023,070821,04,E,A*05
$IIGLL,5419.407,N,01346.194,E,122445,A,A*52
$IIMWV,085,R,09.6,N,A*11
$IIMWV,114,T,10.2,N,A*12
$IIRMC,122446,A,5419.409,N,01346.195,E,04.6,024,070821,04,E,A*0E
$IIGLL,5419.409,N,01346.195,E,122446,A,A*5E
$IIMWV,086,R,09.4,N,A*10
$IIMWV,111,T,10.3,N,A*16
$IIRMC,122447,A,5419.409,N,01346.196,E,04.7,021,070821,04,E,A*08
$IIGLL,5419.409,N,01346.196,E,122447,A,A*5C
$IIMWV,086,R,09.4,N,A*10
$IIMWV,113,T,10.2,N,A*15
$IIRMC,122448,A,5419.411,N,01346.195,E,04.7,022,070821,04,E,A*0E
$IIGLL,5419.412,N,01346.195,E,122449,A,A*5B
$IIMWV,087,R,09.5,N,A*10
$IIMWV,114,T,10.4,N,A*14
$IIRMC,122449,A,5419.412,N,01346.195,E,04.6,021,070821,04,E,A*0E
$IIGLL,5419.413,N,01346.196,E,122450,A,A*51
$IIMWV,086,R,09.3,N,A*17
$IIMWV,114,T,10.3,N,A*13
$IIRMC,122450,A,5419.413,N,01346.196,E,04.7,018,070821,04,E,A*0F
$IIGLL,5419.414,N,01346.198,E,122451,A,A*59
$IIMWV,088,R,09.5,N,A*1F
$IIMWV,114,T,10.1,N,A*11
$IIRMC,122451,A,5419.414,N,01346.198,E,04.6,020,070821,04,E,A*0D
$IIGLL,5419.415,N,01346.199,E,122452,A,A*5A
$IIMWV,086,R,09.3,N,A*17
$IIMWV,115,T,10.4,N,A*15
$IIRMC,122452,A,5419.415,N,01346.199,E,04.8,020,070821,04,E,A*00
$IIGLL,5419.416,N,01346.201,E,122453,A,A*5A
$IIMWV,086,R,09.3,N,A*17
$IIMWV,114,T,10.2,N,A*12
$IIRMC,122453,A,5419.416,N,01346.201,E,04.8,019,070821,04,E,A*0A
$IIGLL,5419.417,N,01346.202,E,122454,A,A*5F
$IIMWV,088,R,09.6,N,A*1C
$IIMWV,114,T,10.2,N,A*12
$IIRMC,122454,A,5419.417,N,01346.202,E,04.9,021,070821,04,E,A*05
$IIGLL,5419.418,N,01346.204,E,122455,A,A*57
$IIMWV,085,R,09.4,N,A*13
$IIMWV,116,T,10.6,N,A*14
$IIRMC,122455,A,5419.418,N,01346.204,E,04.8,022,070821,04,E,A*0F
$IIGLL,5419.419,N,01346.205,E,122456,A,A*54
$IIMWV,086,R,09.3,N,A*17
$IIMWV,113,T,10.2,N,A*15
$IIRMC,122456,A,5419.419,N,01346.205,E,04.6,020,070821,04,E,A*00
$IIGLL,5419.420,N,01346.205,E,122457,A,A*5F
$IIMWV,087,R,09.4,N,A*11
$IIMWV,113,T,10.1,N,A*16
$IIRMC,122457,A,5419.420,N,01346.205,E,04.6,021,070821,04,E,A*0A
$IIGLL,5419.422,N,01346.206,E,122458,A,A*51
$IIMWV,085,R,09.2,N,A*15
$IIMWV,114,T,10.2,N,A*12
$IIRMC,122458,A,5419.422,N,01346.206,E,04.7,024,070821,04,E,A*00
$IIGLL,5419.422,N,01346.207,E,122459,A,A*51
$IIMWV,086,R,09.4,N,A*10
$IIMWV,113,T,09.9,N,A*16
$IIRMC,122459,A,5419.422,N,01346.207,E,04.7,022,070821,04,E,A*06
$IIGLL,5419.423,N,01346.208,E,122500,A,A*52
$IIMWV,086,R,09.5,N,A*11
$IIMWV,113,T,10.2,N,A*15
$IIRMC,122500,A,5419.423,N,01346.208,E,04.8,024,070821,04,E,A*0C
$IIGLL,5419.424,N,01346.209,E,122501,A,A*55
$IIMWV,085,R,09.3,N,A*14
$IIMWV,114,T,10.3,N,A*13
$IIRMC,122501,A,5419.424,N,01346.209,E,04.6,023,070821,04,E,A*02
$IIGLL,5419.425,N,01346.210,E,122502,A,A*5F
$IIMWV,086,R,09.5,N,A*11
$IIMWV,112,T,10.0,N,A*16
$IIRMC,122502,A,5419.425,N,01346.210,E,04.7,020,070821,04,E,A*0A
$IIGLL,5419.426,N,01346.211,E,122503,A,A*5C
$IIMWV,086,R,09.5,N,A*11
$IIMWV,113,T,10.3,N,A*14
$IIRMC,122503,A,5419.426,N,01346.211,E,04.6,024,070821,04,E,A*0C
$IIGLL,5419.428,N,01346.214,E,122504,A,A*50
$IIMWV,087,R,09.4,N,A*11
$IIMWV,113,T,10.3,N,A*14
$IIRMC,122504,A,5419.428,N,01346.214,E,04.6,022,070821,04,E,A*06
$IIGLL,5419.430,N,01346.215,E,122505,A,A*59
$IIMWV,086,R,09.2,N,A*16
$IIMWV,114,T,10.2,N,A*12
$IIRMC,122505,A,5419.430,N,01346.215,E,04.6,023,070821,04,E,A*0E
$IIGLL,5419.431,N,01346.215,E,122506,A,A*5B
$IIMWV,086,R,09.4,N,A*10
$IIMWV,113,T,10.0,N,A*17
$IIRMC,122506,A,5419.431,N,01346.215,E,04.5,020,070821,04,E,A*0C
$IIGLL,5419.433,N,01346.215,E,122507,A,A*58
$IIMWV,090,R,09.5,N,A*16
$IIMWV,113,T,10.1,N,A*16
$IIRMC,122507,A,5419.433,N,01346.215,E,04.5,021,070821,04,E,A*0E
$IIGLL,5419.434,N,01346.215,E,122508,A,A*50
$IIMWV,087,R,09.3,N,A*16
$IIMWV,115,T,10.5,N,A*14
$IIRMC,122508,A,5419.434,N,01346.215,E,04.8,023,070821,04,E,A*09
$IIGLL,5419.436,N,01346.216,E,122509,A,A*50
$IIMWV,089,R,09.3,N,A*18
$IIMWV,115,T,10.2,N,A*13
$IIRMC,122509,A,5419.436,N,01346.216,E,04.7,022,070821,04,E,A*07
$IIGLL,5419.437,N,01346.216,E,122510,A,A*59
$IIMWV,088,R,09.4,N,A*1E
$IIMWV,116,T,10.3,N,A*11
$IIRMC,122510,A,5419.437,N,01346.216,E,04.8,023,070821,04,E,A*00
$IIGLL,5419.439,N,01346.217,E,122511,A,A*57
$IIMWV,089,R,09.2,N,A*19
$IIMWV,116,T,10.4,N,A*16
$IIRMC,122511,A,5419.439,N,01346.217,E,04.7,021,070821,04,E,A*03
$IIGLL,5419.440,N,01346.219,E,122512,A,A*54
$IIMWV,089,R,09.2,N,A*19
$IIMWV,117,T,10.2,N,A*11
$IIRMC,122512,A,5419.440,N,01346.219,E,04.7,020,070821,04,E,A*01
$IIGLL,5419.441,N,01346.219,E,122513,A,A*54
$IIMWV,090,R,09.2,N,A*11
$IIMWV,117,T,10.2,N,A*11
$IIRMC,122513,A,5419.441,N,01346.219,E,04.7,021,070821,04,E,A*00
$IIGLL,5419.443,N,01346.219,E,122514,A,A*51
$IIMWV,091,R,08.8,N,A*1B
$IIMWV,117,T,10.3,N,A*10
$IIRMC,122514,A,5419.443,N,01346.219,E,04.8,019,070821,04,E,A*01
$IIGLL,5419.444,N,01346.220,E,122515,A,A*5D
$IIMWV,092,R,08.9,N,A*19
$IIMWV,119,T,10.0,N,A*1D
$IIRMC,122515,A,5419.444,N,01346.220,E,04.8,018,070821,04,E,A*0C
$IIGLL,5419.445,N,01346.220,E,122516,A,A*5F
$IIMWV,092,R,08.9,N,A*19
$IIMWV,119,T,10.2,N,A*1F
$IIRMC,122516,A,5419.445,N,01346.220,E,04.6,017,070821,04,E,A*0F
$IIGLL,5419.446,N,01346.221,E,122517,A,A*5C
$IIMWV,094,R,08.6,N,A*10
$IIMWV,118,T,10.1,N,A*1D
$IIRMC,122517,A,5419.446,N,01346.221,E,04.8,017,070821,04,E,A*02
$IIGLL,5419.448,N,01346.221,E,122518,A,A*5D
$IIMWV,094,R,08.8,N,A*1E
$IIMWV,122,T,10.1,N,A*14
$IIRMC,122518,A,5419.448,N,01346.221,E,04.7,016,070821,04,E,A*0D
$IIGLL,5419.450,N,01346.220,E,122519,A,A*54
$IIMWV,095,R,08.8,N,A*1F
$IIMWV,121,T,10.2,N,A*14
$IIRMC,122519,A,5419.450,N,01346.220,E,04.7,014,070821,04,E,A*06
$IIGLL,5419.450,N,01346.220,E,122520,A,A*5E
$IIMWV,096,R,08.5,N,A*11
$IIMWV,122,T,10.3,N,A*16
$IIRMC,122520,A,5419.450,N,01346.220,E,04.6,013,070821,04,E,A*0A
$IIGLL,5419.450,N,01346.220,E,122520,A,A*5E
$IIMWV,096,R,08.5,N,A*11
$IIMWV,123,T,09.9,N,A*15
$IIRMC,122520,A,5419.450,N,01346.220,E,04.6,013,070821,04,E,A*0A
$IIGLL,5419.452,N,01346.222,E,122522,A,A*5C
$IIMWV,098,R,08.3,N,A*19
$IIMWV,123,T,10.0,N,A*14
$IIRMC,122522,A,5419.452,N,01346.222,E,04.7,014,070821,04,E,A*0E
$IIGLL,5419.453,N,01346.222,E,122523,A,A*5C
$IIMWV,099,R,08.3,N,A*18
$IIMWV,125,T,10.0,N,A*12
$IIRMC,122523,A,5419.453,N,01346.222,E,04.8,013,070821,04,E,A*06
$IIGLL,5419.455,N,01346.223,E,122524,A,A*5C
$IIMWV,099,R,08.4,N,A*1F
$IIMWV,127,T,10.2,N,A*12
$IIRMC,122524,A,5419.455,N,01346.223,E,04.7,008,070821,04,E,A*03
$IIGLL,5419.456,N,01346.222,E,122525,A,A*5F
$IIMWV,102,R,08.4,N,A*1C
$IIMWV,126,T,10.2,N,A*13
$IIRMC,122525,A,5419.456,N,01346.222,E,04.6,007,070821,04,E,A*0E
$IIGLL,5419.458,N,01346.222,E,122526,A,A*52
$IIMWV,098,R,08.1,N,A*1B
$IIMWV,128,T,10.3,N,A*1C
$IIRMC,122526,A,5419.458,N,01346.222,E,04.5,009,070821,04,E,A*0E
$IIGLL,5419.459,N,01346.223,E,122527,A,A*53
$IIMWV,099,R,08.3,N,A*18
$IIMWV,125,T,09.7,N,A*1D
$IIRMC,122527,A,5419.459,N,01346.223,E,04.6,006,070821,04,E,A*03
$IIGLL,5419.461,N,01346.223,E,122528,A,A*57
$IIMWV,100,R,08.4,N,A*1E
$IIMWV,126,T,10.1,N,A*10
$IIRMC,122528,A,5419.461,N,01346.223,E,04.5,009,070821,04,E,A*0B
$IIGLL,5419.462,N,01346.224,E,122529,A,A*52
$IIMWV,099,R,08.2,N,A*19
$IIMWV,126,T,10.1,N,A*10
$IIRMC,122529,A,5419.462,N,01346.224,E,04.6,006,070821,04,E,A*02
$IIGLL,5419.462,N,01346.224,E,122529,A,A*52
$IIMWV,101,R,08.5,N,A*1E
$IIMWV,126,T,10.0,N,A*11
$IIRMC,122529,A,5419.462,N,01346.224,E,04.6,006,070821,04,E,A*02
$IIGLL,5419.464,N,01346.225,E,122531,A,A*5C
$IIMWV,100,R,08.4,N,A*1E
$IIMWV,127,T,10.4,N,A*14
$IIRMC,122531,A,5419.464,N,01346.225,E,04.7,008,070821,04,E,A*03
$IIGLL,5419.465,N,01346.225,E,122532,A,A*5E
$IIMWV,099,R,08.5,N,A*1E
$IIMWV,127,T,10.2,N,A*12
$IIRMC,122532,A,5419.465,N,01346.225,E,04.7,008,070821,04,E,A*01
$IIGLL,5419.467,N,01346.225,E,122533,A,A*5D
$IIMWV,099,R,08.4,N,A*1F
$IIMWV,126,T,10.3,N,A*12
$IIRMC,122533,A,5419.467,N,01346.225,E,04.8,004,070821,04,E,A*01
$IIGLL,5419.468,N,01346.225,E,122534,A,A*55
$IIMWV,100,R,08.2,N,A*18
$IIMWV,126,T,10.3,N,A*12
$IIRMC,122534,A,5419.468,N,01346.225,E,04.9,001,070821,04,E,A*0D
$IIGLL,5419.469,N,01346.226,E,122535,A,A*56
$IIMWV,099,R,07.9,N,A*1D
$IIMWV,128,T,10.1,N,A*1E
$IIRMC,122535,A,5419.469,N,01346.226,E,04.8,008,070821,04,E,A*06
$IIGLL,5419.472,N,01346.224,E,122536,A,A*5D
$IIMWV,099,R,08.2,N,A*19
$IIMWV,128,T,09.8,N,A*1F
$IIRMC,122536,A,5419.472,N,01346.224,E,04.9,006,070821,04,E,A*02
$IIGLL,5419.473,N,01346.223,E,122537,A,A*5A
$IIMWV,101,R,08.4,N,A*1F
$IIMWV,127,T,10.2,N,A*12
$IIRMC,122537,A,5419.473,N,01346.223,E,04.4,003,070821,04,E,A*0D
$IIGLL,5419.473,N,01346.222,E,122538,A,A*54
$IIMWV,099,R,08.3,N,A*18
$IIMWV,126,T,10.1,N,A*10
$IIRMC,122538,A,5419.473,N,01346.222,E,04.4,007,070821,04,E,A*07
$IIGLL,5419.475,N,01346.222,E,122539,A,A*53
$IIMWV,098,R,08.3,N,A*19
$IIMWV,125,T,09.9,N,A*13
$IIRMC,122539,A,5419.475,N,01346.222,E,04.4,009,070821,04,E,A*0E
$IIGLL,5419.476,N,01346.222,E,122540,A,A*5E
$IIMWV,098,R,08.8,N,A*12
$IIMWV,124,T,09.8,N,A*13
$IIRMC,122540,A,5419.476,N,01346.222,E,04.3,010,070821,04,E,A*0C
$IIGLL,5419.477,N,01346.223,E,122541,A,A*5F
$IIMWV,099,R,08.8,N,A*13
$IIMWV,122,T,10.2,N,A*17
$IIRMC,122541,A,5419.477,N,01346.223,E,04.3,013,070821,04,E,A*0E
$IIGLL,5419.478,N,01346.224,E,122542,A,A*54
$IIMWV,099,R,08.7,N,A*1C
$IIMWV,123,T,10.4,N,A*10
$IIRMC,122542,A,5419.478,N,01346.224,E,04.4,012,070821,04,E,A*03
$IIGLL,5419.479,N,01346.224,E,122543,A,A*54
$IIMWV,097,R,08.7,N,A*12
$IIMWV,123,T,10.3,N,A*17
$IIRMC,122543,A,5419.479,N,01346.224,E,04.2,010,070821,04,E,A*07
$IIGLL,5419.480,N,01346.224,E,122544,A,A*55
$IIMWV,097,R,08.8,N,A*1D
$IIMWV,121,T,10.0,N,A*16
$IIRMC,122544,A,5419.480,N,01346.224,E,04.3,009,070821,04,E,A*0F
$IIGLL,5419.481,N,01346.225,E,122545,A,A*54
$IIMWV,096,R,08.8,N,A*1C
$IIMWV,121,T,10.1,N,A*17
$IIRMC,122545,A,5419.481,N,01346.225,E,04.3,010,070821,04,E,A*06
$IIGLL,5419.482,N,01346.226,E,122546,A,A*57
$IIMWV,096,R,08.8,N,A*1C
$IIMWV,120,T,10.0,N,A*17
$IIRMC,122546,A,5419.482,N,01346.226,E,04.5,012,070821,04,E,A*01
$IIGLL,5419.481,N,01346.226,E,122547,A,A*55
$IIMWV,094,R,09.0,N,A*17
$IIMWV,121,T,10.1,N,A*17
$IIRMC,122547,A,5419.481,N,01346.226,E,04.5,010,070821,04,E,A*01
$IIGLL,5419.484,N,01346.227,E,122548,A,A*5E
$IIMWV,096,R,09.0,N,A*15
$IIMWV,120,T,10.3,N,A*14
$IIRMC,122548,A,5419.484,N,01346.227,E,04.3,015,070821,04,E,A*09
$IIGLL,5419.486,N,01346.228,E,122549,A,A*52
$IIMWV,096,R,08.9,N,A*1D
$IIMWV,120,T,10.3,N,A*14
$IIRMC,122549,A,5419.486,N,01346.228,E,04.2,014,070821,04,E,A*05
$IIGLL,5419.487,N,01346.228,E,122550,A,A*5B
$IIMWV,095,R,08.8,N,A*1F
$IIMWV,120,T,10.1,N,A*16
$IIRMC,122550,A,5419.487,N,01346.228,E,04.1,014,070821,04,E,A*0F
$IIGLL,5419.488,N,01346.229,E,122551,A,A*54
$IIMWV,095,R,09.0,N,A*16
$IIMWV,119,T,10.0,N,A*1D
$IIRMC,122551,A,5419.488,N,01346.229,E,04.0,013,070821,04,E,A*06
$IIGLL,5419.489,N,01346.228,E,122552,A,A*57
$IIMWV,096,R,09.1,N,A*14
$IIMWV,118,T,10.2,N,A*1E
$IIRMC,122552,A,5419.489,N,01346.228,E,04.3,012,070821,04,E,A*07
$IIGLL,5419.489,N,01346.229,E,122553,A,A*57
$IIMWV,095,R,09.0,N,A*16
$IIMWV,120,T,10.3,N,A*14
$IIRMC,122553,A,5419.489,N,01346.229,E,04.5,011,070821,04,E,A*02
$IIGLL,5419.490,N,01346.230,E,122554,A,A*50
$IIMWV,096,R,09.1,N,A*14
$IIMWV,121,T,10.4,N,A*12
$IIRMC,122554,A,5419.490,N,01346.230,E,04.6,011,070821,04,E,A*06
$IIGLL,5419.492,N,01346.230,E,122555,A,A*53
$IIMWV,095,R,09.3,N,A*15
$IIMWV,122,T,10.5,N,A*10
$IIRMC,122555,A,5419.492,N,01346.230,E,04.7,011,070821,04,E,A*04
$IIGLL,5419.493,N,01346.231,E,122556,A,A*50
$IIMWV,095,R,09.4,N,A*12
$IIMWV,121,T,10.8,N,A*1E
$IIRMC,122556,A,5419.493,N,01346.231,E,04.7,012,070821,04,E,A*04
$IIGLL,5419.493,N,01346.232,E,122557,A,A*52
$IIMWV,093,R,09.4,N,A*14
$IIMWV,120,T,10.8,N,A*1F
$IIRMC,122557,A,5419.493,N,01346.232,E,04.6,012,070821,04,E,A*07
$IIGLL,5419.494,N,01346.232,E,122558,A,A*5A
$IIMWV,093,R,09.7,N,A*17
$IIMWV,118,T,10.6,N,A*1A
$IIRMC,122558,A,5419.494,N,01346.232,E,04.5,012,070821,04,E,A*0C
$IIGLL,5419.495,N,01346.232,E,122559,A,A*5A
$IIMWV,093,R,09.7,N,A*17
$IIMWV,117,T,10.8,N,A*1B
$IIRMC,122559,A,5419.495,N,01346.232,E,04.5,012,070821,04,E,A*0C
$IIGLL,5419.496,N,01346.234,E,122600,A,A*50
$IIMWV,093,R,09.7,N,A*17
$IIMWV,117,T,10.8,N,A*1B
$IIRMC,122600,A,5419.496,N,01346.234,E,04.5,013,070821,04,E,A*07
$IIGLL,5419.497,N,01346.234,E,122601,A,A*50
$IIMWV,093,R,09.7,N,A*17
$IIMWV,117,T,10.8,N,A*1B
$IIRMC,122601,A,5419.497,N,01346.234,E,04.6,015,070821,04,E,A*02
$IIGLL,5419.497,N,01346.235,E,122602,A,A*52
$IIMWV,094,R,09.6,N,A*11
$IIMWV,117,T,10.9,N,A*1A
$IIRMC,122602,A,5419.497,N,01346.235,E,04.3,013,070821,04,E,A*03
$IIGLL,5419.498,N,01346.236,E,122603,A,A*5F
$IIMWV,092,R,09.8,N,A*19
$IIMWV,117,T,10.7,N,A*14
$IIRMC,122603,A,5419.498,N,01346.236,E,04.4,012,070821,04,E,A*08
$IIGLL,5419.498,N,01346.237,E,122604,A,A*59
$IIMWV,094,R,09.7,N,A*10
$IIMWV,115,T,10.8,N,A*19
$IIRMC,122604,A,5419.498,N,01346.237,E,04.5,014,070821,04,E,A*09
$IIGLL,5419.499,N,01346.237,E,122605,A,A*59
$IIMWV,092,R,09.5,N,A*14
$IIMWV,118,T,10.9,N,A*15
$IIRMC,122605,A,5419.499,N,01346.237,E,04.6,016,070821,04,E,A*08
$IIGLL,5419.501,N,01346.238,E,122606,A,A*55
$IIMWV,093,R,09.3,N,A*13
$IIMWV,117,T,10.6,N,A*15
$IIRMC,122606,A,5419.501,N,01346.238,E,04.7,014,070821,04,E,A*07
$IIGLL,5419.501,N,01346.239,E,122607,A,A*55
$IIMWV,092,R,09.2,N,A*13
$IIMWV,119,T,10.6,N,A*1B
$IIRMC,122607,A,5419.501,N,01346.239,E,04.5,016,070821,04,E,A*07
$IIGLL,5419.501,N,01346.239,E,122607,A,A*55
$IIMWV,092,R,09.1,N,A*10
$IIMWV,117,T,10.3,N,A*10
$IIRMC,122607,A,5419.501,N,01346.239,E,04.5,016,070821,04,E,A*07
$IIGLL,5419.506,N,01346.240,E,122609,A,A*52
$IIMWV,093,R,09.0,N,A*10
$IIMWV,117,T,10.2,N,A*11
$IIRMC,122609,A,5419.506,N,01346.240,E,04.7,017,070821,04,E,A*03
$IIGLL,5419.507,N,01346.239,E,122610,A,A*55
$IIMWV,090,R,08.7,N,A*15
$IIMWV,120,T,10.3,N,A*14
$IIRMC,122610,A,5419.507,N,01346.239,E,04.8,017,070821,04,E,A*0B
$IIGLL,5419.509,N,01346.240,E,122611,A,A*54
$IIMWV,092,R,09.0,N,A*11
$IIMWV,119,T,09.9,N,A*1C
$IIRMC,122611,A,5419.509,N,01346.240,E,04.7,015,070821,04,E,A*07
$IIGLL,5419.511,N,01346.240,E,122612,A,A*5E
$IIMWV,092,R,08.9,N,A*19
$IIMWV,119,T,10.2,N,A*1F
$IIRMC,122612,A,5419.511,N,01346.240,E,04.9,017,070821,04,E,A*01
$IIGLL,5419.512,N,01346.240,E,122613,A,A*5C
$IIMWV,091,R,09.0,N,A*12
$IIMWV,120,T,10.2,N,A*15
$IIRMC,122613,A,5419.512,N,01346.240,E,05.1,014,070821,04,E,A*09
$IIGLL,5419.513,N,01346.241,E,122614,A,A*5B
$IIMWV,092,R,09.3,N,A*12
$IIMWV,120,T,10.3,N,A*14
$IIRMC,122614,A,5419.513,N,01346.241,E,04.9,013,070821,04,E,A*00
$IIGLL,5419.514,N,01346.242,E,122615,A,A*5E
$IIMWV,092,R,09.2,N,A*13
$IIMWV,119,T,10.6,N,A*1B
$IIRMC,122615,A,5419.514,N,01346.242,E,04.9,014,070821,04,E,A*02
$IIGLL,5419.515,N,01346.242,E,122616,A,A*5C
$IIMWV,091,R,09.1,N,A*13
$IIMWV,119,T,10.5,N,A*18
$IIRMC,122616,A,5419.515,N,01346.242,E,04.8,013,070821,04,E,A*06
$IIGLL,5419.515,N,01346.242,E,122616,A,A*5C
$IIMWV,092,R,09.3,N,A*12
$IIMWV,118,T,10.3,N,A*1F
$IIRMC,122616,A,5419.515,N,01346.242,E,04.8,013,070821,04,E,A*06
$IIGLL,5419.518,N,01346.244,E,122618,A,A*59
$IIMWV,092,R,09.2,N,A*13
$IIMWV,118,T,10.5,N,A*19
$IIRMC,122618,A,5419.518,N,01346.244,E,04.8,014,070821,04,E,A*04
$IIGLL,5419.520,N,01346.244,E,122619,A,A*53
$IIMWV,092,R,09.2,N,A*13
$IIMWV,119,T,10.4,N,A*19
$IIRMC,122619,A,5419.520,N,01346.244,E,04.7,011,070821,04,E,A*04
$IIGLL,5419.521,N,01346.245,E,122620,A,A*59
$IIMWV,093,R,09.3,N,A*13
$IIMWV,118,T,10.4,N,A*18
$IIRMC,122620,A,5419.521,N,01346.245,E,04.8,012,070821,04,E,A*02
$IIGLL,5419.521,N,01346.246,E,122621,A,A*5B
$IIMWV,093,R,09.0,N,A*10
$IIMWV,119,T,10.6,N,A*1B
$IIRMC,122621,A,5419.521,N,01346.246,E,04.8,012,070821,04,E,A*00
$IIGLL,5419.522,N,01346.246,E,122622,A,A*5B
$IIMWV,092,R,09.1,N,A*10
$IIMWV,120,T,10.3,N,A*14
$IIRMC,122622,A,5419.522,N,01346.246,E,04.8,010,070821,04,E,A*02
$IIGLL,5419.524,N,01346.246,E,122623,A,A*5C
$IIMWV,094,R,09.2,N,A*15
$IIMWV,119,T,10.3,N,A*1E
$IIRMC,122623,A,5419.524,N,01346.246,E,04.9,009,070821,04,E,A*0C
$IIGLL,5419.524,N,01346.247,E,122624,A,A*5A
$IIMWV,093,R,09.2,N,A*12
$IIMWV,121,T,10.7,N,A*11
$IIRMC,122624,A,5419.524,N,01346.247,E,04.8,009,070821,04,E,A*0B
$IIGLL,5419.525,N,01346.248,E,122625,A,A*55
$IIMWV,095,R,09.2,N,A*14
$IIMWV,120,T,10.5,N,A*12
$IIRMC,122625,A,5419.525,N,01346.248,E,04.9,012,070821,04,E,A*0F
$IIGLL,5419.527,N,01346.248,E,122626,A,A*54
$IIMWV,091,R,09.0,N,A*12
$IIMWV,122,T,10.8,N,A*1D
$IIRMC,122626,A,5419.527,N,01346.248,E,04.8,013,070821,04,E,A*0E
$IIGLL,5419.528,N,01346.249,E,122627,A,A*5B
$IIMWV,092,R,09.2,N,A*13
$IIMWV,119,T,10.2,N,A*1F
$IIRMC,122627,A,5419.528,N,01346.249,E,04.7,014,070821,04,E,A*09
$IIGLL,5419.529,N,01346.251,E,122628,A,A*5C
$IIMWV,092,R,09.4,N,A*15
$IIMWV,118,T,10.4,N,A*18
$IIRMC,122628,A,5419.529,N,01346.251,E,04.6,014,070821,04,E,A*0F
$IIGLL,5419.530,N,01346.251,E,122629,A,A*55
$IIMWV,091,R,09.2,N,A*10
$IIMWV,117,T,10.5,N,A*16
$IIRMC,122629,A,5419.530,N,01346.251,E,04.7,015,070821,04,E,A*06
$IIGLL,5419.530,N,01346.251,E,122629,A,A*55
$IIMWV,092,R,09.4,N,A*15
$IIMWV,117,T,10.3,N,A*10
$IIRMC,122629,A,5419.530,N,01346.251,E,04.7,015,070821,04,E,A*06
$IIGLL,5419.533,N,01346.253,E,122631,A,A*5D
$IIMWV,090,R,09.3,N,A*10
$IIMWV,118,T,10.6,N,A*1A
$IIRMC,122631,A,5419.533,N,01346.253,E,04.7,017,070821,04,E,A*0C
$IIGLL,5419.535,N,01346.254,E,122632,A,A*5F
$IIMWV,090,R,09.4,N,A*17
$IIMWV,117,T,10.4,N,A*17
$IIRMC,122632,A,5419.535,N,01346.254,E,04.7,015,070821,04,E,A*0C
$IIGLL,5419.536,N,01346.254,E,122633,A,A*5D
$IIMWV,089,R,09.5,N,A*1E
$IIMWV,117,T,10.5,N,A*16
$IIRMC,122633,A,5419.536,N,01346.254,E,04.8,019,070821,04,E,A*0D
$IIGLL,5419.538,N,01346.255,E,122634,A,A*55
$IIMWV,088,R,09.5,N,A*1F
$IIMWV,116,T,10.5,N,A*17
$IIRMC,122634,A,5419.538,N,01346.255,E,04.9,017,070821,04,E,A*0A
$IIGLL,5419.540,N,01346.256,E,122635,A,A*58
$IIMWV,090,R,09.5,N,A*16
$IIMWV,116,T,10.5,N,A*17
$IIRMC,122635,A,5419.540,N,01346.256,E,04.8,017,070821,04,E,A*06
$IIGLL,5419.541,N,01346.257,E,122636,A,A*5B
$IIMWV,088,R,09.5,N,A*1F
$IIMWV,117,T,10.6,N,A*15
$IIRMC,122636,A,5419.541,N,01346.257,E,04.8,017,070821,04,E,A*05
$IIGLL,5419.543,N,01346.258,E,122637,A,A*57
$IIMWV,089,R,09.3,N,A*18
$IIMWV,116,T,10.5,N,A*17
$IIRMC,122637,A,5419.543,N,01346.258,E,04.8,016,070821,04,E,A*08
$IIGLL,5419.543,N,01346.258,E,122637,A,A*57
$IIMWV,089,R,09.2,N,A*19
$IIMWV,117,T,10.4,N,A*17
$IIRMC,122637,A,5419.543,N,01346.258,E,04.8,016,070821,04,E,A*08
$IIGLL,5419.544,N,01346.258,E,122638,A,A*5F
$IIMWV,089,R,09.2,N,A*19
$IIMWV,117,T,10.2,N,A*11
$IIRMC,122638,A,5419.544,N,01346.258,E,04.7,016,070821,04,E,A*0F
$IIGLL,5419.547,N,01346.258,E,122640,A,A*53
$IIMWV,089,R,09.1,N,A*1A
$IIMWV,117,T,10.2,N,A*11
$IIRMC,122640,A,5419.547,N,01346.258,E,04.8,018,070821,04,E,A*02
$IIGLL,5419.548,N,01346.259,E,122641,A,A*5C
$IIMWV,088,R,09.0,N,A*1A
$IIMWV,117,T,10.2,N,A*11
$IIRMC,122641,A,5419.548,N,01346.259,E,04.8,017,070821,04,E,A*02
$IIGLL,5419.549,N,01346.260,E,122642,A,A*54
$IIMWV,088,R,09.1,N,A*1B
$IIMWV,117,T,10.1,N,A*12
$IIRMC,122642,A,5419.549,N,01346.260,E,04.6,016,070821,04,E,A*05
$IIGLL,5419.550,N,01346.261,E,122643,A,A*5C
$IIMWV,088,R,08.8,N,A*13
$IIMWV,116,T,10.1,N,A*13
$IIRMC,122643,A,5419.550,N,01346.261,E,04.6,018,070821,04,E,A*03
$IIGLL,5419.552,N,01346.262,E,122644,A,A*5A
$IIMWV,087,R,08.7,N,A*13
$IIMWV,117,T,09.8,N,A*13
$IIRMC,122644,A,5419.552,N,01346.262,E,04.7,016,070821,04,E,A*0A
$IIGLL,5419.553,N,01346.262,E,122645,A,A*5A
$IIMWV,087,R,09.0,N,A*15
$IIMWV,116,T,09.7,N,A*1D
$IIRMC,122645,A,5419.553,N,01346.262,E,04.5,017,070821,04,E,A*09
$IIGLL,5419.554,N,01346.263,E,122646,A,A*5F
$IIMWV,085,R,09.0,N,A*17
$IIMWV,115,T,09.8,N,A*11
$IIRMC,122646,A,5419.554,N,01346.263,E,04.5,019,070821,04,E,A*02
$IIGLL,5419.556,N,01346.263,E,122647,A,A*5C
$IIMWV,084,R,08.7,N,A*10
$IIMWV,112,T,09.7,N,A*19
$IIRMC,122647,A,5419.556,N,01346.263,E,04.6,019,070821,04,E,A*02
$IIGLL,5419.556,N,01346.265,E,122648,A,A*55
$IIMWV,084,R,08.8,N,A*1F
$IIMWV,114,T,09.4,N,A*1C
$IIRMC,122648,A,5419.556,N,01346.265,E,04.7,019,070821,04,E,A*0A
$IIGLL,5419.557,N,01346.266,E,122649,A,A*56
$IIMWV,083,R,09.0,N,A*11
$IIMWV,114,T,09.5,N,A*1D
$IIRMC,122649,A,5419.557,N,01346.266,E,04.5,018,070821,04,E,A*0A
$IIGLL,5419.559,N,01346.266,E,122650,A,A*50
$IIMWV,085,R,09.0,N,A*17
$IIMWV,111,T,09.5,N,A*18
$IIRMC,122650,A,5419.559,N,01346.266,E,04.4,018,070821,04,E,A*0D
$IIGLL,5419.559,N,01346.267,E,122651,A,A*50
$IIMWV,087,R,08.9,N,A*1D
$IIMWV,112,T,09.6,N,A*18
$IIRMC,122651,A,5419.559,N,01346.267,E,04.4,019,070821,04,E,A*0C
$IIGLL,5419.561,N,01346.268,E,122652,A,A*57
$IIMWV,085,R,08.8,N,A*1E
$IIMWV,114,T,09.7,N,A*1F
$IIRMC,122652,A,5419.561,N,01346.268,E,04.4,020,070821,04,E,A*01
$IIGLL,5419.562,N,01346.268,E,122653,A,A*55
$IIMWV,086,R,08.9,N,A*1C
$IIMWV,113,T,09.5,N,A*1A
$IIRMC,122653,A,5419.562,N,01346.268,E,04.4,018,070821,04,E,A*08
$IIGLL,5419.564,N,01346.271,E,122654,A,A*5C
$IIMWV,086,R,09.2,N,A*16
$IIMWV,113,T,09.6,N,A*19
$IIRMC,122654,A,5419.564,N,01346.271,E,04.2,020,070821,04,E,A*0C
$IIGLL,5419.565,N,01346.272,E,122655,A,A*5F
$IIMWV,086,R,09.2,N,A*16
$IIMWV,111,T,09.8,N,A*15
$IIRMC,122655,A,5419.565,N,01346.272,E,04.5,021,070821,04,E,A*09
$IIGLL,5419.567,N,01346.273,E,122656,A,A*5F
$IIMWV,086,R,09.2,N,A*16
$IIMWV,113,T,09.9,N,A*16
$IIRMC,122656,A,5419.567,N,01346.273,E,04.5,018,070821,04,E,A*03
$IIGLL,5419.567,N,01346.273,E,122656,A,A*5F
$IIMWV,087,R,09.3,N,A*16
$IIMWV,113,T,09.9,N,A*16
$IIRMC,122656,A,5419.567,N,01346.273,E,04.5,018,070821,04,E,A*03
$IIGLL,5419.569,N,01346.274,E,122658,A,A*58
$IIMWV,086,R,09.3,N,A*17
$IIMWV,113,T,10.1,N,A*16
$IIRMC,122658,A,5419.569,N,01346.274,E,04.5,020,070821,04,E,A*0F
$IIGLL,5419.571,N,01346.274,E,122659,A,A*50
$IIMWV,088,R,09.3,N,A*19
$IIMWV,113,T,10.0,N,A*17
$IIRMC,122659,A,5419.571,N,01346.274,E,04.5,020,070821,04,E,A*07
$IIGLL,5419.573,N,01346.273,E,122700,A,A*58
$IIMWV,087,R,09.4,N,A*11
$IIMWV,115,T,10.2,N,A*13
$IIRMC,122700,A,5419.573,N,01346.273,E,04.5,022,070821,04,E,A*0D
$IIGLL,5419.574,N,01346.274,E,122701,A,A*59
$IIMWV,088,R,09.5,N,A*1F
$IIMWV,113,T,10.2,N,A*15
$IIRMC,122701,A,5419.574,N,01346.274,E,04.6,021,070821,04,E,A*0C
$IIGLL,5419.575,N,01346.275,E,122702,A,A*5A
$IIMWV,089,R,09.3,N,A*18
$IIMWV,115,T,10.4,N,A*15
$IIRMC,122702,A,5419.575,N,01346.275,E,04.7,020,070821,04,E,A*0F
$IIGLL,5419.577,N,01346.275,E,122703,A,A*59
$IIMWV,089,R,09.5,N,A*1E
$IIMWV,116,T,10.3,N,A*11
$IIRMC,122703,A,5419.577,N,01346.275,E,04.6,019,070821,04,E,A*07
$IIGLL,5419.578,N,01346.275,E,122704,A,A*51
$IIMWV,087,R,09.5,N,A*10
$IIMWV,115,T,10.5,N,A*14
$IIRMC,122704,A,5419.578,N,01346.275,E,04.6,021,070821,04,E,A*04
$IIGLL,5419.578,N,01346.275,E,122704,A,A*51
$IIMWV,088,R,09.4,N,A*1E
$IIMWV,114,T,10.3,N,A*13
$IIRMC,122704,A,5419.578,N,01346.275,E,04.6,021,070821,04,E,A*04
$IIGLL,5419.580,N,01346.277,E,122706,A,A*56
$IIMWV,089,R,09.7,N,A*1C
$IIMWV,115,T,10.3,N,A*12
$IIRMC,122706,A,5419.580,N,01346.277,E,04.9,019,070821,04,E,A*07
$IIGLL,5419.581,N,01346.278,E,122707,A,A*59
$IIMWV,090,R,09.5,N,A*16
$IIMWV,116,T,10.8,N,A*1A
$IIRMC,122707,A,5419.581,N,01346.278,E,04.9,021,070821,04,E,A*03
$IIGLL,5419.582,N,01346.279,E,122708,A,A*54
$IIMWV,088,R,09.3,N,A*19
$IIMWV,117,T,10.6,N,A*15
$IIRMC,122708,A,5419.582,N,01346.279,E,04.9,017,070821,04,E,A*0B
$IIGLL,5419.583,N,01346.280,E,122709,A,A*52
$IIMWV,088,R,09.5,N,A*1F
$IIMWV,117,T,10.4,N,A*17
$IIRMC,122709,A,5419.583,N,01346.280,E,04.6,016,070821,04,E,A*03
$IIGLL,5419.584,N,01346.280,E,122710,A,A*5D
$IIMWV,091,R,09.5,N,A*17
$IIMWV,115,T,10.4,N,A*15
$IIRMC,122710,A,5419.584,N,01346.280,E,04.7,018,070821,04,E,A*03
$IIGLL,5419.585,N,01346.281,E,122711,A,A*5C
$IIMWV,089,R,09.1,N,A*1A
$IIMWV,117,T,10.6,N,A*15
$IIRMC,122711,A,5419.585,N,01346.281,E,04.8,018,070821,04,E,A*0D
$IIGLL,5419.587,N,01346.283,E,122712,A,A*5F
$IIMWV,089,R,09.1,N,A*1A
$IIMWV,117,T,10.2,N,A*11
$IIRMC,122712,A,5419.587,N,01346.283,E,04.8,016,070821,04,E,A*00
$IIGLL,5419.588,N,01346.284,E,122713,A,A*56
$IIMWV,090,R,09.1,N,A*12
$IIMWV,117,T,10.2,N,A*11
$IIRMC,122713,A,5419.588,N,01346.284,E,04.6,017,070821,04,E,A*06
$IIGLL,5419.589,N,01346.285,E,122714,A,A*51
$IIMWV,091,R,09.2,N,A*10
$IIMWV,117,T,10.1,N,A*12
$IIRMC,122714,A,5419.589,N,01346.285,E,04.7,019,070821,04,E,A*0E
$IIGLL,5419.590,N,01346.286,E,122715,A,A*5B
$IIMWV,089,R,08.9,N,A*13
$IIMWV,117,T,10.3,N,A*10
$IIRMC,122715,A,5419.590,N,01346.286,E,04.8,019,070821,04,E,A*0B
$IIGLL,5419.591,N,01346.286,E,122716,A,A*59
$IIMWV,090,R,08.8,N,A*1A
$IIMWV,118,T,10.0,N,A*1C
$IIRMC,122716,A,5419.591,N,01346.286,E,04.7,017,070821,04,E,A*08
$IIGLL,5419.592,N,01346.287,E,122717,A,A*5A
$IIMWV,089,R,09.1,N,A*1A
$IIMWV,118,T,09.9,N,A*1D
$IIRMC,122717,A,5419.592,N,01346.287,E,04.4,017,070821,04,E,A*08
$IIGLL,5419.594,N,01346.287,E,122718,A,A*53
$IIMWV,092,R,09.0,N,A*11
$IIMWV,115,T,10.0,N,A*11
$IIRMC,122718,A,5419.594,N,01346.287,E,04.4,020,070821,04,E,A*05
$IIGLL,5419.596,N,01346.288,E,122719,A,A*5F
$IIMWV,090,R,09.1,N,A*12
$IIMWV,117,T,10.1,N,A*12
$IIRMC,122719,A,5419.596,N,01346.288,E,04.5,019,070821,04,E,A*02
$IIGLL,5419.597,N,01346.289,E,122720,A,A*55
$IIMWV,092,R,09.2,N,A*13
$IIMWV,116,T,10.1,N,A*13
$IIRMC,122720,A,5419.597,N,01346.289,E,04.5,019,070821,04,E,A*08
$IIGLL,5419.599,N,01346.289,E,122721,A,A*5A
$IIMWV,091,R,09.6,N,A*14
$IIMWV,117,T,10.3,N,A*10
$IIRMC,122721,A,5419.599,N,01346.289,E,04.6,024,070821,04,E,A*0A
$IIGLL,5419.599,N,01346.291,E,122722,A,A*50
$IIMWV,090,R,09.4,N,A*17
$IIMWV,116,T,10.6,N,A*14
$IIRMC,122722,A,5419.599,N,01346.291,E,04.8,025,070821,04,E,A*0F
$IIGLL,5419.601,N,01346.292,E,122723,A,A*50
$IIMWV,089,R,09.4,N,A*1F
$IIMWV,117,T,10.5,N,A*16
$IIRMC,122723,A,5419.601,N,01346.292,E,05.0,022,070821,04,E,A*01
$IIGLL,5419.602,N,01346.293,E,122724,A,A*55
$IIMWV,090,R,09.7,N,A*14
$IIMWV,117,T,10.6,N,A*15
$IIRMC,122724,A,5419.602,N,01346.293,E,05.0,022,070821,04,E,A*04
$IIGLL,5419.603,N,01346.294,E,122725,A,A*52
$IIMWV,088,R,09.6,N,A*1C
$IIMWV,117,T,10.9,N,A*1A
$IIRMC,122725,A,5419.603,N,01346.294,E,04.9,024,070821,04,E,A*0D
$IIGLL,5419.605,N,01346.294,E,122726,A,A*57
$IIMWV,088,R,09.4,N,A*1E
$IIMWV,116,T,10.6,N,A*14
$IIRMC,122726,A,5419.605,N,01346.294,E,05.0,026,070821,04,E,A*02
$IIGLL,5419.605,N,01346.294,E,122726,A,A*57
$IIMWV,088,R,09.3,N,A*19
$IIMWV,117,T,10.5,N,A*16
$IIRMC,122726,A,5419.605,N,01346.294,E,05.0,026,070821,04,E,A*02
$IIGLL,5419.607,N,01346.296,E,122728,A,A*59
$IIMWV,089,R,09.5,N,A*1E
$IIMWV,117,T,10.4,N,A*17
$IIRMC,122728,A,5419.607,N,01346.296,E,04.8,023,070821,04,E,A*00
$IIGLL,5419.608,N,01346.297,E,122729,A,A*56
$IIMWV,091,R,09.5,N,A*17
$IIMWV,116,T,10.5,N,A*17
$IIRMC,122731,A,5419.611,N,01346.298,E,04.7,020,070821,04,E,A*0D
$IIGLL,5419.611,N,01346.298,E,122731,A,A*58
$IIMWV,091,R,09.1,N,A*13
$IIMWV,117,T,10.1,N,A*12
$IIRMC,122732,A,5419.612,N,01346.299,E,04.7,023,070821,04,E,A*0F
$IIGLL,5419.612,N,01346.299,E,122732,A,A*59
$IIMWV,090,R,09.4,N,A*17
$IIMWV,118,T,10.2,N,A*1E
$IIRMC,122733,A,5419.612,N,01346.300,E,04.9,023,070821,04,E,A*01
$IIGLL,5419.612,N,01346.300,E,122733,A,A*59
$IIMWV,090,R,09.3,N,A*10
$IIMWV,117,T,10.5,N,A*16
$IIRMC,122734,A,5419.613,N,01346.301,E,04.9,022,070821,04,E,A*07
$IIGLL,5419.613,N,01346.301,E,122734,A,A*5E
$IIMWV,089,R,09.4,N,A*1F
$IIMWV,118,T,10.5,N,A*19
$IIRMC,122735,A,5419.616,N,01346.301,E,04.8,022,070821,04,E,A*02
$IIGLL,5419.616,N,01346.301,E,122735,A,A*5A
$IIMWV,090,R,09.5,N,A*16
$IIMWV,117,T,10.5,N,A*16
$IIRMC,122736,A,5419.616,N,01346.303,E,04.9,023,070821,04,E,A*03
$IIGLL,5419.616,N,01346.303,E,122736,A,A*5B
$IIMWV,089,R,09.5,N,A*1E
$IIMWV,117,T,10.6,N,A*15
$IIRMC,122737,A,5419.618,N,01346.303,E,04.9,022,070821,04,E,A*0D
$IIGLL,5419.618,N,01346.303,E,122737,A,A*54
$IIMWV,089,R,09.5,N,A*1E
$IIMWV,117,T,10.6,N,A*15
$IIRMC,122738,A,5419.620,N,01346.304,E,04.8,022,070821,04,E,A*0F
$IIGLL,5419.620,N,01346.304,E,122738,A,A*57
$IIMWV,088,R,09.7,N,A*1D
$IIMWV,117,T,10.6,N,A*15
$IIRMC,122739,A,5419.621,N,01346.304,E,04.8,022,070821,04,E,A*0F
$IIGLL,5419.621,N,01346.304,E,122739,A,A*57
$IIMWV,089,R,09.7,N,A*1C
$IIMWV,115,T,10.7,N,A*16
$IIRMC,122740,A,5419.622,N,01346.305,E,04.6,023,070821,04,E,A*0C
$IIGLL,5419.622,N,01346.305,E,122740,A,A*5B
$IIMWV,088,R,09.7,N,A*1D
$IIMWV,116,T,10.7,N,A*15
$IIRMC,122741,A,5419.623,N,01346.307,E,04.6,024,070821,04,E,A*09
$IIGLL,5419.623,N,01346.307,E,122741,A,A*59
$IIMWV,090,R,09.6,N,A*15
$IIMWV,115,T,10.6,N,A*17
$IIRMC,122742,A,5419.624,N,01346.308,E,04.7,024,070821,04,E,A*03
$IIGLL,5419.624,N,01346.308,E,122742,A,A*52
$IIMWV,087,R,09.6,N,A*13
$IIMWV,116,T,10.6,N,A*14
$IIRMC,122743,A,5419.625,N,01346.309,E,04.6,020,070821,04,E,A*07
$IIGLL,5419.625,N,01346.309,E,122743,A,A*53
$IIMWV,088,R,09.6,N,A*1C
$IIMWV,114,T,10.5,N,A*15
$IIRMC,122744,A,5419.627,N,01346.309,E,04.6,022,070821,04,E,A*00
$IIGLL,5419.627,N,01346.309,E,122744,A,A*56
$IIMWV,089,R,09.7,N,A*1C
$IIMWV,115,T,10.5,N,A*14
$IIRMC,122745,A,5419.628,N,01346.311,E,04.8,024,070821,04,E,A*0F
$IIGLL,5419.628,N,01346.311,E,122745,A,A*51
$IIMWV,089,R,09.5,N,A*1E
$IIMWV,115,T,10.6,N,A*17
$IIRMC,122745,A,5419.628,N,01346.311,E,04.8,024,070821,04,E,A*0F
$IIGLL,5419.628,N,01346.311,E,122745,A,A*51
$IIMWV,088,R,09.5,N,A*1F
$IIMWV,116,T,10.5,N,A*17
$IIRMC,122747,A,5419.630,N,01346.314,E,04.6,023,070821,04,E,A*08
$IIGLL,5419.630,N,01346.314,E,122747,A,A*5F
$IIMWV,089,R,09.9,N,A*12
$IIMWV,116,T,10.5,N,A*17
$IIRMC,122748,A,5419.632,N,01346.315,E,04.6,023,070821,04,E,A*04
$IIGLL,5419.632,N,01346.315,E,122748,A,A*53
$IIMWV,087,R,09.8,N,A*1D
$IIMWV,115,T,10.8,N,A*19
$IIRMC,122749,A,5419.633,N,01346.316,E,04.6,021,070821,04,E,A*05
$IIGLL,5419.633,N,01346.316,E,122749,A,A*50
$IIMWV,089,R,09.9,N,A*12
$IIMWV,113,T,10.6,N,A*11
$IIRMC,122750,A,5419.634,N,01346.318,E,04.9,026,070821,04,E,A*0C
$IIGLL,5419.634,N,01346.318,E,122750,A,A*51
$IIMWV,088,R,10.0,N,A*12
$IIMWV,115,T,10.8,N,A*19
$IIRMC,122751,A,5419.635,N,01346.318,E,04.7,026,070821,04,E,A*02
$IIGLL,5419.635,N,01346.318,E,122751,A,A*51
$IIMWV,089,R,09.9,N,A*12
$IIMWV,115,T,11.0,N,A*10
$IIRMC,122752,A,5419.636,N,01346.319,E,04.7,025,070821,04,E,A*00
$IIGLL,5419.636,N,01346.319,E,122752,A,A*50
$IIMWV,089,R,09.9,N,A*12
$IIMWV,115,T,10.9,N,A*18
$IIRMC,122753,A,5419.637,N,01346.321,E,04.7,023,070821,04,E,A*0D
$IIGLL,5419.637,N,01346.321,E,122753,A,A*5B
$IIMWV,089,R,09.8,N,A*13
$IIMWV,115,T,10.9,N,A*18
$IIRMC,122754,A,5419.639,N,01346.321,E,04.7,023,070821,04,E,A*04
$IIGLL,5419.639,N,01346.321,E,122754,A,A*52
$IIMWV,088,R,09.7,N,A*1D
$IIMWV,115,T,10.8,N,A*19
$IIRMC,122755,A,5419.640,N,01346.321,E,04.6,021,070821,04,E,A*08
$IIGLL,5419.640,N,01346.321,E,122755,A,A*5D
$IIMWV,088,R,09.5,N,A*1F
$IIMWV,115,T,10.6,N,A*17
$IIRMC,122756,A,5419.642,N,01346.321,E,04.9,021,070821,04,E,A*06
$IIGLL,5419.642,N,01346.321,E,122756,A,A*5C
$IIMWV,092,R,09.3,N,A*12
$IIMWV,115,T,10.4,N,A*15
$IIRMC,122757,A,5419.642,N,01346.323,E,04.9,022,070821,04,E,A*06
$IIGLL,5419.642,N,01346.323,E,122757,A,A*5F
$IIMWV,090,R,09.1,N,A*12
$IIMWV,119,T,10.6,N,A*1B
$IIRMC,122758,A,5419.644,N,01346.324,E,04.8,018,070821,04,E,A*00
$IIGLL,5419.644,N,01346.324,E,122758,A,A*51
$IIMWV,091,R,09.0,N,A*12
$IIMWV,118,T,10.3,N,A*1F
$IIRMC,122758,A,5419.644,N,01346.324,E,04.8,018,070821,04,E,A*00
$IIGLL,5419.644,N,01346.324,E,122758,A,A*51
$IIMWV,092,R,08.7,N,A*17
$IIMWV,119,T,10.2,N,A*1F
$IIRMC,122800,A,5419.646,N,01346.326,E,04.7,019,070821,04,E,A*0C
$IIGLL,5419.646,N,01346.326,E,122800,A,A*53
$IIMWV,094,R,08.5,N,A*13
$IIMWV,119,T,09.9,N,A*1C
$IIRMC,122801,A,5419.648,N,01346.326,E,04.7,021,070821,04,E,A*08
$IIGLL,5419.648,N,01346.326,E,122801,A,A*5C
$IIMWV,093,R,08.5,N,A*14
$IIMWV,122,T,09.9,N,A*14
$IIRMC,122802,A,5419.649,N,01346.326,E,04.6,019,070821,04,E,A*00
$IIGLL,5419.649,N,01346.326,E,122802,A,A*5E
$IIMWV,094,R,08.7,N,A*11
$IIMWV,121,T,09.9,N,A*17
$IIRMC,122803,A,5419.650,N,01346.327,E,04.6,021,070821,04,E,A*03
$IIGLL,5419.650,N,01346.327,E,122803,A,A*56
$IIMWV,093,R,08.7,N,A*16
$IIMWV,121,T,10.1,N,A*17
$IIRMC,122804,A,5419.651,N,01346.327,E,04.7,022,070821,04,E,A*07
$IIGLL,5419.651,N,01346.327,E,122804,A,A*50
$IIMWV,091,R,08.5,N,A*16
$IIMWV,120,T,10.0,N,A*17
$IIRMC,122805,A,5419.653,N,01346.327,E,04.7,020,070821,04,E,A*06
$IIGLL,5419.653,N,01346.327,E,122805,A,A*53
$IIMWV,091,R,08.5,N,A*16
$IIMWV,120,T,09.7,N,A*18
$IIRMC,122806,A,5419.654,N,01346.327,E,04.7,022,070821,04,E,A*00
$IIGLL,5419.654,N,01346.327,E,122806,A,A*57
$IIMWV,089,R,08.5,N,A*1F
$IIMWV,120,T,09.7,N,A*18
$IIRMC,122806,A,5419.654,N,01346.327,E,04.7,022,070821,04,E,A*00
$IIGLL,5419.654,N,01346.327,E,122806,A,A*57
$IIMWV,089,R,08.7,N,A*1D
$IIMWV,119,T,09.6,N,A*13
$IIRMC,122808,A,5419.658,N,01346.327,E,04.7,019,070821,04,E,A*0A
$IIGLL,5419.658,N,01346.327,E,122808,A,A*55
$IIMWV,089,R,08.7,N,A*1D
$IIMWV,119,T,09.8,N,A*1D
$IIRMC,122809,A,5419.659,N,01346.328,E,04.7,019,070821,04,E,A*05
$IIGLL,5419.659,N,01346.328,E,122809,A,A*5A
$IIMWV,090,R,08.8,N,A*1A
$IIMWV,118,T,09.8,N,A*1C
$IIRMC,122810,A,5419.660,N,01346.329,E,04.7,018,070821,04,E,A*07
$IIGLL,5419.660,N,01346.329,E,122810,A,A*59
$IIMWV,090,R,08.8,N,A*1A
$IIMWV,118,T,09.9,N,A*1D
$IIRMC,122811,A,5419.661,N,01346.330,E,04.7,019,070821,04,E,A*0E
$IIGLL,5419.662,N,01346.331,E,122812,A,A*50
$IIMWV,090,R,08.9,N,A*1B
$IIMWV,118,T,10.0,N,A*1C
$IIRMC,122812,A,5419.662,N,01346.331,E,04.7,019,070821,04,E,A*0F
$IIGLL,5419.662,N,01346.331,E,122812,A,A*50
$IIMWV,090,R,09.0,N,A*13
$IIMWV,118,T,10.0,N,A*1C
$IIRMC,122812,A,5419.662,N,01346.331,E,04.7,019,070821,04,E,A*0F
$IIGLL,5419.664,N,01346.333,E,122814,A,A*52
$IIMWV,090,R,09.2,N,A*11
$IIMWV,118,T,10.2,N,A*1E
$IIRMC,122814,A,5419.664,N,01346.333,E,05.0,020,070821,04,E,A*01
$IIGLL,5419.664,N,01346.333,E,122814,A,A*52
$IIMWV,090,R,09.1,N,A*12
$IIMWV,119,T,10.4,N,A*19
$IIRMC,122814,A,5419.664,N,01346.333,E,05.0,020,070821,04,E,A*01
$IIGLL,5419.666,N,01346.334,E,122816,A,A*55
$IIMWV,090,R,09.1,N,A*12
$IIMWV,118,T,10.3,N,A*1F
$IIRMC,122816,A,5419.666,N,01346.334,E,04.8,017,070821,04,E,A*0B
$IIGLL,5419.667,N,01346.334,E,122817,A,A*55
$IIMWV,089,R,09.0,N,A*1B
$IIMWV,118,T,10.2,N,A*1E
$IIRMC,122817,A,5419.667,N,01346.334,E,04.7,015,070821,04,E,A*06
$IIGLL,5419.667,N,01346.334,E,122817,A,A*55
$IIMWV,091,R,08.9,N,A*1A
$IIMWV,117,T,10.1,N,A*12
$IIRMC,122817,A,5419.667,N,01346.334,E,04.7,015,070821,04,E,A*06
$IIGLL,5419.668,N,01346.334,E,122818,A,A*55
$IIMWV,091,R,08.9,N,A*1A
$IIMWV,119,T,10.2,N,A*1F
$IIRMC,122818,A,5419.668,N,01346.334,E,04.9,016,070821,04,E,A*0B
$IIGLL,5419.670,N,01346.336,E,122820,A,A*55
$IIMWV,092,R,08.8,N,A*18
$IIMWV,119,T,10.2,N,A*1F
$IIRMC,122820,A,5419.670,N,01346.336,E,04.9,018,070821,04,E,A*05
$IIGLL,5419.673,N,01346.337,E,122821,A,A*56
$IIMWV,093,R,08.9,N,A*18
$IIMWV,120,T,10.1,N,A*16
$IIRMC,122821,A,5419.673,N,01346.337,E,04.7,014,070821,04,E,A*04
$IIGLL,5419.673,N,01346.337,E,122821,A,A*56
$IIMWV,094,R,09.0,N,A*17
$IIMWV,120,T,10.2,N,A*15
$IIRMC,122821,A,5419.673,N,01346.337,E,04.7,014,070821,04,E,A*04
$IIGLL,5419.674,N,01346.337,E,122822,A,A*52
$IIMWV,094,R,09.0,N,A*17
$IIMWV,121,T,10.4,N,A*12
$IIRMC,122822,A,5419.674,N,01346.337,E,04.7,013,070821,04,E,A*07
$IIGLL,5419.676,N,01346.338,E,122824,A,A*59
$IIMWV,094,R,08.9,N,A*1F
$IIMWV,121,T,10.4,N,A*12
$IIRMC,122824,A,5419.676,N,01346.338,E,04.4,013,070821,04,E,A*0F
$IIGLL,5419.677,N,01346.338,E,122825,A,A*59
$IIMWV,095,R,08.7,N,A*10
$IIMWV,119,T,10.2,N,A*1F
$IIRMC,122825,A,5419.677,N,01346.338,E,04.6,014,070821,04,E,A*0A
$IIGLL,5419.680,N,01346.338,E,122826,A,A*52
$IIMWV,096,R,08.6,N,A*12
$IIMWV,121,T,10.1,N,A*17
$IIRMC,122826,A,5419.680,N,01346.338,E,04.7,015,070821,04,E,A*01
$IIGLL,5419.681,N,01346.339,E,122827,A,A*53
$IIMWV,095,R,08.6,N,A*11
$IIMWV,123,T,10.1,N,A*15
$IIRMC,122827,A,5419.681,N,01346.339,E,04.8,015,070821,04,E,A*0F
$IIGLL,5419.681,N,01346.340,E,122828,A,A*52
$IIMWV,098,R,08.8,N,A*12
$IIMWV,123,T,10.2,N,A*16
$IIRMC,122828,A,5419.681,N,01346.340,E,04.7,015,070821,04,E,A*01
$IIGLL,5419.682,N,01346.342,E,122829,A,A*52
$IIMWV,096,R,08.7,N,A*13
$IIMWV,124,T,10.5,N,A*16
$IIRMC,122829,A,5419.682,N,01346.342,E,04.7,012,070821,04,E,A*06
$IIGLL,5419.684,N,01346.343,E,122830,A,A*5D
$IIMWV,096,R,08.8,N,A*1C
$IIMWV,123,T,10.2,N,A*16
$IIRMC,122830,A,5419.684,N,01346.343,E,04.6,010,070821,04,E,A*0A
$IIGLL,5419.685,N,01346.344,E,122831,A,A*5A
$IIMWV,096,R,09.0,N,A*15
$IIMWV,122,T,10.2,N,A*17
$IIRMC,122831,A,5419.685,N,01346.344,E,04.7,014,070821,04,E,A*08
$IIGLL,5419.686,N,01346.344,E,122832,A,A*5A
$IIMWV,097,R,09.0,N,A*14
$IIMWV,122,T,10.5,N,A*10
$IIRMC,122833,A,5419.688,N,01346.345,E,04.8,011,070821,04,E,A*0C
$IIGLL,5419.688,N,01346.345,E,122833,A,A*54
$IIMWV,095,R,08.7,N,A*10
$IIMWV,124,T,10.7,N,A*14
$IIRMC,122833,A,5419.688,N,01346.345,E,04.8,011,070821,04,E,A*0C
$IIGLL,5419.688,N,01346.345,E,122833,A,A*54
$IIMWV,096,R,08.8,N,A*1C
$IIMWV,122,T,10.2,N,A*17
$IIRMC,122835,A,5419.690,N,01346.346,E,04.6,013,070821,04,E,A*0C
$IIGLL,5419.690,N,01346.346,E,122835,A,A*58
$IIMWV,096,R,08.6,N,A*12
$IIMWV,122,T,10.2,N,A*17
$IIRMC,122836,A,5419.691,N,01346.347,E,04.7,012,070821,04,E,A*0F
$IIGLL,5419.691,N,01346.347,E,122836,A,A*5B
$IIMWV,097,R,08.4,N,A*11
$IIMWV,123,T,10.0,N,A*14
$IIRMC,122837,A,5419.692,N,01346.347,E,04.5,010,070821,04,E,A*0D
$IIGLL,5419.692,N,01346.347,E,122837,A,A*59
$IIMWV,098,R,08.5,N,A*1F
$IIMWV,124,T,10.0,N,A*13
$IIRMC,122838,A,5419.693,N,01346.346,E,04.7,011,070821,04,E,A*01
$IIGLL,5419.693,N,01346.346,E,122838,A,A*56
$IIMWV,099,R,08.8,N,A*13
$IIMWV,124,T,10.0,N,A*13
$IIRMC,122839,A,5419.694,N,01346.344,E,04.6,007,070821,04,E,A*03
$IIGLL,5419.694,N,01346.344,E,122839,A,A*52
$IIMWV,099,R,08.6,N,A*1D
$IIMWV,125,T,10.6,N,A*14
$IIRMC,122840,A,5419.695,N,01346.344,E,04.8,008,070821,04,E,A*0D
$IIGLL,5419.695,N,01346.344,E,122840,A,A*5D
$IIMWV,099,R,08.7,N,A*1C
$IIMWV,125,T,10.3,N,A*11
$IIRMC,122841,A,5419.697,N,01346.344,E,04.8,006,070821,04,E,A*00
$IIGLL,5419.697,N,01346.344,E,122841,A,A*5E
$IIMWV,101,R,08.9,N,A*12
$IIMWV,125,T,10.5,N,A*17
$IIRMC,122842,A,5419.698,N,01346.346,E,04.9,008,070821,04,E,A*01
$IIGLL,5419.698,N,01346.346,E,122842,A,A*50
$IIMWV,102,R,08.6,N,A*1E
$IIMWV,126,T,10.8,N,A*19
$IIRMC,122843,A,5419.699,N,01346.348,E,04.5,004,070821,04,E,A*0F
$IIGLL,5419.699,N,01346.348,E,122843,A,A*5E
$IIMWV,100,R,08.4,N,A*1E
$IIMWV,128,T,10.7,N,A*18
$IIRMC,122844,A,5419.700,N,01346.347,E,04.5,004,070821,04,E,A*06
$IIGLL,5419.700,N,01346.347,E,122844,A,A*57
$IIMWV,101,R,08.8,N,A*13
$IIMWV,126,T,10.1,N,A*10
$IIRMC,122845,A,5419.701,N,01346.347,E,04.3,012,070821,04,E,A*07
$IIGLL,5419.701,N,01346.347,E,122845,A,A*57
$IIMWV,102,R,08.8,N,A*10
$IIMWV,125,T,10.5,N,A*17
$IIRMC,122846,A,5419.702,N,01346.347,E,04.2,014,070821,04,E,A*00
$IIGLL,5419.702,N,01346.347,E,122846,A,A*57
$IIMWV,104,R,08.6,N,A*18
$IIMWV,125,T,10.5,N,A*17
$IIRMC,122847,A,5419.703,N,01346.349,E,04.1,015,070821,04,E,A*0C
$IIGLL,5419.703,N,01346.349,E,122847,A,A*59
$IIMWV,103,R,08.7,N,A*1E
$IIMWV,127,T,10.3,N,A*13
$IIRMC,122848,A,5419.704,N,01346.350,E,04.1,015,070821,04,E,A*0C
$IIGLL,5419.704,N,01346.350,E,122848,A,A*59
$IIMWV,105,R,08.8,N,A*17
$IIMWV,126,T,10.3,N,A*12
$IIRMC,122849,A,5419.704,N,01346.350,E,04.4,007,070821,04,E,A*0B
$IIGLL,5419.704,N,01346.350,E,122849,A,A*58
$IIMWV,104,R,08.8,N,A*16
$IIMWV,127,T,10.5,N,A*15
$IIRMC,122850,A,5419.706,N,01346.350,E,04.6,007,070821,04,E,A*03
$IIGLL,5419.706,N,01346.350,E,122850,A,A*52
$IIMWV,105,R,09.0,N,A*1E
$IIMWV,127,T,10.7,N,A*17
$IIRMC,122851,A,5419.707,N,01346.351,E,04.7,012,070821,04,E,A*07
$IIGLL,5419.707,N,01346.351,E,122851,A,A*53
$IIMWV,104,R,09.0,N,A*1F
$IIMWV,128,T,11.1,N,A*1F
$IIRMC,122852,A,5419.709,N,01346.351,E,04.6,006,070821,04,E,A*0E
$IIGLL,5419.709,N,01346.351,E,122852,A,A*5E
$IIMWV,104,R,08.9,N,A*17
$IIMWV,128,T,11.0,N,A*1E
$IIRMC,122853,A,5419.710,N,01346.352,E,04.6,005,070821,04,E,A*07
$IIGLL,5419.710,N,01346.352,E,122853,A,A*54
$IIMWV,104,R,09.1,N,A*1E
$IIMWV,128,T,10.9,N,A*16
$IIRMC,122854,A,5419.712,N,01346.352,E,04.6,005,070821,04,E,A*02
$IIGLL,5419.712,N,01346.352,E,122854,A,A*51
$IIMWV,102,R,09.1,N,A*18
$IIMWV,127,T,11.0,N,A*11
$IIRMC,122855,A,5419.713,N,01346.352,E,04.5,005,070821,04,E,A*01
$IIGLL,5419.713,N,01346.352,E,122855,A,A*51
$IIMWV,102,R,09.3,N,A*1A
$IIMWV,126,T,11.0,N,A*10
$IIRMC,122856,A,5419.714,N,01346.352,E,04.5,005,070821,04,E,A*05
$IIGLL,5419.714,N,01346.352,E,122856,A,A*55
$IIMWV,100,R,09.2,N,A*19
$IIMWV,125,T,11.1,N,A*12
$IIRMC,122857,A,5419.715,N,01346.353,E,04.7,006,070821,04,E,A*05
$IIGLL,5419.715,N,01346.353,E,122857,A,A*54
$IIMWV,100,R,09.4,N,A*1F
$IIMWV,124,T,10.8,N,A*1B
$IIRMC,122858,A,5419.716,N,01346.353,E,04.7,010,070821,04,E,A*0E
$IIGLL,5419.716,N,01346.353,E,122858,A,A*58
$IIMWV,098,R,09.5,N,A*1E
$IIMWV,124,T,11.0,N,A*12
$IIRMC,122859,A,5419.718,N,01346.352,E,04.7,009,070821,04,E,A*08
$IIGLL,5419.718,N,01346.352,E,122859,A,A*56
$IIMWV,097,R,09.4,N,A*10
$IIMWV,123,T,11.1,N,A*14
$IIRMC,122900,A,5419.720,N,01346.352,E,04.8,011,070821,04,E,A*08
$IIGLL,5419.720,N,01346.352,E,122900,A,A*50
$IIMWV,096,R,09.4,N,A*11
$IIMWV,122,T,10.9,N,A*1C
$IIRMC,122901,A,5419.721,N,01346.354,E,04.7,013,070821,04,E,A*03
$IIGLL,5419.721,N,01346.354,E,122901,A,A*56
$IIMWV,096,R,09.5,N,A*10
$IIMWV,122,T,10.9,N,A*1C
$IIRMC,122902,A,5419.722,N,01346.355,E,04.9,014,070821,04,E,A*0B
$IIGLL,5419.722,N,01346.355,E,122902,A,A*57
$IIMWV,092,R,09.4,N,A*15
$IIMWV,121,T,10.9,N,A*1F
$IIRMC,122903,A,5419.723,N,01346.355,E,04.8,014,070821,04,E,A*0A
$IIGLL,5419.723,N,01346.355,E,122903,A,A*57
$IIMWV,093,R,09.5,N,A*15
$IIMWV,119,T,10.6,N,A*1B
$IIRMC,122904,A,5419.724,N,01346.356,E,04.8,018,070821,04,E,A*05
$IIGLL,5419.724,N,01346.356,E,122904,A,A*54
$IIMWV,092,R,09.7,N,A*16
$IIMWV,119,T,10.8,N,A*15
$IIRMC,122905,A,5419.726,N,01346.356,E,04.6,018,070821,04,E,A*08
$IIGLL,5419.726,N,01346.356,E,122905,A,A*57
$IIMWV,092,R,09.5,N,A*14
$IIMWV,117,T,10.9,N,A*1A
$IIRMC,122906,A,5419.726,N,01346.354,E,04.6,019,070821,04,E,A*08
$IIGLL,5419.726,N,01346.354,E,122906,A,A*56
$IIMWV,089,R,09.5,N,A*1E
$IIMWV,117,T,10.6,N,A*15
$IIRMC,122907,A,5419.727,N,01346.354,E,04.7,017,070821,04,E,A*07
$IIGLL,5419.727,N,01346.354,E,122907,A,A*56
$IIMWV,090,R,09.7,N,A*14
$IIMWV,115,T,10.5,N,A*14
$IIRMC,122908,A,5419.729,N,01346.355,E,04.7,020,070821,04,E,A*03
$IIGLL,5419.729,N,01346.355,E,122908,A,A*56
$IIMWV,089,R,09.7,N,A*1C
$IIMWV,116,T,10.7,N,A*15
$IIRMC,122909,A,5419.730,N,01346.356,E,04.8,020,070821,04,E,A*06
$IIGLL,5419.730,N,01346.356,E,122909,A,A*5C
$IIMWV,090,R,09.7,N,A*14
$IIMWV,115,T,10.7,N,A*16
$IIRMC,122909,A,5419.730,N,01346.356,E,04.8,020,070821,04,E,A*06
$IIGLL,5419.730,N,01346.356,E,122909,A,A*5C
$IIMWV,089,R,10.0,N,A*13
$IIMWV,116,T,10.8,N,A*1A
$IIRMC,122911,A,5419.734,N,01346.356,E,04.7,020,070821,04,E,A*04
$IIGLL,5419.734,N,01346.356,E,122911,A,A*51
$IIMWV,089,R,09.8,N,A*13
$IIMWV,114,T,10.9,N,A*19
$IIRMC,122912,A,5419.736,N,01346.357,E,04.7,021,070821,04,E,A*05
$IIGLL,5419.736,N,01346.357,E,122912,A,A*51
$IIMWV,090,R,09.7,N,A*14
$IIMWV,115,T,10.8,N,A*19
$IIRMC,122913,A,5419.737,N,01346.357,E,04.8,021,070821,04,E,A*0A
$IIGLL,5419.737,N,01346.357,E,122913,A,A*51
$IIMWV,089,R,09.5,N,A*1E
$IIMWV,116,T,10.7,N,A*15
$IIRMC,122914,A,5419.739,N,01346.359,E,04.9,021,070821,04,E,A*0C
$IIGLL,5419.739,N,01346.359,E,122914,A,A*56
$IIMWV,089,R,09.7,N,A*1C
$IIMWV,116,T,10.5,N,A*17
$IIRMC,122914,A,5419.739,N,01346.359,E,04.9,021,070821,04,E,A*0C
$IIGLL,5419.739,N,01346.359,E,122914,A,A*56
$IIMWV,089,R,09.5,N,A*1E
$IIMWV,116,T,10.8,N,A*1A
$IIRMC,122916,A,5419.741,N,01346.361,E,04.7,022,070821,04,E,A*07
$IIGLL,5419.741,N,01346.361,E,122916,A,A*50
$IIMWV,089,R,09.6,N,A*1D
$IIMWV,117,T,10.6,N,A*15
$IIRMC,122917,A,5419.742,N,01346.362,E,04.8,025,070821,04,E,A*0E
$IIGLL,5419.742,N,01346.362,E,122917,A,A*51
$IIMWV,089,R,09.8,N,A*13
$IIMWV,116,T,10.6,N,A*14
$IIRMC,122918,A,5419.744,N,01346.362,E,04.8,026,070821,04,E,A*04
$IIGLL,5419.744,N,01346.362,E,122918,A,A*58
$IIMWV,087,R,09.8,N,A*1D
$IIMWV,116,T,10.8,N,A*1A
$IIRMC,122919,A,5419.744,N,01346.362,E,04.9,024,070821,04,E,A*06
$IIGLL,5419.744,N,01346.362,E,122919,A,A*59
$IIMWV,087,R,09.7,N,A*12
$IIMWV,114,T,10.7,N,A*17
$IIRMC,122920,A,5419.746,N,01346.363,E,04.5,024,070821,04,E,A*03
$IIGLL,5419.746,N,01346.363,E,122920,A,A*50
$IIMWV,086,R,09.9,N,A*1D
$IIMWV,115,T,10.6,N,A*17
$IIRMC,122921,A,5419.748,N,01346.364,E,04.8,026,070821,04,E,A*04
$IIGLL,5419.748,N,01346.364,E,122921,A,A*58
$IIMWV,086,R,09.8,N,A*1C
$IIMWV,111,T,10.6,N,A*13
$IIRMC,122922,A,5419.748,N,01346.364,E,04.8,026,070821,04,E,A*07
$IIGLL,5419.748,N,01346.364,E,122922,A,A*5B
$IIMWV,087,R,09.7,N,A*12
$IIMWV,113,T,10.6,N,A*11
$IIRMC,122923,A,5419.749,N,01346.364,E,04.9,028,070821,04,E,A*08
$IIGLL,5419.749,N,01346.364,E,122923,A,A*5B
$IIMWV,086,R,09.7,N,A*13
$IIMWV,115,T,10.6,N,A*17
$IIRMC,122924,A,5419.750,N,01346.364,E,04.9,027,070821,04,E,A*08
$IIGLL,5419.750,N,01346.364,E,122924,A,A*54
$IIMWV,084,R,09.8,N,A*1E
$IIMWV,114,T,10.6,N,A*16
$IIRMC,122925,A,5419.750,N,01346.366,E,04.6,028,070821,04,E,A*0B
$IIGLL,5419.750,N,01346.366,E,122925,A,A*57
$IIMWV,085,R,09.9,N,A*1E
$IIMWV,112,T,10.4,N,A*12
$IIRMC,122926,A,5419.751,N,01346.369,E,04.8,028,070821,04,E,A*08
$IIGLL,5419.751,N,01346.369,E,122926,A,A*5A
$IIMWV,083,R,10.0,N,A*19
$IIMWV,111,T,10.6,N,A*13
$IIRMC,122927,A,5419.753,N,01346.370,E,04.8,029,070821,04,E,A*02
$IIGLL,5419.753,N,01346.370,E,122927,A,A*51
$IIMWV,084,R,10.1,N,A*1F
$IIMWV,110,T,10.5,N,A*11
$IIRMC,122928,A,5419.753,N,01346.371,E,04.7,029,070821,04,E,A*03
$IIGLL,5419.753,N,01346.371,E,122928,A,A*5F
$IIMWV,082,R,10.2,N,A*1A
$IIMWV,111,T,10.6,N,A*13
$IIRMC,122929,A,5419.755,N,01346.372,E,04.7,030,070821,04,E,A*0F
$IIGLL,5419.755,N,01346.372,E,122929,A,A*5B
$IIMWV,083,R,10.3,N,A*1A
$IIMWV,108,T,10.5,N,A*18
$IIRMC,122930,A,5419.756,N,01346.374,E,04.7,031,070821,04,E,A*03
$IIGLL,5419.756,N,01346.374,E,122930,A,A*56
$IIMWV,082,R,10.4,N,A*1C
$IIMWV,109,T,10.6,N,A*1A
$IIRMC,122931,A,5419.757,N,01346.375,E,04.8,032,070821,04,E,A*0E
$IIGLL,5419.757,N,01346.375,E,122931,A,A*57
$IIMWV,083,R,10.3,N,A*1A
$IIMWV,108,T,10.7,N,A*1A
$IIRMC,122932,A,5419.758,N,01346.377,E,04.9,031,070821,04,E,A*02
$IIGLL,5419.758,N,01346.377,E,122932,A,A*59
$IIMWV,083,R,10.4,N,A*1D
$IIMWV,110,T,10.7,N,A*13
$IIRMC,122933,A,5419.759,N,01346.378,E,04.9,030,070821,04,E,A*0C
$IIGLL,5419.759,N,01346.378,E,122933,A,A*56
$IIMWV,086,R,10.4,N,A*18
$IIMWV,110,T,10.8,N,A*1C
$IIRMC,122934,A,5419.761,N,01346.380,E,04.9,025,070821,04,E,A*03
$IIGLL,5419.761,N,01346.380,E,122934,A,A*5D
$IIMWV,085,R,10.3,N,A*1C
$IIMWV,112,T,11.2,N,A*15
$IIRMC,122935,A,5419.762,N,01346.382,E,04.9,021,070821,04,E,A*07
$IIGLL,5419.762,N,01346.382,E,122935,A,A*5D
$IIMWV,087,R,10.3,N,A*1E
$IIMWV,111,T,11.0,N,A*14
$IIRMC,122936,A,5419.763,N,01346.382,E,04.9,022,070821,04,E,A*06
$IIGLL,5419.763,N,01346.382,E,122936,A,A*5F
$IIMWV,089,R,10.2,N,A*11
$IIMWV,113,T,11.2,N,A*14
$IIRMC,122937,A,5419.764,N,01346.383,E,05.0,020,070821,04,E,A*0B
$IIGLL,5419.764,N,01346.383,E,122937,A,A*58
$IIMWV,090,R,10.0,N,A*1B
$IIMWV,115,T,11.2,N,A*12
$IIRMC,122938,A,5419.765,N,01346.384,E,05.0,020,070821,04,E,A*02
$IIGLL,5419.765,N,01346.384,E,122938,A,A*51
$IIMWV,092,R,09.7,N,A*16
$IIMWV,117,T,11.1,N,A*13
$IIRMC,122939,A,5419.767,N,01346.386,E,04.9,016,070821,04,E,A*0E
$IIGLL,5419.767,N,01346.386,E,122939,A,A*50
$IIMWV,094,R,09.6,N,A*11
$IIMWV,118,T,11.0,N,A*1D
$IIRMC,122940,A,5419.768,N,01346.388,E,05.0,015,070821,04,E,A*0A
$IIGLL,5419.768,N,01346.388,E,122940,A,A*5F
$IIMWV,094,R,09.6,N,A*11
$IIMWV,120,T,11.0,N,A*16
$IIRMC,122941,A,5419.769,N,01346.388,E,05.0,015,070821,04,E,A*0A
$IIGLL,5419.769,N,01346.388,E,122941,A,A*5F
$IIMWV,096,R,09.4,N,A*11
$IIMWV,120,T,11.1,N,A*17
$IIRMC,122942,A,5419.771,N,01346.389,E,04.9,014,070821,04,E,A*08
$IIGLL,5419.771,N,01346.389,E,122942,A,A*54
$IIMWV,096,R,09.3,N,A*16
$IIMWV,123,T,11.0,N,A*15
$IIRMC,122943,A,5419.772,N,01346.389,E,04.9,014,070821,04,E,A*0A
$IIGLL,5419.776,N,01346.389,E,122945,A,A*54
$IIMWV,097,R,09.2,N,A*16
$IIMWV,122,T,10.8,N,A*1D
$IIRMC,122945,A,5419.776,N,01346.389,E,04.9,013,070821,04,E,A*0F
$IIGLL,5419.776,N,01346.389,E,122946,A,A*57
$IIMWV,098,R,08.8,N,A*12
$IIMWV,123,T,10.9,N,A*1D
$IIRMC,122946,A,5419.776,N,01346.389,E,04.9,012,070821,04,E,A*0D
$IIGLL,5419.778,N,01346.389,E,122947,A,A*58
$IIMWV,098,R,08.9,N,A*13
$IIMWV,125,T,10.6,N,A*14
$IIRMC,122947,A,5419.778,N,01346.389,E,04.9,009,070821,04,E,A*08
$IIGLL,5419.778,N,01346.389,E,122948,A,A*57
$IIMWV,098,R,09.3,N,A*18
$IIMWV,125,T,10.7,N,A*15
$IIRMC,122948,A,5419.778,N,01346.389,E,04.9,011,070821,04,E,A*0E
$IIGLL,5419.780,N,01346.390,E,122949,A,A*59
$IIMWV,099,R,08.9,N,A*12
$IIMWV,124,T,11.0,N,A*12
$IIRMC,122949,A,5419.780,N,01346.390,E,04.9,013,070821,04,E,A*02
$IIGLL,5419.780,N,01346.390,E,122950,A,A*51
$IIMWV,100,R,08.9,N,A*13
$IIMWV,126,T,10.8,N,A*19
$IIRMC,122950,A,5419.780,N,01346.390,E,05.1,012,070821,04,E,A*02
$IIGLL,5419.783,N,01346.392,E,122951,A,A*51
$IIMWV,101,R,08.9,N,A*12
$IIMWV,127,T,10.9,N,A*19
$IIRMC,122951,A,5419.783,N,01346.392,E,05.0,011,070821,04,E,A*00
$IIGLL,5419.784,N,01346.392,E,122952,A,A*55
$IIMWV,102,R,09.1,N,A*18
$IIMWV,127,T,10.9,N,A*19
$IIRMC,122952,A,5419.784,N,01346.392,E,04.9,010,070821,04,E,A*0D
$IIGLL,5419.785,N,01346.392,E,122953,A,A*55
$IIMWV,102,R,09.2,N,A*1B
$IIMWV,127,T,11.2,N,A*13
$IIRMC,122953,A,5419.785,N,01346.392,E,04.9,011,070821,04,E,A*0C
$IIGLL,5419.787,N,01346.393,E,122954,A,A*51
$IIMWV,102,R,09.1,N,A*18
$IIMWV,127,T,11.2,N,A*13
$IIRMC,122954,A,5419.787,N,01346.393,E,05.0,010,070821,04,E,A*01
$IIGLL,5419.787,N,01346.391,E,122955,A,A*52
$IIMWV,102,R,09.2,N,A*1B
$IIMWV,128,T,11.2,N,A*1C
$IIRMC,122955,A,5419.787,N,01346.391,E,05.0,012,070821,04,E,A*00
$IIGLL,5419.787,N,01346.391,E,122955,A,A*52
$IIMWV,102,R,09.4,N,A*1D
$IIMWV,127,T,11.3,N,A*12
$IIRMC,122955,A,5419.787,N,01346.391,E,05.0,012,070821,04,E,A*00
$IIGLL,5419.790,N,01346.392,E,122956,A,A*54
$IIMWV,104,R,09.3,N,A*1C
$IIMWV,127,T,11.5,N,A*14
$IIRMC,122956,A,5419.790,N,01346.392,E,05.0,013,070821,04,E,A*07
$IIGLL,5419.793,N,01346.394,E,122958,A,A*5F
$IIMWV,103,R,09.3,N,A*1B
$IIMWV,129,T,11.5,N,A*1A
$IIRMC,122958,A,5419.793,N,01346.394,E,05.0,012,070821,04,E,A*0D
$IIGLL,5419.792,N,01346.395,E,122959,A,A*5E
$IIMWV,102,R,09.5,N,A*1C
$IIMWV,128,T,11.4,N,A*1A
$IIRMC,122959,A,5419.792,N,01346.395,E,04.9,009,070821,04,E,A*0E
$IIGLL,5419.793,N,01346.396,E,123000,A,A*58
$IIMWV,104,R,09.5,N,A*1A
$IIMWV,126,T,11.5,N,A*15
$IIRMC,123000,A,5419.793,N,01346.396,E,05.1,010,070821,04,E,A*09
$IIGLL,5419.794,N,01346.398,E,123001,A,A*50
$IIMWV,103,R,09.1,N,A*19
$IIMWV,128,T,11.7,N,A*19
$IIRMC,123001,A,5419.794,N,01346.398,E,05.1,015,070821,04,E,A*04
$IIGLL,5419.795,N,01346.398,E,123002,A,A*52
$IIMWV,101,R,09.2,N,A*18
$IIMWV,129,T,11.3,N,A*1C
$IIRMC,123002,A,5419.795,N,01346.398,E,05.1,013,070821,04,E,A*00
$IIGLL,5419.796,N,01346.400,E,123003,A,A*56
$IIMWV,100,R,09.6,N,A*1D
$IIMWV,127,T,11.2,N,A*13
$IIRMC,123003,A,5419.796,N,01346.400,E,04.8,015,070821,04,E,A*0A
$IIGLL,5419.798,N,01346.400,E,123004,A,A*5F
$IIMWV,100,R,09.6,N,A*1D
$IIMWV,124,T,11.3,N,A*11
$IIRMC,123004,A,5419.798,N,01346.400,E,04.9,017,070821,04,E,A*00
$IIGLL,5419.800,N,01346.401,E,123005,A,A*51
$IIMWV,098,R,09.4,N,A*1F
$IIMWV,125,T,11.4,N,A*17
$IIRMC,123005,A,5419.800,N,01346.401,E,04.9,018,070821,04,E,A*01
$IIGLL,5419.800,N,01346.402,E,123006,A,A*51
$IIMWV,098,R,09.3,N,A*18
$IIMWV,124,T,11.1,N,A*13
$IIRMC,123006,A,5419.800,N,01346.402,E,04.8,019,070821,04,E,A*01
$IIGLL,5419.802,N,01346.403,E,123007,A,A*53
$IIMWV,096,R,09.1,N,A*14
$IIMWV,123,T,11.0,N,A*15
$IIRMC,123007,A,5419.802,N,01346.403,E,04.9,019,070821,04,E,A*02
$IIGLL,5419.804,N,01346.403,E,123008,A,A*5A
$IIMWV,096,R,09.0,N,A*15
$IIMWV,123,T,10.7,N,A*13
$IIRMC,123008,A,5419.804,N,01346.403,E,04.9,020,070821,04,E,A*01
$IIGLL,5419.805,N,01346.404,E,123009,A,A*5D
$IIMWV,092,R,09.1,N,A*10
$IIMWV,123,T,10.6,N,A*12
$IIRMC,123009,A,5419.805,N,01346.404,E,04.9,020,070821,04,E,A*06
$IIGLL,5419.806,N,01346.405,E,123010,A,A*57
$IIMWV,094,R,09.0,N,A*17
$IIMWV,119,T,10.4,N,A*19
$IIRMC,123010,A,5419.806,N,01346.405,E,04.9,019,070821,04,E,A*06
$IIGLL,5419.808,N,01346.406,E,123011,A,A*5B
$IIMWV,090,R,08.9,N,A*1B
$IIMWV,122,T,10.5,N,A*10
$IIRMC,123011,A,5419.808,N,01346.406,E,04.8,023,070821,04,E,A*02
$IIGLL,5419.809,N,01346.407,E,123012,A,A*58
$IIMWV,092,R,08.6,N,A*16
$IIMWV,118,T,10.1,N,A*1D
$IIRMC,123012,A,5419.809,N,01346.407,E,04.7,024,070821,04,E,A*09
$IIGLL,5419.810,N,01346.407,E,123013,A,A*51
$IIMWV,092,R,08.7,N,A*17
$IIMWV,120,T,09.8,N,A*17
$IIRMC,123013,A,5419.810,N,01346.407,E,04.5,019,070821,04,E,A*0C
$IIGLL,5419.812,N,01346.407,E,123014,A,A*54
$IIMWV,093,R,08.7,N,A*16
$IIMWV,119,T,09.8,N,A*1D
$IIRMC,123014,A,5419.812,N,01346.407,E,04.8,021,070821,04,E,A*0F
$IIGLL,5419.813,N,01346.408,E,123015,A,A*5B
$IIMWV,091,R,08.5,N,A*16
$IIMWV,121,T,10.1,N,A*17
$IIRMC,123015,A,5419.813,N,01346.408,E,04.9,021,070821,04,E,A*01
$IIGLL,5419.813,N,01346.409,E,123016,A,A*59
$IIMWV,093,R,08.7,N,A*16
$IIMWV,121,T,09.8,N,A*16
$IIRMC,123016,A,5419.813,N,01346.409,E,04.8,017,070821,04,E,A*07
$IIGLL,5419.814,N,01346.411,E,123017,A,A*56
$IIMWV,096,R,08.7,N,A*13
$IIMWV,121,T,10.1,N,A*17
$IIRMC,123017,A,5419.814,N,01346.411,E,04.8,018,070821,04,E,A*07
$IIGLL,5419.816,N,01346.413,E,123018,A,A*59
$IIMWV,098,R,08.8,N,A*12
$IIMWV,123,T,10.2,N,A*16
$IIRMC,123018,A,5419.816,N,01346.413,E,04.9,014,070821,04,E,A*05
$IIGLL,5419.817,N,01346.413,E,123019,A,A*59
$IIMWV,099,R,09.2,N,A*18
$IIMWV,125,T,10.6,N,A*14
$IIRMC,123019,A,5419.817,N,01346.413,E,04.7,013,070821,04,E,A*0C
$IIGLL,5419.818,N,01346.414,E,123020,A,A*5B
$IIMWV,100,R,09.1,N,A*1A
$IIMWV,124,T,10.9,N,A*1A
$IIRMC,123020,A,5419.818,N,01346.414,E,04.8,012,070821,04,E,A*00
$IIGLL,5419.820,N,01346.414,E,123021,A,A*51
$IIMWV,099,R,09.2,N,A*18
$IIMWV,125,T,10.9,N,A*1B
$IIRMC,123021,A,5419.820,N,01346.414,E,04.8,011,070821,04,E,A*09
$IIGLL,5419.822,N,01346.414,E,123022,A,A*50
$IIMWV,100,R,09.3,N,A*18
$IIMWV,124,T,11.0,N,A*12
$IIRMC,123022,A,5419.822,N,01346.414,E,05.0,013,070821,04,E,A*03
$IIGLL,5419.824,N,01346.414,E,123023,A,A*57
$IIMWV,100,R,09.3,N,A*18
$IIMWV,126,T,11.1,N,A*11
$IIRMC,123023,A,5419.824,N,01346.414,E,04.7,011,070821,04,E,A*00
$IIGLL,5419.826,N,01346.415,E,123024,A,A*53
$IIMWV,100,R,09.3,N,A*18
$IIMWV,124,T,11.0,N,A*12
$IIRMC,123024,A,5419.826,N,01346.415,E,04.7,011,070821,04,E,A*04
$IIGLL,5419.827,N,01346.415,E,123025,A,A*53
$IIMWV,100,R,09.4,N,A*1F
$IIMWV,124,T,11.0,N,A*12
$IIRMC,123025,A,5419.827,N,01346.415,E,04.8,010,070821,04,E,A*0A
$IIGLL,5419.828,N,01346.416,E,123026,A,A*5C
$IIMWV,101,R,09.4,N,A*1E
$IIMWV,124,T,11.1,N,A*13
$IIRMC,123026,A,5419.828,N,01346.416,E,04.7,012,070821,04,E,A*08
$IIGLL,5419.830,N,01346.416,E,123027,A,A*54
$IIMWV,101,R,09.5,N,A*1F
$IIMWV,125,T,11.2,N,A*11
$IIRMC,123027,A,5419.830,N,01346.416,E,04.8,012,070821,04,E,A*0F
$IIGLL,5419.832,N,01346.416,E,123028,A,A*59
$IIMWV,101,R,09.4,N,A*1E
$IIMWV,125,T,11.4,N,A*17
$IIRMC,123028,A,5419.832,N,01346.416,E,04.7,012,070821,04,E,A*0D
$IIGLL,5419.832,N,01346.417,E,123029,A,A*59
$IIMWV,101,R,09.6,N,A*1C
$IIMWV,125,T,11.2,N,A*11
$IIRMC,123029,A,5419.832,N,01346.417,E,04.8,013,070821,04,E,A*03
$IIGLL,5419.834,N,01346.417,E,123030,A,A*57
$IIMWV,101,R,09.6,N,A*1C
$IIMWV,125,T,11.4,N,A*17
$IIRMC,123030,A,5419.834,N,01346.417,E,04.8,015,070821,04,E,A*0B
$IIGLL,5419.835,N,01346.418,E,123031,A,A*58
$IIMWV,100,R,09.6,N,A*1D
$IIMWV,125,T,11.4,N,A*17
$IIRMC,123031,A,5419.835,N,01346.418,E,04.8,012,070821,04,E,A*03
$IIGLL,5419.837,N,01346.418,E,123032,A,A*59
$IIMWV,102,R,09.6,N,A*1F
$IIMWV,124,T,11.3,N,A*11
$IIRMC,123032,A,5419.837,N,01346.418,E,05.0,013,070821,04,E,A*0A
$IIGLL,5419.838,N,01346.419,E,123033,A,A*56
$IIMWV,101,R,09.6,N,A*1C
$IIMWV,127,T,11.7,N,A*16
$IIRMC,123033,A,5419.838,N,01346.419,E,05.0,014,070821,04,E,A*02
$IIGLL,5419.840,N,01346.419,E,123034,A,A*5E
$IIMWV,101,R,09.4,N,A*1E
$IIMWV,126,T,11.6,N,A*16
$IIRMC,123034,A,5419.840,N,01346.419,E,04.9,013,070821,04,E,A*05
$IIGLL,5419.841,N,01346.420,E,123035,A,A*54
$IIMWV,100,R,09.6,N,A*1D
$IIMWV,126,T,11.3,N,A*13
$IIRMC,123036,A,5419.842,N,01346.420,E,04.8,012,070821,04,E,A*0F
$IIGLL,5419.842,N,01346.420,E,123036,A,A*54
$IIMWV,101,R,09.7,N,A*1D
$IIMWV,124,T,11.3,N,A*11
$IIRMC,123037,A,5419.843,N,01346.421,E,04.9,014,070821,04,E,A*09
$IIGLL,5419.843,N,01346.421,E,123037,A,A*55
$IIMWV,101,R,09.5,N,A*1F
$IIMWV,125,T,11.5,N,A*16
$IIRMC,123038,A,5419.846,N,01346.421,E,04.9,014,070821,04,E,A*03
$IIGLL,5419.846,N,01346.421,E,123038,A,A*5F
$IIMWV,101,R,09.5,N,A*1F
$IIMWV,126,T,11.4,N,A*14
$IIRMC,123039,A,5419.847,N,01346.421,E,04.8,015,070821,04,E,A*03
$IIGLL,5419.847,N,01346.421,E,123039,A,A*5F
$IIMWV,098,R,09.5,N,A*1E
$IIMWV,126,T,11.4,N,A*14
$IIRMC,123039,A,5419.847,N,01346.421,E,04.8,015,070821,04,E,A*03
$IIGLL,5419.847,N,01346.421,E,123039,A,A*5F
$IIMWV,099,R,09.3,N,A*19
$IIMWV,123,T,11.2,N,A*17
$IIRMC,123041,A,5419.849,N,01346.423,E,04.7,017,070821,04,E,A*0D
$IIGLL,5419.849,N,01346.423,E,123041,A,A*5C
$IIMWV,098,R,09.1,N,A*1A
$IIMWV,123,T,11.0,N,A*15
$IIRMC,123042,A,5419.850,N,01346.424,E,04.8,017,070821,04,E,A*0E
$IIGLL,5419.850,N,01346.424,E,123042,A,A*50
$IIMWV,098,R,09.2,N,A*19
$IIMWV,123,T,10.7,N,A*13
$IIRMC,123043,A,5419.851,N,01346.425,E,04.8,020,070821,04,E,A*0B
$IIGLL,5419.851,N,01346.425,E,123043,A,A*51
$IIMWV,099,R,08.8,N,A*13
$IIMWV,123,T,10.9,N,A*1D
$IIRMC,123044,A,5419.852,N,01346.426,E,04.8,018,070821,04,E,A*07
$IIGLL,5419.852,N,01346.426,E,123044,A,A*56
$IIMWV,099,R,08.8,N,A*13
$IIMWV,126,T,10.6,N,A*17
$IIRMC,123044,A,5419.852,N,01346.426,E,04.8,018,070821,04,E,A*07
$IIGLL,5419.852,N,01346.426,E,123044,A,A*56
$IIMWV,099,R,09.1,N,A*1B
$IIMWV,126,T,10.6,N,A*17
$IIRMC,123046,A,5419.854,N,01346.427,E,04.7,017,070821,04,E,A*02
$IIGLL,5419.854,N,01346.427,E,123046,A,A*53
$IIMWV,101,R,09.2,N,A*18
$IIMWV,124,T,10.8,N,A*1B
$IIRMC,123047,A,5419.855,N,01346.427,E,04.8,017,070821,04,E,A*0D
$IIGLL,5419.855,N,01346.427,E,123047,A,A*53
$IIMWV,100,R,09.3,N,A*18
$IIMWV,125,T,11.0,N,A*13
