$GPRMC,120201.000,A,5405.5750,N,01207.4087,E,2.85,285.55,240521,,,A*62
$GPVTG,285.55,T,,M,2.85,N,5.3,K,A*0B
$GPGGA,120201.000,5405.5750,N,01207.4087,E,1,09,0.9,-4.3,M,41.9,M,,0000*76
$GPGSV,3,1,11,05,23,045,35,07,00,345,,16,52,294,33,18,74,139,33*73
$GPGSV,3,2,11,20,34,067,28,23,18,147,29,25,00,141,,26,69,242,37*7F
$GPGSV,3,3,11,27,20,272,17,29,36,085,32,31,15,212,28*40
$GPGLL,5405.5750,N,01207.4087,E,120201.000,A,A*55
$GPRMC,120202.000,A,5405.5753,N,01207.4075,E,2.95,287.44,240521,,,A*6C
$GPVTG,287.44,T,,M,2.95,N,5.5,K,A*0E
$GPGGA,120202.000,5405.5753,N,01207.4075,E,1,09,0.9,-4.1,M,41.9,M,,0000*79
$GPGSV,3,1,11,05,23,045,34,07,00,345,,16,52,294,31,18,74,139,28*7A
$GPGSV,3,2,11,20,34,067,33,23,18,147,29,25,00,141,,26,69,242,35*77
$GPGSV,3,3,11,27,20,272,16,29,36,085,35,31,15,212,25*4B
$GPGLL,5405.5753,N,01207.4075,E,120202.000,A,A*58
$GPRMC,120203.000,A,5405.5755,N,01207.4062,E,2.82,287.12,240521,,,A*68
$GPVTG,287.12,T,,M,2.82,N,5.2,K,A*0C
$GPGGA,120203.000,5405.5755,N,01207.4062,E,1,09,0.9,-4.0,M,41.9,M,,0000*79
$GPGSV,3,1,11,05,23,045,30,07,00,345,,16,52,294,32,18,74,139,33*77
$GPGSV,3,2,11,20,34,067,32,23,18,147,28,25,00,141,,26,69,242,36*74
$GPGSV,3,3,11,27,20,272,17,29,36,085,34,31,15,212,25*4B
$GPGLL,5405.5755,N,01207.4062,E,120203.000,A,A*59
$GPRMC,120204.000,A,5405.5758,N,01207.4050,E,2.87,286.83,240521,,,A*6F
$GPVTG,286.83,T,,M,2.87,N,5.3,K,A*01
$GPGGA,120204.000,5405.5758,N,01207.4050,E,1,09,0.9,-3.9,M,41.9,M,,0000*7C
$GPGSV,3,1,11,05,23,045,29,07,00,345,,16,52,294,33,18,74,139,36*7B
$GPGSV,3,2,11,20,34,067,28,23,18,147,17,25,00,141,,26,69,242,29*7D
$GPGSV,3,3,11,27,20,272,18,29,36,085,35,31,15,212,27*47
$GPGLL,5405.5758,N,01207.4050,E,120204.000,A,A*52
$GPRMC,120205.000,A,5405.5760,N,01207.4036,E,2.97,285.31,240521,,,A*6E
$GPVTG,285.31,T,,M,2.97,N,5.5,K,A*0C
$GPGGA,120205.000,5405.5760,N,01207.4036,E,1,09,0.9,-4.0,M,41.9,M,,0000*78
$GPGSV,3,1,11,05,23,045,30,07,00,345,,16,52,294,33,18,74,139,35*70
$GPGSV,3,2,11,20,34,067,29,23,18,147,20,25,00,141,,26,69,242,29*78
$GPGSV,3,3,11,27,20,272,23,29,36,085,30,31,15,212,33*4F
$GPGLL,5405.5760,N,01207.4036,E,120205.000,A,A*58
$GPRMC,120206.000,A,5405.5762,N,01207.4022,E,2.99,285.48,240521,,,A*6A
$GPVTG,285.48,T,,M,2.99,N,5.5,K,A*0C
$GPGGA,120206.000,5405.5762,N,01207.4022,E,1,09,0.9,-4.0,M,41.9,M,,0000*7C
$GPGSV,3,1,11,05,23,045,35,07,00,345,,16,52,294,34,18,74,139,33*74
$GPGSV,3,2,11,20,34,067,31,23,18,147,24,25,00,141,,26,69,242,36*7B
$GPGSV,3,3,11,27,20,272,24,29,36,085,29,31,15,212,34*47
$GPGLL,5405.5762,N,01207.4022,E,120206.000,A,A*5C
$GPRMC,120207.000,A,5405.5765,N,01207.4009,E,3.02,286.28,240521,,,A*63
$GPVTG,286.28,T,,M,3.02,N,5.6,K,A*09
$GPGGA,120207.000,5405.5765,N,01207.4009,E,1,09,0.9,-4.0,M,41.9,M,,0000*73
$GPGSV,3,1,11,05,23,045,30,07,00,345,,16,52,294,33,18,74,139,32*77
$GPGSV,3,2,11,20,34,067,31,23,18,147,31,25,00,141,,26,69,242,36*7F
$GPGSV,3,3,11,27,20,272,25,29,36,085,32,31,15,212,33*4B
$GPGLL,5405.5765,N,01207.4009,E,120207.000,A,A*53
$GPRMC,120208.000,A,5405.5768,N,01207.3996,E,2.97,290.85,240521,,,A*64
$GPVTG,290.85,T,,M,2.97,N,5.5,K,A*07
$GPGGA,120208.000,5405.5768,N,01207.3996,E,1,09,0.9,-3.8,M,41.9,M,,0000*76
$GPGSV,3,1,11,05,23,045,37,07,00,345,,16,52,294,27,18,74,139,35*72
$GPGSV,3,2,11,20,34,067,33,23,18,147,30,25,00,141,,26,69,242,38*72
$GPGSV,3,3,11,27,20,272,26,29,36,085,25,31,15,212,27*4B
$GPGLL,5405.5768,N,01207.3996,E,120208.000,A,A*59
$GPRMC,120209.000,A,5405.5772,N,01207.3984,E,3.07,295.36,240521,,,A*68
$GPVTG,295.36,T,,M,3.07,N,5.7,K,A*00
$GPGGA,120209.000,5405.5772,N,01207.3984,E,1,09,0.9,-3.8,M,41.9,M,,0000*7F
$GPGSV,3,1,11,05,23,045,38,07,00,345,,16,52,294,23,18,74,139,31*7D
$GPGSV,3,2,11,20,34,067,34,23,18,147,29,25,00,141,,26,69,242,37*72
$GPGSV,3,3,11,27,20,272,28,29,36,085,22,31,15,212,32*46
$GPGLL,5405.5772,N,01207.3984,E,120209.000,A,A*50
$GPRMC,120210.000,A,5405.5776,N,01207.3972,E,2.94,297.16,240521,,,A*66
$GPVTG,297.16,T,,M,2.94,N,5.4,K,A*08
$GPGGA,120210.000,5405.5776,N,01207.3972,E,1,09,0.9,-3.9,M,41.9,M,,0000*7B
$GPGSV,3,1,11,05,23,045,36,07,01,344,,16,52,294,30,18,74,139,35*75
$GPGSV,3,2,11,20,34,067,37,23,18,147,29,25,00,141,,26,69,242,36*70
$GPGSV,3,3,11,27,20,272,29,29,36,085,29,31,15,212,31*4F
$GPGLL,5405.5776,N,01207.3972,E,120210.000,A,A*55
$GPRMC,120211.000,A,5405.5780,N,01207.3960,E,2.92,298.07,240521,,,A*64
$GPVTG,298.07,T,,M,2.92,N,5.4,K,A*01
$GPGGA,120211.000,5405.5780,N,01207.3960,E,1,09,0.9,-4.1,M,41.9,M,,0000*7F
$GPGSV,3,1,11,05,23,045,30,07,01,344,,16,52,294,21,18,74,139,36*70
$GPGSV,3,2,11,20,34,067,37,23,18,147,29,25,00,141,,26,69,242,39*7F
$GPGSV,3,3,11,27,20,272,28,29,36,085,30,31,15,212,31*46
$GPGLL,5405.5780,N,01207.3960,E,120211.000,A,A*5E
$GPRMC,120212.000,A,5405.5784,N,01207.3947,E,2.85,299.83,240521,,,A*6D
$GPVTG,299.83,T,,M,2.85,N,5.3,K,A*0D
$GPGGA,120212.000,5405.5784,N,01207.3947,E,1,09,0.9,-4.5,M,41.9,M,,0000*79
$GPGSV,3,1,11,05,23,045,22,07,01,344,,16,52,294,19,18,74,139,38*76
$GPGSV,3,2,11,20,34,067,32,23,18,147,28,25,00,141,,26,69,242,35*77
$GPGSV,3,3,11,27,20,272,19,29,36,085,24,31,15,212,32*42
$GPGLL,5405.5784,N,01207.3947,E,120212.000,A,A*5C
$GPRMC,120213.000,A,5405.5788,N,01207.3935,E,2.87,302.38,240521,,,A*64
$GPVTG,302.38,T,,M,2.87,N,5.3,K,A*0C
$GPGGA,120213.000,5405.5788,N,01207.3935,E,1,09,0.9,-5.0,M,41.9,M,,0000*75
$GPGSV,3,1,11,05,23,045,32,07,01,344,,16,52,294,30,18,74,139,40*73
$GPGSV,3,2,11,20,34,067,35,23,18,147,26,25,00,141,,26,69,242,39*72
$GPGSV,3,3,11,27,20,272,29,29,36,085,34,31,15,212,33*41
$GPGLL,5405.5788,N,01207.3935,E,120213.000,A,A*54
$GPRMC,120214.000,A,5405.5793,N,01207.3923,E,2.98,305.08,240521,,,A*64
$GPVTG,305.08,T,,M,2.98,N,5.5,K,A*00
$GPGGA,120214.000,5405.5793,N,01207.3923,E,1,09,0.9,-5.1,M,41.9,M,,0000*7E
$GPGSV,3,1,11,05,23,045,26,07,01,344,,16,52,294,34,18,74,139,38*7D
$GPGSV,3,2,11,20,34,067,36,23,18,147,31,25,00,141,,26,69,242,37*79
$GPGSV,3,3,11,27,20,272,30,29,36,085,29,31,15,212,32*44
$GPGLL,5405.5793,N,01207.3923,E,120214.000,A,A*5E
$GPRMC,120215.000,A,5405.5797,N,01207.3912,E,2.99,308.28,240521,,,A*6D
$GPVTG,308.28,T,,M,2.99,N,5.5,K,A*0E
$GPGGA,120215.000,5405.5797,N,01207.3912,E,1,09,0.9,-5.6,M,41.9,M,,0000*7E
$GPGSV,3,1,11,05,23,045,25,07,01,344,,16,52,294,37,18,74,139,40*72
$GPGSV,3,2,11,20,34,067,37,23,18,147,22,25,00,141,,26,69,242,38*75
$GPGSV,3,3,11,27,20,272,31,29,36,085,29,31,15,212,37*40
$GPGLL,5405.5797,N,01207.3912,E,120215.000,A,A*59
$GPRMC,120216.000,A,5405.5802,N,01207.3901,E,2.96,312.38,240521,,,A*6A
$GPVTG,312.38,T,,M,2.96,N,5.5,K,A*0B
$GPGGA,120216.000,5405.5802,N,01207.3901,E,1,09,0.9,-5.8,M,41.9,M,,0000*72
$GPGSV,3,1,11,05,23,045,25,07,01,344,,16,52,294,37,18,74,139,40*72
$GPGSV,3,2,11,20,34,067,37,23,18,147,22,25,00,141,,26,69,242,37*7A
$GPGSV,3,3,11,27,20,272,29,29,36,085,36,31,15,212,39*49
$GPGLL,5405.5802,N,01207.3901,E,120216.000,A,A*5B
$GPRMC,120217.000,A,5405.5808,N,01207.3892,E,2.96,314.76,240521,,,A*66
$GPVTG,314.76,T,,M,2.96,N,5.5,K,A*07
$GPGGA,120217.000,5405.5808,N,01207.3892,E,1,09,0.9,-5.5,M,41.9,M,,0000*7F
$GPGSV,3,1,11,05,23,045,24,07,01,344,,16,52,294,35,18,74,139,42*73
$GPGSV,3,2,11,20,34,067,34,23,18,147,24,25,00,141,,26,69,242,41*7E
$GPGSV,3,3,11,27,20,272,29,29,36,085,40,31,15,212,39*48
$GPGLL,5405.5808,N,01207.3892,E,120217.000,A,A*5B
$GPRMC,120218.000,A,5405.5814,N,01207.3882,E,3.02,316.80,240521,,,A*62
$GPVTG,316.80,T,,M,3.02,N,5.6,K,A*03
$GPGGA,120218.000,5405.5814,N,01207.3882,E,1,09,0.9,-5.4,M,41.9,M,,0000*7D
$GPGSV,3,1,11,05,23,045,23,07,01,344,,16,52,294,32,18,74,139,42*73
$GPGSV,3,2,11,20,34,067,31,23,18,147,24,25,00,141,,26,69,242,40*7A
$GPGSV,3,3,11,27,20,272,28,29,36,085,36,31,15,212,31*40
$GPGLL,5405.5814,N,01207.3882,E,120218.000,A,A*58
$GPRMC,120219.000,A,5405.5819,N,01207.3873,E,2.96,319.99,240521,,,A*6B
$GPVTG,319.99,T,,M,2.96,N,5.5,K,A*0B
$GPGGA,120219.000,5405.5819,N,01207.3873,E,1,09,0.9,-5.7,M,41.9,M,,0000*7C
$GPGSV,3,1,11,05,23,045,31,07,01,344,,16,53,294,34,18,74,139,43*76
$GPGSV,3,2,11,20,34,067,27,23,18,147,26,25,00,141,,26,69,242,38*70
$GPGSV,3,3,11,27,20,272,29,29,36,085,35,31,15,212,40*44
$GPGLL,5405.5819,N,01207.3873,E,120219.000,A,A*5A
$GPRMC,120220.000,A,5405.5825,N,01207.3866,E,3.03,323.39,240521,,,A*64
$GPVTG,323.39,T,,M,3.03,N,5.6,K,A*06
$GPGGA,120220.000,5405.5825,N,01207.3866,E,1,09,0.9,-5.5,M,41.9,M,,0000*7F
$GPGSV,3,1,11,05,23,045,31,07,01,344,,16,53,294,35,18,74,139,40*74
$GPGSV,3,2,11,20,34,067,32,23,18,147,26,25,00,141,,26,69,242,39*75
$GPGSV,3,3,11,27,20,272,23,29,36,085,36,31,15,212,40*4D
$GPGLL,5405.5825,N,01207.3866,E,120220.000,A,A*5B
$GPRMC,120221.000,A,5405.5832,N,01207.3859,E,2.97,325.67,240521,,,A*6E
$GPVTG,325.67,T,,M,2.97,N,5.5,K,A*04
$GPGGA,120221.000,5405.5832,N,01207.3859,E,1,09,0.9,-5.4,M,41.9,M,,0000*75
$GPGSV,3,1,11,05,23,045,31,07,01,344,,16,53,294,35,18,74,137,41*7B
$GPGSV,3,2,11,20,34,067,32,23,18,147,23,25,00,141,,26,69,242,37*7E
$GPGSV,3,3,11,27,20,272,29,29,36,085,36,31,15,212,33*43
$GPGLL,5405.5832,N,01207.3859,E,120221.000,A,A*50
$GPRMC,120222.000,A,5405.5838,N,01207.3854,E,2.93,327.62,240521,,,A*69
$GPVTG,327.62,T,,M,2.93,N,5.4,K,A*06
$GPGGA,120222.000,5405.5838,N,01207.3854,E,1,09,0.9,-5.4,M,41.9,M,,0000*71
$GPGSV,3,1,11,05,23,045,32,07,01,344,,16,53,294,34,18,74,137,40*78
$GPGSV,3,2,11,20,34,067,33,23,18,147,21,25,00,141,,26,69,242,37*7D
$GPGSV,3,3,11,27,20,272,33,29,36,085,38,31,15,212,29*4D
$GPGLL,5405.5838,N,01207.3854,E,120222.000,A,A*54
$GPRMC,120223.000,A,5405.5845,N,01207.3850,E,3.00,330.29,240521,,,A*64
$GPVTG,330.29,T,,M,3.00,N,5.6,K,A*06
$GPGGA,120223.000,5405.5845,N,01207.3850,E,1,09,0.9,-5.6,M,41.9,M,,0000*7C
$GPGSV,3,1,11,05,23,045,26,07,01,344,,16,53,294,37,18,74,137,42*7C
$GPGSV,3,2,11,20,34,067,33,23,18,147,20,25,00,141,,26,69,242,38*73
$GPGSV,3,3,11,27,20,272,33,29,36,085,40,31,15,212,34*4E
$GPGLL,5405.5845,N,01207.3850,E,120223.000,A,A*5B
$GPRMC,120224.000,A,5405.5853,N,01207.3845,E,2.90,330.56,240521,,,A*60
$GPVTG,330.56,T,,M,2.90,N,5.4,K,A*04
$GPGGA,120224.000,5405.5853,N,01207.3845,E,1,09,0.9,-5.7,M,41.9,M,,0000*79
$GPGSV,3,1,11,05,23,045,26,07,01,344,,16,53,294,37,18,74,137,39*70
$GPGSV,3,2,11,20,34,067,29,23,18,147,24,25,00,141,,26,69,242,37*73
$GPGSV,3,3,11,27,20,272,35,29,36,085,40,31,15,212,33*4F
$GPGLL,5405.5853,N,01207.3845,E,120224.000,A,A*5F
$GPRMC,120225.000,A,5405.5860,N,01207.3841,E,3.18,333.93,240521,,,A*6E
$GPVTG,333.93,T,,M,3.18,N,5.9,K,A*02
$GPGGA,120225.000,5405.5860,N,01207.3841,E,1,09,0.9,-5.6,M,41.9,M,,0000*7D
$GPGSV,3,1,11,05,23,045,25,07,01,344,,16,53,294,36,18,74,137,40*7C
$GPGSV,3,2,11,20,34,067,33,23,18,147,24,25,00,141,,26,69,242,38*77
$GPGSV,3,3,11,27,20,272,35,29,36,085,39,31,15,212,33*41
$GPGLL,5405.5860,N,01207.3841,E,120225.000,A,A*5A
$GPRMC,120226.000,A,5405.5868,N,01207.3837,E,3.04,335.94,240521,,,A*68
$GPVTG,335.94,T,,M,3.04,N,5.6,K,A*01
$GPGGA,120226.000,5405.5868,N,01207.3837,E,1,09,0.9,-5.5,M,41.9,M,,0000*74
$GPGSV,3,1,11,05,23,045,22,07,01,344,,16,53,294,33,18,74,137,37*7E
$GPGSV,3,2,11,20,34,067,33,23,19,147,23,25,00,141,,26,69,242,36*7F
$GPGSV,3,3,11,27,20,272,37,29,36,085,40,31,15,212,33*4D
$GPGLL,5405.5868,N,01207.3837,E,120226.000,A,A*50
$GPRMC,120227.000,A,5405.5877,N,01207.3832,E,3.13,335.96,240521,,,A*66
$GPVTG,335.96,T,,M,3.13,N,5.8,K,A*0B
$GPGGA,120227.000,5405.5877,N,01207.3832,E,1,09,0.9,-5.4,M,41.9,M,,0000*7F
$GPGSV,3,1,11,05,23,045,22,07,01,344,,16,53,294,36,18,74,137,40*7B
$GPGSV,3,2,11,20,34,067,36,23,19,147,23,25,00,141,,26,69,242,36*7A
$GPGSV,3,3,11,27,20,272,37,29,36,085,40,31,15,212,35*4B
$GPGLL,5405.5877,N,01207.3832,E,120227.000,A,A*5A
$GPRMC,120228.000,A,5405.5884,N,01207.3827,E,3.10,335.52,240521,,,A*6A
$GPVTG,335.52,T,,M,3.10,N,5.7,K,A*0F
$GPGGA,120228.000,5405.5884,N,01207.3827,E,1,09,0.9,-5.5,M,41.9,M,,0000*79
$GPGSV,3,1,11,05,23,045,21,07,01,344,,16,53,294,35,18,74,137,40*7B
$GPGSV,3,2,11,20,34,067,37,23,19,147,23,25,00,141,,26,69,242,35*78
$GPGSV,3,3,11,27,20,272,35,29,36,085,39,31,15,212,33*41
$GPGLL,5405.5884,N,01207.3827,E,120228.000,A,A*5D
$GPRMC,120229.000,A,5405.5892,N,01207.3821,E,3.14,334.65,240521,,,A*6B
$GPVTG,334.65,T,,M,3.14,N,5.8,K,A*01
$GPGGA,120229.000,5405.5892,N,01207.3821,E,1,09,0.9,-5.5,M,41.9,M,,0000*79
$GPGSV,3,1,11,05,23,045,20,07,01,344,,16,53,294,35,18,74,137,40*7A
$GPGSV,3,2,11,20,34,067,37,23,19,147,23,25,00,141,,26,69,240,37*78
$GPGSV,3,3,11,27,20,272,33,29,36,085,38,31,15,212,32*47
$GPGLL,5405.5892,N,01207.3821,E,120229.000,A,A*5D
$GPRMC,120230.000,A,5405.5899,N,01207.3815,E,3.23,334.39,240521,,,A*62
$GPVTG,334.39,T,,M,3.23,N,6.0,K,A*07
$GPGGA,120230.000,5405.5899,N,01207.3815,E,1,09,0.9,-5.6,M,41.9,M,,0000*7E
$GPGSV,3,1,11,05,23,045,24,07,01,344,,16,53,294,35,18,74,137,39*70
$GPGSV,3,2,11,20,34,067,36,23,19,147,22,25,00,141,,26,69,240,36*79
$GPGSV,3,3,11,27,20,272,37,29,36,085,38,31,15,212,40*46
$GPGLL,5405.5899,N,01207.3815,E,120230.000,A,A*59
$GPRMC,120231.000,A,5405.5907,N,01207.3808,E,3.24,334.01,240521,,,A*65
$GPVTG,334.01,T,,M,3.24,N,6.0,K,A*0B
$GPGGA,120231.000,5405.5907,N,01207.3808,E,1,09,0.9,-5.5,M,41.9,M,,0000*76
$GPGSV,3,1,11,05,23,045,25,07,01,344,,16,53,294,36,18,74,137,40*7C
$GPGSV,3,2,11,20,34,067,38,23,19,147,22,25,00,141,,26,69,240,37*76
$GPGSV,3,3,11,27,20,272,36,29,36,085,37,31,15,212,37*48
$GPGLL,5405.5907,N,01207.3808,E,120231.000,A,A*52
$GPRMC,120232.000,A,5405.5915,N,01207.3802,E,3.35,334.33,240521,,,A*6E
$GPVTG,334.33,T,,M,3.35,N,6.2,K,A*08
$GPGGA,120232.000,5405.5915,N,01207.3802,E,1,09,0.9,-5.4,M,41.9,M,,0000*7D
$GPGSV,3,1,11,05,23,045,24,07,01,344,,16,53,294,35,18,74,137,39*70
$GPGSV,3,2,11,20,34,067,36,23,19,147,20,25,00,141,,26,69,240,35*78
$GPGSV,3,3,11,27,20,272,34,29,35,085,35,31,15,212,35*49
$GPGLL,5405.5915,N,01207.3802,E,120232.000,A,A*58
$GPRMC,120233.000,A,5405.5923,N,01207.3795,E,3.29,333.87,240521,,,A*6E
$GPVTG,333.87,T,,M,3.29,N,6.1,K,A*0E
$GPGGA,120233.000,5405.5923,N,01207.3795,E,1,09,0.9,-5.3,M,41.9,M,,0000*7F
$GPGSV,3,1,11,05,23,045,23,07,01,344,,16,53,294,35,18,74,137,40*79
$GPGSV,3,2,11,20,34,067,37,23,19,147,19,25,00,141,,26,69,240,35*73
$GPGSV,3,3,11,27,20,272,34,29,35,085,36,31,15,212,36*49
$GPGLL,5405.5923,N,01207.3795,E,120233.000,A,A*5D
$GPRMC,120234.000,A,5405.5931,N,01207.3788,E,3.41,334.00,240521,,,A*60
$GPVTG,334.00,T,,M,3.41,N,6.3,K,A*0A
$GPGGA,120234.000,5405.5931,N,01207.3788,E,1,09,0.9,-5.3,M,41.9,M,,0000*77
$GPGSV,3,1,11,05,23,045,21,07,01,344,,16,53,294,38,18,74,137,41*77
$GPGSV,3,2,11,20,34,067,40,23,19,147,19,25,00,141,,26,69,240,39*7F
$GPGSV,3,3,11,27,20,272,29,29,35,085,38,31,15,212,32*4F
$GPGLL,5405.5931,N,01207.3788,E,120234.000,A,A*55
$GPRMC,120235.000,A,5405.5939,N,01207.3781,E,3.26,333.93,240521,,,A*6C
$GPVTG,333.93,T,,M,3.26,N,6.0,K,A*05
$GPGGA,120235.000,5405.5939,N,01207.3781,E,1,09,0.9,-5.2,M,41.9,M,,0000*76
$GPGSV,3,1,11,05,23,045,20,07,01,344,,16,53,294,35,18,74,137,38*75
$GPGSV,3,2,11,20,34,067,38,23,19,147,21,25,00,141,,26,69,240,37*75
$GPGSV,3,3,11,27,20,272,29,29,35,085,35,31,15,212,33*43
$GPGLL,5405.5939,N,01207.3781,E,120235.000,A,A*55
$GPRMC,120236.000,A,5405.5947,N,01207.3774,E,3.42,333.62,240521,,,A*60
$GPVTG,333.62,T,,M,3.42,N,6.3,K,A*0A
$GPGGA,120236.000,5405.5947,N,01207.3774,E,1,09,0.9,-5.2,M,41.9,M,,0000*76
$GPGSV,3,1,11,05,23,045,20,07,01,344,,16,53,294,34,18,74,137,38*74
$GPGSV,3,2,11,20,34,067,37,23,19,147,20,25,00,141,,26,69,240,36*7A
$GPGSV,3,3,11,27,20,272,27,29,35,085,36,31,15,212,34*49
$GPGLL,5405.5947,N,01207.3774,E,120236.000,A,A*55
$GPRMC,120237.000,A,5405.5956,N,01207.3767,E,3.38,333.66,240521,,,A*6A
$GPVTG,333.66,T,,M,3.38,N,6.3,K,A*03
$GPGGA,120237.000,5405.5956,N,01207.3767,E,1,09,0.9,-5.2,M,41.9,M,,0000*75
$GPGSV,3,1,11,05,23,045,22,07,01,344,,16,53,294,34,18,74,137,38*76
$GPGSV,3,2,11,20,34,067,36,23,19,147,21,25,00,141,,26,69,240,36*7A
$GPGSV,3,3,11,27,20,272,26,29,35,085,36,31,15,212,38*44
$GPGLL,5405.5956,N,01207.3767,E,120237.000,A,A*56
$GPRMC,120238.000,A,5405.5964,N,01207.3761,E,3.43,333.20,240521,,,A*6C
$GPVTG,333.20,T,,M,3.43,N,6.3,K,A*0D
$GPGGA,120238.000,5405.5964,N,01207.3761,E,1,09,0.9,-5.3,M,41.9,M,,0000*7C
$GPGSV,3,1,11,05,23,045,24,07,01,344,,16,53,294,33,18,74,137,39*76
$GPGSV,3,2,11,20,34,067,29,23,19,147,22,25,00,141,,26,69,240,36*77
$GPGSV,3,3,11,27,20,272,22,29,35,085,38,31,15,212,36*40
$GPGLL,5405.5964,N,01207.3761,E,120238.000,A,A*5E
$WIMWV,161.0,R,2.5,N,A*22
$WIMWV,184.5,R,2.1,N,A*28
$WIMWV,196.9,R,2.5,N,A*23
$WIMWV,201.2,R,2.1,N,A*21
$WIMWV,193.0,R,2.1,N,A*2b
$WIMWV,176.7,R,2.1,N,A*27
$WIMWV,148.5,R,2.5,N,A*2c
$WIMWV,117.0,R,2.1,N,A*27
$WIMWV,84.6,R,2.1,N,A*1a
$WIMWV,61.0,R,2.5,N,A*13
$WIMWV,49.0,R,2.1,N,A*1d
$WIMWV,47.1,R,2.5,N,A*16
$WIMWV,48.6,R,2.1,N,A*1a
$WIMWV,54.4,R,2.5,N,A*11
$WIMWV,61.9,R,2.1,N,A*1e
$WIMWV,71.8,R,2.5,N,A*1a
$WIMWV,80.8,R,2.1,N,A*10
$WIMWV,85.2,R,2.5,N,A*1b
$WIMWV,83.4,R,2.5,N,A*1b
$WIMWV,78.9,R,2.5,N,A*12
$WIMWV,76.5,R,2.5,N,A*10
$WIMWV,75.0,R,2.5,N,A*16
$WIMWV,74.2,R,2.5,N,A*15
$WIMWV,74.8,R,2.9,N,A*13
$WIMWV,82.4,R,2.5,N,A*1a
$WIMWV,91.1,R,2.9,N,A*11
$WIMWV,101.7,R,2.5,N,A*23
$WIMWV,106.3,R,2.9,N,A*2c
$WIMWV,104.1,R,2.9,N,A*2c
$WIMWV,96.7,R,2.9,N,A*10
$WIMWV,84.4,R,2.9,N,A*10
$WIMWV,71.6,R,2.9,N,A*18
$WIMWV,59.6,R,2.9,N,A*12
$WIMWV,50.3,R,2.9,N,A*1e
$WIMWV,46.2,R,2.9,N,A*18
$WIMWV,46.9,R,2.9,N,A*13
$WIMWV,56.0,R,3.3,N,A*10
$WIMWV,72.1,R,2.9,N,A*1c
$WIMWV,85.1,R,3.3,N,A*1f
$WIMWV,91.7,R,3.3,N,A*1c
$WIMWV,88.4,R,3.3,N,A*17
$WIMWV,81.9,R,3.7,N,A*17
$WIMWV,70.2,R,4.1,N,A*13
$WIMWV,62.6,R,3.7,N,A*15
$WIMWV,58.6,R,4.1,N,A*1d
$WIMWV,58.0,R,4.5,N,A*1f
$WIMWV,62.6,R,4.1,N,A*14
$WIMWV,67.6,R,4.9,N,A*19
$WIMWV,70.6,R,4.5,N,A*13
$WIMWV,71.3,R,4.9,N,A*1b
$WIMWV,65.0,R,5.3,N,A*16
$WIMWV,53.7,R,4.9,N,A*1f
$WIMWV,48.5,R,4.9,N,A*17
$WIMWV,43.1,R,5.3,N,A*13
$WIMWV,41.5,R,4.9,N,A*1e
$WIMWV,43.7,R,4.9,N,A*1e
$WIMWV,53.4,R,4.9,N,A*1c
$WIMWV,64.0,R,5.3,N,A*17
$WIMWV,71.1,R,4.9,N,A*19
$WIMWV,75.3,R,4.9,N,A*1f
$WIMWV,78.6,R,4.9,N,A*17
$WIMWV,76.0,R,4.9,N,A*1f
$WIMWV,63.6,R,4.9,N,A*1d
$WIMWV,47.3,R,4.9,N,A*1e
$WIMWV,28.8,R,4.5,N,A*10
$WIMWV,8.1,R,4.9,N,A*27
$WIMWV,347.0,R,4.9,N,A*2e
$WIMWV,324.7,R,4.9,N,A*2c
$WIMWV,319.1,R,4.9,N,A*24
$WIMWV,331.7,R,4.9,N,A*28
$WIMWV,349.2,R,4.9,N,A*22
$WIMWV,7.1,R,4.9,N,A*28
$WIMWV,16.2,R,4.9,N,A*1b
$WIMWV,7.5,R,4.9,N,A*2c
$WIMWV,347.8,R,4.9,N,A*26
$WIMWV,328.8,R,4.5,N,A*23
$WIMWV,318.5,R,4.9,N,A*21
$WIMWV,321.4,R,4.5,N,A*26
$WIMWV,327.2,R,4.5,N,A*26
$WIMWV,334.9,R,4.5,N,A*2f
$WIMWV,341.5,R,4.1,N,A*25
$WIMWV,340.4,R,4.5,N,A*21
$WIMWV,337.7,R,4.1,N,A*26
$WIMWV,334.9,R,4.5,N,A*2f
$WIMWV,326.3,R,4.1,N,A*22
$WIMWV,324.1,R,4.1,N,A*22
$WIMWV,328.1,R,4.1,N,A*2e
$WIMWV,326.1,R,4.1,N,A*20
$WIMWV,332.4,R,4.1,N,A*20
$WIMWV,336.0,R,3.7,N,A*21
$WIMWV,339.7,R,4.1,N,A*28
$WIMWV,343.3,R,4.1,N,A*21
$WIMWV,341.7,R,3.7,N,A*26
$WIMWV,339.2,R,3.7,N,A*2c
$WIMWV,327.2,R,4.1,N,A*22
$WIMWV,318.8,R,3.7,N,A*25
$WIMWV,305.3,R,3.7,N,A*22
$WIMWV,296.1,R,3.7,N,A*2b
$WIMWV,293.9,R,3.3,N,A*22
$WIMWV,289.0,R,3.7,N,A*24
$WIMWV,294.5,R,3.3,N,A*29
$WIMWV,300.5,R,3.7,N,A*21
$WIMWV,303.0,R,3.3,N,A*23
$WIMWV,314.7,R,3.3,N,A*22
$WIMWV,316.6,R,3.3,N,A*21
$WIMWV,327.3,R,3.3,N,A*26
$WIMWV,328.1,R,3.3,N,A*2b
$WIMWV,329.5,R,3.3,N,A*2e
$WIMWV,332.7,R,3.3,N,A*26
$WIMWV,327.2,R,2.9,N,A*2c
$WIMWV,326.6,R,3.3,N,A*22
$WIMWV,326.8,R,2.9,N,A*27
$WIMWV,322.5,R,3.3,N,A*25
$WIMWV,317.7,R,2.9,N,A*2a
$WIMWV,317.0,R,3.3,N,A*26
$WIMWV,315.6,R,2.9,N,A*29
$WIMWV,319.0,R,2.9,N,A*23
$WIMWV,312.8,R,3.3,N,A*2b
$WIMWV,308.5,R,2.9,N,A*26
$WIMWV,311.0,R,2.9,N,A*2b
$WIMWV,305.0,R,2.9,N,A*2e
$WIMWV,297.9,R,2.9,N,A*2d
$WIMWV,296.1,R,3.3,N,A*2f
$WIMWV,294.9,R,2.9,N,A*2e
$WIMWV,301.7,R,2.9,N,A*2d
$WIMWV,304.6,R,2.9,N,A*29
$WIMWV,302.7,R,2.9,N,A*2e
$WIMWV,307.0,R,2.5,N,A*20
$WIMWV,308.5,R,2.9,N,A*26
$WIMWV,306.5,R,2.9,N,A*28
$WIMWV,302.4,R,2.5,N,A*21
$WIMWV,302.5,R,2.9,N,A*2c
$WIMWV,294.9,R,2.5,N,A*22
$WIMWV,289.2,R,2.9,N,A*29
$WIMWV,285.4,R,2.5,N,A*2f
$WIMWV,280.0,R,2.5,N,A*2e
$WIMWV,265.0,R,2.5,N,A*25
$WIMWV,259.6,R,2.9,N,A*20
$WIMWV,257.7,R,2.5,N,A*23
$WIMWV,252.8,R,2.5,N,A*29
$WIMWV,243.1,R,2.5,N,A*20
$WIMWV,241.5,R,2.5,N,A*26
$WIMWV,238.6,R,2.5,N,A*2b
$WIMWV,238.1,R,2.5,N,A*2c
$WIMWV,236.1,R,2.5,N,A*22
$WIMWV,230.8,R,2.5,N,A*2d
$WIMWV,229.4,R,2.5,N,A*29
$WIMWV,231.7,R,2.5,N,A*23
$WIMWV,235.0,R,2.5,N,A*20
$WIMWV,235.2,R,2.9,N,A*2e
$WIMWV,237.3,R,2.5,N,A*21
$WIMWV,248.5,R,2.9,N,A*23
$WIMWV,252.4,R,2.5,N,A*25
$WIMWV,265.7,R,2.9,N,A*2e
$WIMWV,270.7,R,2.9,N,A*2a
$WIMWV,283.0,R,2.9,N,A*21
$WIMWV,293.0,R,2.9,N,A*20
$WIMWV,300.7,R,3.3,N,A*27
$WIMWV,308.8,R,2.9,N,A*2b
$WIMWV,311.4,R,2.9,N,A*2f
$WIMWV,307.1,R,2.9,N,A*2d
$WIMWV,310.8,R,2.9,N,A*22
$WIMWV,302.5,R,3.3,N,A*27
$WIMWV,294.3,R,2.9,N,A*24
$WIMWV,289.5,R,2.9,N,A*2e
$WIMWV,281.2,R,2.9,N,A*21
$WIMWV,277.8,R,2.9,N,A*22
$WIMWV,281.8,R,2.9,N,A*2b
$WIMWV,280.9,R,3.3,N,A*20
$WIMWV,282.2,R,2.9,N,A*22
$WIMWV,282.3,R,2.5,N,A*2f
$WIMWV,287.9,R,2.9,N,A*2c
$WIMWV,285.9,R,2.9,N,A*2e
$WIMWV,289.3,R,2.9,N,A*28
$WIMWV,291.6,R,2.9,N,A*24
$WIMWV,293.5,R,2.9,N,A*25
$WIMWV,293.3,R,2.9,N,A*23
$WIMWV,297.0,R,3.3,N,A*2f
$WIMWV,294.3,R,2.9,N,A*24
$WIMWV,296.1,R,2.9,N,A*24
$WIMWV,299.1,R,3.3,N,A*20
$WIMWV,300.5,R,2.9,N,A*2e
$WIMWV,300.0,R,2.9,N,A*2b
$WIMWV,298.9,R,3.3,N,A*29
$WIMWV,295.0,R,2.9,N,A*26
$WIMWV,289.6,R,2.9,N,A*2d
$WIMWV,287.5,R,3.3,N,A*2b
$WIMWV,280.1,R,2.9,N,A*23
$WIMWV,281.6,R,2.9,N,A*25
$WIMWV,281.4,R,3.3,N,A*2c
$WIMWV,284.6,R,2.9,N,A*20
$WIMWV,286.1,R,3.3,N,A*2e
$WIMWV,294.8,R,2.9,N,A*2f
$WIMWV,296.8,R,3.3,N,A*26
$WIMWV,299.5,R,2.9,N,A*2f
$WIMWV,304.7,R,3.3,N,A*23
$WIMWV,299.3,R,2.9,N,A*29
$WIMWV,294.2,R,3.3,N,A*2e
$WIMWV,289.7,R,3.3,N,A*27
$WIMWV,279.4,R,2.9,N,A*20
$WIMWV,269.8,R,3.3,N,A*26
$WIMWV,260.4,R,2.9,N,A*28
$WIMWV,251.3,R,3.3,N,A*26
$WIMWV,253.9,R,3.3,N,A*2e
$WIMWV,253.1,R,2.9,N,A*2d
$WIMWV,260.9,R,3.3,N,A*2e
$WIMWV,267.8,R,2.9,N,A*23
$WIMWV,276.4,R,3.3,N,A*24
$WIMWV,276.5,R,3.3,N,A*25
$WIMWV,271.1,R,2.9,N,A*2d
$WIMWV,267.7,R,3.3,N,A*27
$WIMWV,260.3,R,3.3,N,A*24
$WIMWV,255.4,R,2.9,N,A*2e
$WIMWV,254.8,R,3.3,N,A*28
$WIMWV,259.2,R,3.3,N,A*2f
$WIMWV,268.3,R,3.3,N,A*2c
$WIMWV,276.0,R,3.3,N,A*20
$WIMWV,294.5,R,3.3,N,A*29
$WIMWV,306.3,R,3.3,N,A*25
$WIMWV,316.5,R,3.3,N,A*22
$WIMWV,317.9,R,3.3,N,A*2f
$WIMWV,315.8,R,3.3,N,A*2c
$WIMWV,312.3,R,3.7,N,A*24
$WIMWV,309.1,R,3.3,N,A*28
$WIMWV,296.4,R,3.3,N,A*2a
$WIMWV,289.6,R,3.3,N,A*26
$WIMWV,281.3,R,3.3,N,A*2b
$WIMWV,273.6,R,2.9,N,A*28
$WIMWV,268.1,R,3.3,N,A*2e
$WIMWV,262.8,R,3.3,N,A*2d
$WIMWV,261.5,R,3.3,N,A*23
$WIMWV,260.5,R,3.3,N,A*22
$WIMWV,264.0,R,3.3,N,A*23
$WIMWV,264.4,R,2.9,N,A*2c
$WIMWV,262.9,R,3.3,N,A*2c
$WIMWV,264.8,R,3.3,N,A*2b
$WIMWV,271.0,R,3.3,N,A*27
$WIMWV,281.0,R,2.9,N,A*23
$WIMWV,295.9,R,3.3,N,A*24
$WIMWV,309.8,R,3.7,N,A*25
$WIMWV,324.9,R,3.3,N,A*2f
$WIMWV,337.6,R,3.3,N,A*22
$WIMWV,344.6,R,3.3,N,A*26
$WIMWV,344.9,R,3.3,N,A*29
$WIMWV,339.0,R,3.3,N,A*2a
$WIMWV,333.0,R,3.7,N,A*24
$WIMWV,319.4,R,3.3,N,A*2c
$WIMWV,308.2,R,3.3,N,A*2a
$WIMWV,294.9,R,3.3,N,A*25
$WIMWV,283.8,R,3.3,N,A*22
$WIMWV,272.0,R,3.3,N,A*24
$WIMWV,265.4,R,3.3,N,A*26
$WIMWV,265.6,R,3.3,N,A*24
$WIMWV,273.2,R,2.9,N,A*2c
$WIMWV,287.9,R,2.9,N,A*2c
$WIMWV,300.2,R,2.9,N,A*29
$WIMWV,307.0,R,2.9,N,A*2c
$WIMWV,308.7,R,2.5,N,A*28
$WIMWV,305.3,R,2.9,N,A*2d
$WIMWV,290.6,R,2.5,N,A*29
$WIMWV,282.4,R,2.5,N,A*28
$WIMWV,275.7,R,2.1,N,A*27
$WIMWV,281.6,R,2.5,N,A*29
$WIMWV,291.0,R,2.5,N,A*2e
$WIMWV,302.4,R,2.1,N,A*25
$WIMWV,312.7,R,2.1,N,A*27
$WIMWV,321.6,R,2.1,N,A*26
$WIMWV,328.4,R,2.5,N,A*29
$WIMWV,329.1,R,2.1,N,A*29
$WIMWV,324.5,R,1.7,N,A*25
$WIMWV,311.5,R,2.1,N,A*26
$WIMWV,297.9,R,1.7,N,A*20
$WIMWV,283.1,R,1.7,N,A*2d
$WIMWV,275.7,R,1.7,N,A*22
$WIMWV,266.0,R,1.7,N,A*27
$WIMWV,262.1,R,2.1,N,A*27
$WIMWV,261.7,R,1.7,N,A*27
$WIMWV,263.7,R,1.7,N,A*25
$WIMWV,269.9,R,1.7,N,A*21
$WIMWV,279.4,R,1.7,N,A*2d
$WIMWV,285.5,R,1.7,N,A*2f
$WIMWV,296.1,R,1.7,N,A*29
$WIMWV,304.6,R,2.1,N,A*21
$WIMWV,313.8,R,1.7,N,A*2c
$WIMWV,318.7,R,2.1,N,A*2d
$WIMWV,324.5,R,1.7,N,A*25
$WIMWV,325.0,R,2.1,N,A*24
$WIMWV,324.5,R,1.7,N,A*25
$WIMWV,326.3,R,2.1,N,A*24
$WIMWV,321.9,R,2.1,N,A*29
$WIMWV,318.6,R,1.7,N,A*29
$WIMWV,312.5,R,2.1,N,A*25
$WIMWV,313.8,R,1.7,N,A*2c
$WIMWV,311.1,R,2.1,N,A*22
$WIMWV,307.7,R,2.1,N,A*23
$WIMWV,304.2,R,2.1,N,A*25
$WIMWV,300.7,R,1.7,N,A*21
$WIMWV,297.5,R,1.7,N,A*2c
$WIMWV,288.2,R,2.1,N,A*20
$WIMWV,285.5,R,1.7,N,A*2f
$WIMWV,275.0,R,2.1,N,A*20
$WIMWV,258.9,R,1.7,N,A*23
$WIMWV,245.8,R,1.7,N,A*2e
$WIMWV,228.6,R,2.1,N,A*2e
$WIMWV,212.9,R,1.7,N,A*2d
$WIMWV,198.0,R,2.1,N,A*20
$WIMWV,189.1,R,1.7,N,A*24
$WIMWV,178.4,R,2.1,N,A*2a
$WIMWV,182.4,R,1.7,N,A*2a
$WIMWV,179.2,R,2.1,N,A*2d
$WIMWV,180.9,R,2.1,N,A*20
$WIMWV,186.4,R,2.1,N,A*2b
$WIMWV,189.5,R,2.1,N,A*25
$WIMWV,202.1,R,2.1,N,A*21
$WIMWV,210.3,R,2.1,N,A*20
$WIMWV,223.4,R,2.1,N,A*27
$WIMWV,236.5,R,2.5,N,A*26
$WIMWV,249.2,R,2.1,N,A*2d
$WIMWV,254.2,R,2.5,N,A*25
$WIMWV,256.1,R,2.1,N,A*20
$WIMWV,259.0,R,2.5,N,A*2a
$WIMWV,258.7,R,2.1,N,A*28
$WIMWV,255.0,R,2.5,N,A*26
$WIMWV,256.0,R,2.5,N,A*25
$WIMWV,253.5,R,2.1,N,A*21
$WIMWV,252.8,R,2.5,N,A*29
$WIMWV,252.3,R,2.1,N,A*26
$WIMWV,245.5,R,2.1,N,A*26
$WIMWV,244.7,R,2.1,N,A*25
$WIMWV,244.1,R,2.1,N,A*23
$WIMWV,242.9,R,2.1,N,A*2d
$WIMWV,240.4,R,2.1,N,A*22
$WIMWV,242.8,R,2.1,N,A*2c
$WIMWV,248.0,R,1.7,N,A*2b
$WIMWV,250.3,R,2.1,N,A*24
$WIMWV,258.3,R,2.1,N,A*2c
$WIMWV,257.6,R,1.7,N,A*23
$WIMWV,264.8,R,2.1,N,A*28
$WIMWV,265.5,R,2.1,N,A*24
$WIMWV,264.2,R,1.7,N,A*27
$WIMWV,264.8,R,1.7,N,A*2d
$WIMWV,265.5,R,2.1,N,A*24
$WIMWV,263.2,R,1.7,N,A*20
$WIMWV,256.6,R,1.7,N,A*22
$WIMWV,255.4,R,1.7,N,A*23
$WIMWV,247.2,R,2.1,N,A*23
$WIMWV,245.6,R,1.7,N,A*20
$WIMWV,236.7,R,2.1,N,A*20
$WIMWV,232.8,R,1.7,N,A*2e
$WIMWV,225.8,R,1.7,N,A*28
$WIMWV,220.4,R,2.1,N,A*24
$WIMWV,221.3,R,1.7,N,A*27
$WIMWV,222.2,R,1.7,N,A*25
$WIMWV,226.8,R,2.1,N,A*2e
$WIMWV,231.4,R,1.7,N,A*21
$WIMWV,236.7,R,2.1,N,A*20
$WIMWV,241.0,R,1.7,N,A*22
$WIMWV,243.3,R,1.7,N,A*23
$WIMWV,245.9,R,2.1,N,A*2a
$WIMWV,239.4,R,1.7,N,A*29
$WIMWV,233.6,R,2.1,N,A*24
$WIMWV,225.1,R,1.7,N,A*21
$WIMWV,219.9,R,2.1,N,A*23
$WIMWV,211.0,R,2.1,N,A*22
$WIMWV,207.6,R,2.1,N,A*23
$WIMWV,208.9,R,2.1,N,A*23
$WIMWV,208.3,R,2.1,N,A*29
$WIMWV,208.9,R,2.1,N,A*23
$WIMWV,209.8,R,2.1,N,A*23
$WIMWV,209.9,R,1.7,N,A*27
$WIMWV,211.7,R,2.1,N,A*25
$WIMWV,212.3,R,2.1,N,A*22
$WIMWV,212.7,R,2.1,N,A*26
$WIMWV,212.0,R,2.1,N,A*21
$WIMWV,212.9,R,1.7,N,A*2d
$WIMWV,212.2,R,2.1,N,A*23
$WIMWV,214.3,R,2.1,N,A*24
$WIMWV,215.6,R,1.7,N,A*25
$WIMWV,215.2,R,2.1,N,A*24
$WIMWV,216.5,R,1.7,N,A*25
$GPRMC,120239.000,A,5405.5973,N,01207.3753,E,3.50,333.26,240521,,,A*6E
$GPVTG,333.26,T,,M,3.50,N,6.5,K,A*0F
$GPGGA,120239.000,5405.5973,N,01207.3753,E,1,09,0.9,-5.3,M,41.9,M,,0000*7A
$GPGSV,3,1,11,05,23,045,26,07,01,344,,16,53,294,33,18,74,137,39*74
$GPGSV,3,2,11,20,34,067,30,23,19,147,23,25,00,141,,26,69,240,36*7E
$GPGSV,3,3,11,27,20,272,19,29,35,085,34,31,15,212,37*45
$GPGLL,5405.5973,N,01207.3753,E,120239.000,A,A*58
$WIMWV,216.7,R,1.7,N,A*27
$WIMWV,221.6,R,2.1,N,A*27
$WIMWV,225.7,R,1.7,N,A*27
$WIMWV,228.6,R,2.1,N,A*2e
$WIMWV,233.1,R,1.7,N,A*26
$WIMWV,238.2,R,1.7,N,A*2e
$WIMWV,239.6,R,1.7,N,A*2b
$WIMWV,242.6,R,2.1,N,A*22
$WIMWV,244.9,R,1.7,N,A*2e
$WIMWV,244.4,R,1.7,N,A*23
$GPRMC,120240.000,A,5405.5982,N,01207.3746,E,3.50,332.88,240521,,,A*6F
$GPVTG,332.88,T,,M,3.50,N,6.5,K,A*0A
$GPGGA,120240.000,5405.5982,N,01207.3746,E,1,09,0.9,-5.4,M,41.9,M,,0000*79
$GPGSV,3,1,11,05,23,045,28,07,01,344,,16,53,294,33,18,74,137,39*7A
$GPGSV,3,2,11,20,34,067,29,23,19,147,23,25,00,141,,26,69,240,36*76
$GPGSV,3,3,11,27,20,272,21,29,35,085,37,31,15,212,35*4F
$GPGLL,5405.5982,N,01207.3746,E,120240.000,A,A*5C
$WIMWV,243.4,R,1.7,N,A*24
$WIMWV,236.4,R,1.7,N,A*26
$WIMWV,236.9,R,2.1,N,A*2e
$WIMWV,233.2,R,1.7,N,A*25
$WIMWV,231.2,R,1.7,N,A*27
$WIMWV,227.4,R,1.7,N,A*26
$WIMWV,226.6,R,1.7,N,A*25
$WIMWV,226.6,R,1.7,N,A*25
$WIMWV,226.9,R,1.7,N,A*2a
$WIMWV,226.1,R,1.7,N,A*22
$GPRMC,120241.000,A,5405.5990,N,01207.3739,E,3.53,332.41,240521,,,A*63
$GPVTG,332.41,T,,M,3.53,N,6.5,K,A*0C
$GPGGA,120241.000,5405.5990,N,01207.3739,E,1,09,0.9,-5.4,M,41.9,M,,0000*73
$GPGSV,3,1,11,05,23,045,29,07,01,344,,16,53,294,32,18,74,137,38*7B
$GPGSV,3,2,11,20,34,067,28,23,19,147,25,25,00,141,,26,69,240,36*71
$GPGSV,3,3,11,27,20,272,25,29,35,085,37,31,15,212,37*49
$GPGLL,5405.5990,N,01207.3739,E,120241.000,A,A*56
$WIMWV,227.2,R,1.7,N,A*20
$WIMWV,231.5,R,1.7,N,A*20
$WIMWV,232.7,R,1.7,N,A*21
$WIMWV,235.0,R,1.7,N,A*21
$WIMWV,233.5,R,1.7,N,A*22
$WIMWV,234.1,R,1.7,N,A*21
$WIMWV,234.8,R,1.3,N,A*2c
$WIMWV,240.1,R,1.7,N,A*22
$WIMWV,240.1,R,1.7,N,A*22
$WIMWV,237.9,R,1.3,N,A*2e
$GPRMC,120242.000,A,5405.6000,N,01207.3731,E,3.58,332.29,240521,,,A*6E
$GPVTG,332.29,T,,M,3.58,N,6.6,K,A*0A
$GPGGA,120242.000,5405.6000,N,01207.3731,E,1,09,0.9,-5.5,M,41.9,M,,0000*7A
$GPGSV,3,1,11,05,23,045,29,07,01,344,,16,53,294,32,18,74,137,38*7B
$GPGSV,3,2,11,20,34,067,28,23,19,147,25,25,00,141,,26,69,240,36*71
$GPGSV,3,3,11,27,20,272,27,29,35,085,37,31,15,212,37*4B
$GPGLL,5405.6000,N,01207.3731,E,120242.000,A,A*5E
$WIMWV,239.4,R,1.7,N,A*29
$WIMWV,242.7,R,1.3,N,A*22
$WIMWV,244.5,R,1.7,N,A*22
$WIMWV,243.3,R,1.3,N,A*27
$WIMWV,247.7,R,1.7,N,A*23
$WIMWV,249.3,R,1.3,N,A*2d
$WIMWV,251.6,R,1.3,N,A*21
$WIMWV,254.9,R,1.7,N,A*2f
$WIMWV,255.3,R,1.3,N,A*20
$WIMWV,260.5,R,1.3,N,A*20
$GPRMC,120243.000,A,5405.6008,N,01207.3724,E,3.21,332.27,240521,,,A*63
$GPVTG,332.27,T,,M,3.21,N,6.0,K,A*0C
$GPGGA,120243.000,5405.6008,N,01207.3724,E,1,08,0.9,-5.5,M,41.9,M,,0000*76
$GPGSV,3,1,11,05,23,045,29,07,01,344,,16,53,294,31,18,74,137,28*79
$GPGSV,3,2,11,20,34,067,25,23,19,147,25,25,00,141,,26,69,240,33*79
$GPGSV,3,3,11,27,20,272,26,29,35,085,,31,15,212,23*4B
$GPGLL,5405.6008,N,01207.3724,E,120243.000,A,A*53
$WIMWV,262.6,R,1.3,N,A*21
$WIMWV,264.9,R,1.7,N,A*2c
$WIMWV,273.7,R,1.3,N,A*20
$WIMWV,278.8,R,1.3,N,A*24
$WIMWV,284.7,R,1.3,N,A*28
$WIMWV,290.3,R,1.7,N,A*2d
$WIMWV,301.2,R,1.3,N,A*21
$WIMWV,313.6,R,1.3,N,A*26
$WIMWV,326.0,R,1.3,N,A*26
$WIMWV,337.3,R,1.7,N,A*21
$GPRMC,120244.000,A,5405.6018,N,01207.3715,E,4.30,330.22,240521,,,A*67
$GPVTG,330.22,T,,M,4.30,N,8.0,K,A*02
$GPGGA,120244.000,5405.6018,N,01207.3715,E,1,09,0.9,-5.6,M,41.9,M,,0000*70
$GPGSV,3,1,11,05,23,045,28,07,01,344,,16,53,294,27,18,74,137,38*7E
$GPGSV,3,2,11,20,34,067,30,23,19,147,34,25,00,141,,26,69,240,34*7A
$GPGSV,3,3,11,27,20,272,35,29,35,085,37,31,15,212,37*48
$GPGLL,5405.6018,N,01207.3715,E,120244.000,A,A*57
$WIMWV,351.9,R,1.3,N,A*2f
$WIMWV,7.1,R,1.7,N,A*23
$WIMWV,19.1,R,1.3,N,A*18
$WIMWV,27.4,R,1.7,N,A*14
$WIMWV,34.4,R,1.3,N,A*12
$WIMWV,38.6,R,1.7,N,A*18
$WIMWV,40.4,R,1.3,N,A*11
$WIMWV,38.8,R,1.7,N,A*16
$WIMWV,35.4,R,1.7,N,A*17
$WIMWV,28.9,R,1.7,N,A*16
$GPRMC,120245.000,A,5405.6026,N,01207.3705,E,3.66,331.12,240521,,,A*6C
$GPVTG,331.12,T,,M,3.66,N,6.8,K,A*02
$GPGGA,120245.000,5405.6026,N,01207.3705,E,1,09,0.9,-5.9,M,41.9,M,,0000*72
$GPGSV,3,1,11,05,23,045,32,07,01,344,23,16,53,294,31,18,74,137,42*7E
$GPGSV,3,2,11,20,34,067,38,23,19,147,34,25,00,141,,26,69,240,44*75
$GPGSV,3,3,11,27,20,272,34,29,35,085,37,31,15,212,41*48
$GPGLL,5405.6026,N,01207.3705,E,120245.000,A,A*5A
$WIMWV,21.0,R,1.7,N,A*16
$WIMWV,10.4,R,1.7,N,A*10
$WIMWV,359.3,R,1.7,N,A*29
$WIMWV,351.0,R,1.7,N,A*22
$WIMWV,350.2,R,1.7,N,A*21
$WIMWV,351.4,R,2.1,N,A*23
$WIMWV,353.4,R,1.7,N,A*24
$WIMWV,3.4,R,2.1,N,A*27
$WIMWV,10.0,R,2.1,N,A*11
$WIMWV,19.0,R,1.7,N,A*1d
$GPRMC,120246.000,A,5405.6035,N,01207.3694,E,3.57,330.53,240521,,,A*62
$GPVTG,330.53,T,,M,3.57,N,6.6,K,A*0A
$GPGGA,120246.000,5405.6035,N,01207.3694,E,1,09,0.9,-5.9,M,41.9,M,,0000*7A
$GPGSV,3,1,11,05,23,045,32,07,01,344,19,16,53,294,39,18,74,137,39*73
$GPGSV,3,2,11,20,34,067,33,23,19,147,29,25,00,141,,26,69,240,41*77
$GPGSV,3,3,11,27,20,272,32,29,35,085,40,31,15,212,38*40
$GPGLL,5405.6035,N,01207.3694,E,120246.000,A,A*52
$WIMWV,28.8,R,2.1,N,A*12
$WIMWV,33.5,R,2.1,N,A*15
$WIMWV,36.8,R,2.1,N,A*1d
$WIMWV,37.2,R,2.1,N,A*16
$WIMWV,34.6,R,2.5,N,A*15
$WIMWV,30.8,R,2.1,N,A*1b
$WIMWV,26.9,R,2.1,N,A*1d
$WIMWV,20.5,R,2.5,N,A*13
$WIMWV,18.3,R,2.1,N,A*1a
$WIMWV,16.3,R,2.5,N,A*10
$GPRMC,120247.000,A,5405.6041,N,01207.3684,E,3.67,330.52,240521,,,A*63
$GPVTG,330.52,T,,M,3.67,N,6.8,K,A*06
$GPGGA,120247.000,5405.6041,N,01207.3684,E,1,09,0.9,-5.7,M,41.9,M,,0000*77
$GPGSV,3,1,11,05,23,045,35,07,01,344,12,16,53,294,41,18,74,137,39*70
$GPGSV,3,2,11,20,34,067,36,23,19,147,30,25,00,141,,26,69,240,41*7A
$GPGSV,3,3,11,27,20,272,32,29,35,085,37,31,15,212,40*4F
$GPGLL,5405.6041,N,01207.3684,E,120247.000,A,A*51
$WIMWV,16.9,R,2.5,N,A*1a
$WIMWV,20.7,R,2.5,N,A*11
$WIMWV,25.9,R,2.5,N,A*1a
$WIMWV,32.6,R,2.5,N,A*13
$WIMWV,40.4,R,2.5,N,A*14
$WIMWV,43.9,R,2.9,N,A*16
$WIMWV,46.8,R,2.5,N,A*1e
$WIMWV,47.6,R,2.5,N,A*11
$WIMWV,48.5,R,2.5,N,A*1d
$WIMWV,49.9,R,2.5,N,A*10
$GPRMC,120248.000,A,5405.6050,N,01207.3672,E,3.73,331.00,240521,,,A*66
$GPVTG,331.00,T,,M,3.73,N,6.9,K,A*04
$GPGGA,120248.000,5405.6050,N,01207.3672,E,1,09,0.9,-6.1,M,41.9,M,,0000*74
$GPGSV,3,1,11,05,23,045,25,07,01,344,09,16,53,294,41,18,74,137,41*74
$GPGSV,3,2,11,20,34,067,39,23,19,147,22,25,00,141,,26,69,240,42*75
$GPGSV,3,3,11,27,20,272,32,29,35,085,40,31,15,212,39*41
$GPGLL,5405.6050,N,01207.3672,E,120248.000,A,A*57
$WIMWV,51.0,R,2.5,N,A*10
$WIMWV,57.6,R,2.1,N,A*14
$WIMWV,65.5,R,2.5,N,A*12
$WIMWV,72.9,R,2.1,N,A*1c
$WIMWV,77.1,R,2.1,N,A*11
$WIMWV,77.4,R,2.5,N,A*10
$WIMWV,76.0,R,2.1,N,A*11
$WIMWV,71.8,R,2.1,N,A*1e
$WIMWV,67.6,R,2.1,N,A*17
$WIMWV,61.7,R,2.1,N,A*10
$GPRMC,120249.000,A,5405.6059,N,01207.3663,E,3.62,330.82,240521,,,A*65
$GPVTG,330.82,T,,M,3.62,N,6.7,K,A*01
$GPGGA,120249.000,5405.6059,N,01207.3663,E,1,09,0.9,-6.6,M,41.9,M,,0000*7B
$GPGSV,3,1,11,05,23,045,30,07,01,344,08,16,53,294,41,18,74,137,41*71
$GPGSV,3,2,11,20,34,067,35,23,19,147,29,25,00,141,,26,69,240,44*74
$GPGSV,3,3,11,27,20,272,35,29,35,085,38,31,15,212,41*46
$GPGLL,5405.6059,N,01207.3663,E,120249.000,A,A*5F
$WIMWV,54.3,R,2.1,N,A*12
$WIMWV,45.9,R,1.7,N,A*1d
$WIMWV,37.2,R,2.1,N,A*16
$WIMWV,28.3,R,2.1,N,A*19
$WIMWV,19.3,R,2.1,N,A*1b
$WIMWV,11.5,R,2.1,N,A*15
$WIMWV,5.9,R,2.1,N,A*2c
$WIMWV,1.5,R,1.7,N,A*21
$WIMWV,359.6,R,2.1,N,A*29
$WIMWV,358.7,R,2.1,N,A*29
$GPRMC,120250.000,A,5405.6069,N,01207.3652,E,3.68,329.46,240521,,,A*66
$GPVTG,329.46,T,,M,3.68,N,6.8,K,A*04
$GPGGA,120250.000,5405.6069,N,01207.3652,E,1,09,0.9,-6.7,M,41.9,M,,0000*73
$GPGSV,3,1,11,05,23,045,22,07,01,344,06,16,53,294,40,18,74,137,40*7C
$GPGSV,3,2,11,20,34,067,32,23,19,147,30,25,00,141,,26,69,240,44*7B
$GPGSV,3,3,11,27,20,272,35,29,35,085,38,31,15,212,41*46
$GPGLL,5405.6069,N,01207.3652,E,120250.000,A,A*56
$WIMWV,357.7,R,2.1,N,A*26
$WIMWV,358.8,R,2.1,N,A*26
$WIMWV,359.8,R,1.7,N,A*22
$WIMWV,1.4,R,2.1,N,A*25
$WIMWV,5.8,R,2.1,N,A*2d
$WIMWV,7.6,R,2.1,N,A*21
$WIMWV,9.7,R,2.1,N,A*2e
$WIMWV,11.3,R,2.5,N,A*17
$WIMWV,11.0,R,2.1,N,A*10
$WIMWV,7.1,R,2.1,N,A*26
$GPRMC,120251.000,A,5405.6078,N,01207.3642,E,3.72,328.41,240521,,,A*6B
$GPVTG,328.41,T,,M,3.72,N,6.9,K,A*08
$GPGGA,120251.000,5405.6078,N,01207.3642,E,1,09,0.9,-6.8,M,41.9,M,,0000*7C
$GPGSV,3,1,11,05,23,045,29,07,01,344,06,16,53,294,38,18,74,137,40*78
$GPGSV,3,2,11,20,34,067,31,23,19,147,30,25,00,141,,26,69,240,43*7F
$GPGSV,3,3,11,27,20,272,35,29,35,085,40,31,15,212,41*49
$GPGLL,5405.6078,N,01207.3642,E,120251.000,A,A*56
$WIMWV,2.8,R,2.1,N,A*2a
$WIMWV,358.3,R,2.1,N,A*2d
$WIMWV,353.4,R,2.1,N,A*21
$WIMWV,346.5,R,2.1,N,A*24
$WIMWV,338.8,R,2.1,N,A*20
$WIMWV,328.1,R,2.1,N,A*28
$WIMWV,321.2,R,2.5,N,A*26
$WIMWV,316.8,R,2.1,N,A*2c
$WIMWV,318.1,R,2.5,N,A*2f
$WIMWV,323.7,R,2.1,N,A*25
$GPRMC,120252.000,A,5405.6086,N,01207.3631,E,3.72,327.46,240521,,,A*65
$GPVTG,327.46,T,,M,3.72,N,6.9,K,A*00
$GPGGA,120252.000,5405.6086,N,01207.3631,E,1,09,0.9,-6.9,M,41.9,M,,0000*7B
$GPGSV,3,1,11,05,23,045,29,07,01,344,06,16,53,294,39,18,74,137,40*79
$GPGSV,3,2,11,20,34,067,25,23,19,147,34,25,00,141,,26,69,240,44*79
$GPGSV,3,3,11,27,20,272,35,29,35,085,40,31,15,212,41*49
$GPGLL,5405.6086,N,01207.3631,E,120252.000,A,A*50
$WIMWV,325.8,R,2.5,N,A*28
$WIMWV,330.8,R,2.5,N,A*2c
$WIMWV,334.6,R,2.1,N,A*22
$WIMWV,337.7,R,2.5,N,A*24
$WIMWV,338.7,R,2.5,N,A*2b
$WIMWV,340.2,R,2.5,N,A*21
$WIMWV,345.0,R,2.5,N,A*26
$WIMWV,344.8,R,2.5,N,A*2f
$WIMWV,341.9,R,2.5,N,A*2b
$WIMWV,347.1,R,2.5,N,A*25
$GPRMC,120253.000,A,5405.6095,N,01207.3621,E,3.74,327.45,240521,,,A*62
$GPVTG,327.45,T,,M,3.74,N,6.9,K,A*05
$GPGGA,120253.000,5405.6095,N,01207.3621,E,1,09,0.9,-7.0,M,41.9,M,,0000*71
$GPGSV,3,1,11,05,23,045,32,07,01,344,05,16,53,294,38,18,74,137,39*7F
$GPGSV,3,2,11,20,34,067,29,23,19,147,32,25,00,141,,26,69,240,42*75
$GPGSV,3,3,11,27,20,272,34,29,35,085,37,31,15,212,40*49
$GPGLL,5405.6095,N,01207.3621,E,120253.000,A,A*52
$WIMWV,348.3,R,2.5,N,A*28
$WIMWV,353.5,R,2.9,N,A*28
$WIMWV,355.7,R,2.5,N,A*20
$WIMWV,0.4,R,2.5,N,A*20
$WIMWV,3.3,R,2.9,N,A*28
$WIMWV,8.4,R,2.5,N,A*28
$WIMWV,14.4,R,2.9,N,A*19
$WIMWV,18.9,R,2.5,N,A*14
$WIMWV,24.4,R,2.9,N,A*1a
$WIMWV,31.4,R,2.5,N,A*12
$GPRMC,120254.000,A,5405.6103,N,01207.3611,E,3.76,326.07,240521,,,A*6D
$GPVTG,326.07,T,,M,3.76,N,7.0,K,A*08
$GPGGA,120254.000,5405.6103,N,01207.3611,E,1,09,0.9,-7.0,M,41.9,M,,0000*7B
$GPGSV,3,1,11,05,23,045,31,07,01,344,05,16,53,294,40,18,74,137,40*7D
$GPGSV,3,2,11,20,34,067,31,23,19,147,33,25,00,141,,26,69,240,43*7C
$GPGSV,3,3,11,27,20,272,38,29,35,085,39,31,15,212,40*4B
$GPGLL,5405.6103,N,01207.3611,E,120254.000,A,A*58
$WIMWV,34.0,R,2.9,N,A*1f
$WIMWV,33.6,R,2.5,N,A*12
$WIMWV,33.0,R,2.9,N,A*18
$WIMWV,26.2,R,2.5,N,A*12
$WIMWV,16.6,R,2.9,N,A*19
$WIMWV,4.8,R,2.9,N,A*24
$WIMWV,354.6,R,2.9,N,A*2c
$WIMWV,345.6,R,2.5,N,A*20
$WIMWV,340.8,R,2.9,N,A*27
$WIMWV,339.7,R,2.9,N,A*26
$GPRMC,120255.000,A,5405.6112,N,01207.3600,E,3.78,323.85,240521,,,A*6D
$GPVTG,323.85,T,,M,3.78,N,7.0,K,A*09
$GPGGA,120255.000,5405.6112,N,01207.3600,E,1,09,0.9,-7.1,M,41.9,M,,0000*7B
$GPGSV,3,1,11,05,23,045,32,07,01,344,05,16,53,294,39,18,74,137,40*70
$GPGSV,3,2,11,20,34,067,31,23,19,147,33,25,00,141,,26,69,240,43*7C
$GPGSV,3,3,11,27,20,272,38,29,35,085,40,31,15,212,39*4B
$GPGLL,5405.6112,N,01207.3600,E,120255.000,A,A*59
$WIMWV,343.7,R,2.9,N,A*2b
$WIMWV,351.4,R,3.3,N,A*20
$WIMWV,0.6,R,3.3,N,A*25
$WIMWV,11.0,R,3.3,N,A*13
$WIMWV,14.9,R,3.7,N,A*1b
$WIMWV,14.4,R,3.7,N,A*16
$WIMWV,9.2,R,3.7,N,A*2c
$WIMWV,2.4,R,3.7,N,A*21
$WIMWV,358.8,R,3.7,N,A*21
$WIMWV,354.7,R,3.7,N,A*22
$GPRMC,120256.000,A,5405.6120,N,01207.3590,E,3.75,323.49,240521,,,A*68
$GPVTG,323.49,T,,M,3.75,N,6.9,K,A*0C
$GPGGA,120256.000,5405.6120,N,01207.3590,E,1,09,0.9,-7.1,M,41.9,M,,0000*73
$GPGSV,3,1,11,05,23,045,33,07,01,344,07,16,53,294,41,18,74,137,39*72
$GPGSV,3,2,11,20,34,067,32,23,19,147,33,25,00,141,,26,69,240,44*78
$GPGSV,3,3,11,27,20,272,39,29,35,085,39,31,15,212,41*4B
$GPGLL,5405.6120,N,01207.3590,E,120256.000,A,A*51
$WIMWV,350.6,R,4.1,N,A*26
$WIMWV,347.9,R,4.1,N,A*2f
$WIMWV,349.8,R,4.1,N,A*20
$WIMWV,353.8,R,4.1,N,A*2b
$WIMWV,1.6,R,4.1,N,A*21
$WIMWV,12.8,R,4.5,N,A*19
$WIMWV,19.4,R,4.1,N,A*1a
$WIMWV,14.1,R,4.5,N,A*16
$WIMWV,2.7,R,4.5,N,A*27
$WIMWV,345.6,R,4.9,N,A*2a
$GPRMC,120257.000,A,5405.6128,N,01207.3580,E,3.83,324.40,240521,,,A*67
$GPVTG,324.40,T,,M,3.83,N,7.1,K,A*02
$GPGGA,120257.000,5405.6128,N,01207.3580,E,1,09,0.9,-7.2,M,41.9,M,,0000*78
$GPGSV,3,1,11,05,23,045,33,07,01,344,07,16,53,294,42,18,74,137,40*7F
$GPGSV,3,2,11,20,34,067,33,23,19,147,32,25,00,141,,26,69,240,44*78
$GPGSV,3,3,11,27,20,272,39,29,35,085,40,31,15,212,40*44
$GPGLL,5405.6128,N,01207.3580,E,120257.000,A,A*59
$WIMWV,344.2,R,4.9,N,A*2f
$WIMWV,346.9,R,4.5,N,A*2a
$WIMWV,356.9,R,4.9,N,A*27
$WIMWV,10.6,R,5.3,N,A*12
$WIMWV,18.7,R,5.3,N,A*1b
$WIMWV,16.8,R,5.3,N,A*1a
$WIMWV,6.7,R,5.3,N,A*24
$WIMWV,356.1,R,5.3,N,A*24
$WIMWV,348.8,R,5.7,N,A*26
$WIMWV,351.3,R,5.3,N,A*21
$GPRMC,120258.000,A,5405.6136,N,01207.3569,E,3.80,324.32,240521,,,A*66
$GPVTG,324.32,T,,M,3.80,N,7.0,K,A*05
$GPGGA,120258.000,5405.6136,N,01207.3569,E,1,09,0.9,-7.3,M,41.9,M,,0000*7E
$GPGSV,3,1,11,05,23,045,32,07,01,344,08,16,53,294,39,18,74,137,40*7D
$GPGSV,3,2,11,20,34,067,31,23,19,147,32,25,00,141,,26,69,240,44*7A
$GPGSV,3,3,11,27,20,272,37,29,35,085,38,31,15,212,37*45
$GPGLL,5405.6136,N,01207.3569,E,120258.000,A,A*5E
$WIMWV,359.0,R,5.7,N,A*2e
$WIMWV,2.0,R,5.7,N,A*23
$WIMWV,0.7,R,5.7,N,A*26
$WIMWV,355.4,R,5.3,N,A*22
$WIMWV,349.1,R,5.7,N,A*2e
$WIMWV,348.3,R,6.2,N,A*2b
$WIMWV,347.7,R,5.7,N,A*26
$WIMWV,353.8,R,5.7,N,A*2c
$WIMWV,0.1,R,5.7,N,A*20
$WIMWV,4.1,R,6.1,N,A*21
$GPRMC,120259.000,A,5405.6144,N,01207.3559,E,3.77,323.36,240521,,,A*6A
$GPVTG,323.36,T,,M,3.77,N,7.0,K,A*0E
$GPGGA,120259.000,5405.6144,N,01207.3559,E,1,09,0.9,-7.3,M,41.9,M,,0000*79
$GPGSV,3,1,11,05,23,045,30,07,01,344,08,16,53,294,39,18,74,137,40*7F
$GPGSV,3,2,11,20,34,067,33,23,19,147,32,25,00,141,,26,69,240,43*7F
$GPGSV,3,3,11,27,20,272,39,29,35,085,39,31,15,212,37*4A
$GPGLL,5405.6144,N,01207.3559,E,120259.000,A,A*59
$WIMWV,2.8,R,5.7,N,A*2b
$WIMWV,357.8,R,5.7,N,A*28
$WIMWV,349.2,R,6.1,N,A*28
$WIMWV,348.9,R,5.7,N,A*27
$WIMWV,351.2,R,6.1,N,A*21
$WIMWV,354.0,R,5.7,N,A*23
$WIMWV,1.0,R,5.7,N,A*20
$WIMWV,1.3,R,6.2,N,A*25
$WIMWV,2.7,R,5.7,N,A*24
$WIMWV,356.7,R,5.7,N,A*26
$GPRMC,120300.000,A,5405.6152,N,01207.3548,E,3.81,322.37,240521,,,A*69
$GPVTG,322.37,T,,M,3.81,N,7.1,K,A*06
$GPGGA,120300.000,5405.6152,N,01207.3548,E,1,09,0.9,-7.2,M,41.9,M,,0000*72
$GPGSV,3,1,11,05,23,045,31,07,01,344,08,16,53,294,41,18,74,137,38*7E
$GPGSV,3,2,11,20,34,067,34,23,19,147,32,25,00,141,,26,69,240,43*78
$GPGSV,3,3,11,27,20,272,40,29,35,085,39,31,15,212,37*44
$GPGLL,5405.6152,N,01207.3548,E,120300.000,A,A*53
$WIMWV,352.6,R,5.7,N,A*23
$WIMWV,353.7,R,5.7,N,A*23
$WIMWV,357.2,R,5.3,N,A*26
$WIMWV,2.3,R,5.7,N,A*20
$WIMWV,9.3,R,5.3,N,A*2f
$WIMWV,14.2,R,5.3,N,A*12
$WIMWV,14.6,R,4.9,N,A*1d
$WIMWV,11.8,R,5.3,N,A*1d
$WIMWV,9.5,R,4.9,N,A*22
$WIMWV,7.4,R,4.9,N,A*2d
$GPRMC,120301.000,A,5405.6159,N,01207.3537,E,3.85,321.42,240521,,,A*6E
$GPVTG,321.42,T,,M,3.85,N,7.1,K,A*03
$GPGGA,120301.000,5405.6159,N,01207.3537,E,1,09,0.9,-7.2,M,41.9,M,,0000*70
$GPGSV,3,1,11,05,23,045,31,07,01,344,,16,53,294,41,18,74,137,40*79
$GPGSV,3,2,11,20,34,067,34,23,19,147,31,25,00,141,,26,69,240,43*7B
$GPGSV,3,3,11,27,20,272,41,29,35,085,39,31,15,212,35*47
$GPGLL,5405.6159,N,01207.3537,E,120301.000,A,A*51
$WIMWV,2.9,R,4.9,N,A*25
$WIMWV,5.4,R,4.9,N,A*2f
$WIMWV,7.8,R,4.9,N,A*21
$WIMWV,12.9,R,4.9,N,A*14
$WIMWV,18.3,R,4.5,N,A*18
$WIMWV,23.4,R,4.5,N,A*17
$WIMWV,24.3,R,4.5,N,A*17
$WIMWV,21.6,R,4.5,N,A*17
$WIMWV,18.1,R,4.5,N,A*1a
$WIMWV,12.9,R,4.5,N,A*18
$GPRMC,120302.000,A,5405.6166,N,01207.3526,E,3.87,320.89,240521,,,A*65
$GPVTG,320.89,T,,M,3.87,N,7.2,K,A*04
$GPGGA,120302.000,5405.6166,N,01207.3526,E,1,09,0.9,-7.1,M,41.9,M,,0000*7C
$GPGSV,3,1,11,05,23,045,30,07,01,344,,16,53,294,40,18,74,137,40*79
$GPGSV,3,2,11,20,34,067,35,23,19,147,35,25,00,141,,26,69,240,43*7E
$GPGSV,3,3,11,27,20,272,41,29,35,085,39,31,15,212,35*47
$GPGLL,5405.6166,N,01207.3526,E,120302.000,A,A*5E
$WIMWV,5.5,R,4.5,N,A*22
$WIMWV,359.4,R,4.5,N,A*29
$WIMWV,357.1,R,4.5,N,A*22
$WIMWV,354.7,R,4.5,N,A*27
$WIMWV,358.8,R,4.5,N,A*24
$WIMWV,6.0,R,4.5,N,A*24
$WIMWV,14.0,R,4.5,N,A*17
$WIMWV,20.2,R,4.5,N,A*12
$WIMWV,23.4,R,4.5,N,A*17
$WIMWV,23.1,R,4.9,N,A*1e
$GPRMC,120303.000,A,5405.6174,N,01207.3515,E,3.89,320.69,240521,,,A*67
$GPVTG,320.69,T,,M,3.89,N,7.2,K,A*04
$GPGGA,120303.000,5405.6174,N,01207.3515,E,1,09,0.9,-7.1,M,41.9,M,,0000*7E
$GPGSV,3,1,11,05,23,045,31,07,01,344,,16,53,294,40,18,74,137,38*77
$GPGSV,3,2,11,20,34,067,35,23,19,147,33,25,00,141,,26,69,240,44*7F
$GPGSV,3,3,11,27,20,272,39,29,35,085,40,31,15,212,36*45
$GPGLL,5405.6174,N,01207.3515,E,120303.000,A,A*5C
$WIMWV,22.0,R,4.1,N,A*16
$WIMWV,18.3,R,4.9,N,A*14
$WIMWV,12.9,R,4.1,N,A*1c
$WIMWV,11.9,R,4.5,N,A*1b
$WIMWV,7.9,R,4.5,N,A*2c
$WIMWV,5.6,R,4.1,N,A*25
$WIMWV,3.6,R,4.5,N,A*27
$WIMWV,4.5,R,4.1,N,A*27
$WIMWV,4.3,R,4.5,N,A*25
$WIMWV,6.7,R,4.1,N,A*27
$GPRMC,120304.000,A,5405.6182,N,01207.3504,E,3.88,320.94,240521,,,A*6A
$GPVTG,320.94,T,,M,3.88,N,7.2,K,A*07
$GPGGA,120304.000,5405.6182,N,01207.3504,E,1,09,0.9,-7.1,M,41.9,M,,0000*70
$GPGSV,3,1,11,05,23,045,31,07,01,344,,16,53,294,42,18,74,137,42*78
$GPGSV,3,2,11,20,34,067,35,23,19,147,33,25,00,141,,26,69,240,45*7E
$GPGSV,3,3,11,27,20,272,41,29,35,085,40,31,15,212,38*44
$GPGLL,5405.6182,N,01207.3504,E,120304.000,A,A*52
$WIMWV,12.1,R,4.1,N,A*14
$WIMWV,15.3,R,4.1,N,A*11
$WIMWV,20.2,R,4.5,N,A*12
$WIMWV,22.6,R,4.1,N,A*10
$WIMWV,23.5,R,4.1,N,A*12
$WIMWV,24.1,R,4.1,N,A*11
$WIMWV,24.9,R,4.1,N,A*19
$WIMWV,27.0,R,4.1,N,A*13
$WIMWV,27.1,R,4.1,N,A*12
$WIMWV,27.3,R,4.5,N,A*14
$GPRMC,120305.000,A,5405.6189,N,01207.3492,E,3.89,321.46,240521,,,A*61
$GPVTG,321.46,T,,M,3.89,N,7.2,K,A*08
$GPGGA,120305.000,5405.6189,N,01207.3492,E,1,09,0.9,-7.1,M,41.9,M,,0000*74
$GPGSV,3,1,11,05,23,045,32,07,01,344,,16,53,294,41,18,74,137,41*7B
$GPGSV,3,2,11,20,34,067,37,23,19,147,34,25,00,141,,26,69,240,45*7B
$GPGSV,3,3,11,27,20,272,42,29,35,085,40,31,15,212,38*47
$GPGLL,5405.6189,N,01207.3492,E,120305.000,A,A*56
$WIMWV,24.6,R,4.1,N,A*16
$WIMWV,23.3,R,4.1,N,A*14
$WIMWV,20.6,R,4.1,N,A*12
$WIMWV,22.6,R,4.1,N,A*10
$WIMWV,25.7,R,4.1,N,A*16
$WIMWV,31.0,R,4.5,N,A*10
$WIMWV,36.7,R,4.1,N,A*14
$WIMWV,39.8,R,4.1,N,A*14
$WIMWV,36.4,R,4.5,N,A*13
$WIMWV,31.4,R,4.1,N,A*10
$GPRMC,120306.000,A,5405.6197,N,01207.3481,E,3.88,321.39,240521,,,A*66
$GPVTG,321.39,T,,M,3.88,N,7.2,K,A*01
$GPGGA,120306.000,5405.6197,N,01207.3481,E,1,09,0.9,-7.1,M,41.9,M,,0000*7A
$GPGSV,3,1,11,05,23,045,31,07,01,344,,16,53,294,40,18,74,137,40*78
$GPGSV,3,2,11,20,34,067,37,23,19,147,32,25,00,141,,26,69,240,43*7B
$GPGSV,3,3,11,27,20,272,40,29,35,085,39,31,15,212,37*44
$GPGLL,5405.6197,N,01207.3481,E,120306.000,A,A*58
$WIMWV,24.3,R,4.5,N,A*17
$WIMWV,18.7,R,4.5,N,A*1c
$WIMWV,18.4,R,4.5,N,A*1f
$WIMWV,20.1,R,4.9,N,A*1d
$WIMWV,22.7,R,4.9,N,A*19
$WIMWV,24.4,R,5.3,N,A*17
$WIMWV,26.2,R,4.9,N,A*18
$WIMWV,29.5,R,5.3,N,A*1b
$WIMWV,33.2,R,4.9,N,A*1c
$WIMWV,36.7,R,5.3,N,A*17
$GPRMC,120307.000,A,5405.6205,N,01207.3470,E,3.91,321.28,240521,,,A*69
$GPVTG,321.28,T,,M,3.91,N,7.2,K,A*09
$GPGGA,120307.000,5405.6205,N,01207.3470,E,1,09,0.9,-7.1,M,41.9,M,,0000*7D
$GPGSV,3,1,11,05,23,045,30,07,01,344,,16,53,294,42,18,74,137,41*7A
$GPGSV,3,2,11,20,34,067,36,23,19,147,32,25,00,141,,26,69,240,44*7D
$GPGSV,3,3,11,27,20,272,40,29,35,085,38,31,15,212,37*45
$GPGLL,5405.6205,N,01207.3470,E,120307.000,A,A*5F
$WIMWV,35.4,R,5.3,N,A*17
$WIMWV,29.8,R,5.7,N,A*12
$WIMWV,27.0,R,5.3,N,A*10
$WIMWV,26.7,R,5.3,N,A*16
$WIMWV,25.4,R,5.3,N,A*16
$WIMWV,19.3,R,5.3,N,A*1e
$WIMWV,13.0,R,4.9,N,A*1c
$WIMWV,4.6,R,4.9,N,A*2c
$WIMWV,1.0,R,4.5,N,A*23
$WIMWV,359.0,R,4.9,N,A*21
$GPRMC,120308.000,A,5405.6212,N,01207.3459,E,3.91,321.07,240521,,,A*66
$GPVTG,321.07,T,,M,3.91,N,7.2,K,A*04
$GPGGA,120308.000,5405.6212,N,01207.3459,E,1,09,0.9,-7.0,M,41.9,M,,0000*7E
$GPGSV,3,1,11,05,23,045,29,07,01,344,,16,53,294,42,18,74,137,39*7D
$GPGSV,3,2,11,20,34,067,36,23,19,147,33,25,00,141,,26,69,240,43*7B
$GPGSV,3,3,11,27,20,272,39,29,35,085,38,31,15,212,35*49
$GPGLL,5405.6212,N,01207.3459,E,120308.000,A,A*5D
$WIMWV,0.8,R,4.1,N,A*2e
$WIMWV,9.3,R,4.5,N,A*28
$WIMWV,19.1,R,4.5,N,A*1b
$WIMWV,28.7,R,4.1,N,A*1b
$WIMWV,37.0,R,4.1,N,A*12
$WIMWV,36.8,R,4.1,N,A*1b
$WIMWV,35.0,R,4.1,N,A*10
$WIMWV,31.6,R,3.7,N,A*13
$WIMWV,26.1,R,3.7,N,A*12
$WIMWV,17.2,R,3.7,N,A*13
$GPRMC,120309.000,A,5405.6220,N,01207.3447,E,3.91,320.21,240521,,,A*6C
$GPVTG,320.21,T,,M,3.91,N,7.2,K,A*01
$GPGGA,120309.000,5405.6220,N,01207.3447,E,1,09,0.9,-7.0,M,41.9,M,,0000*71
$GPGSV,3,1,11,05,23,045,21,07,01,344,,16,53,294,42,18,74,137,38*74
$GPGSV,3,2,11,20,34,067,39,23,19,147,35,25,00,141,,26,69,240,42*73
$GPGSV,3,3,11,27,20,272,37,29,35,085,37,31,15,212,31*4C
$GPGLL,5405.6220,N,01207.3447,E,120309.000,A,A*52
$WIMWV,9.6,R,3.3,N,A*2c
$WIMWV,2.3,R,3.7,N,A*26
$WIMWV,357.5,R,3.3,N,A*27
$WIMWV,355.5,R,3.3,N,A*25
$WIMWV,1.4,R,3.3,N,A*26
$WIMWV,10.8,R,3.3,N,A*1a
$WIMWV,25.2,R,2.9,N,A*1d
$WIMWV,34.9,R,3.3,N,A*1d
$WIMWV,40.8,R,2.9,N,A*14
$WIMWV,40.7,R,3.3,N,A*10
$GPRMC,120310.000,A,5405.6228,N,01207.3434,E,4.00,318.95,240521,,,A*63
$GPVTG,318.95,T,,M,4.00,N,7.4,K,A*0C
$GPGGA,120310.000,5405.6228,N,01207.3434,E,1,08,1.1,-6.9,M,41.9,M,,0000*75
$GPGSV,3,1,11,05,23,045,,07,01,344,,16,53,294,41,18,74,137,40*7B
$GPGSV,3,2,11,20,34,067,39,23,19,147,38,25,00,141,,26,69,240,43*7F
$GPGSV,3,3,11,27,20,272,39,29,35,085,35,31,15,212,23*43
$GPGLL,5405.6228,N,01207.3434,E,120310.000,A,A*56
$WIMWV,39.5,R,2.9,N,A*17
$WIMWV,34.6,R,2.9,N,A*19
$WIMWV,30.3,R,2.9,N,A*18
$WIMWV,27.2,R,2.9,N,A*1f
$WIMWV,25.4,R,2.9,N,A*1b
$WIMWV,29.2,R,2.5,N,A*1d
$WIMWV,31.4,R,2.9,N,A*1e
$WIMWV,35.9,R,2.5,N,A*1b
$WIMWV,41.6,R,2.5,N,A*17
$WIMWV,48.5,R,2.5,N,A*1d
$GPRMC,120311.000,A,5405.6236,N,01207.3422,E,3.98,318.04,240521,,,A*64
$GPVTG,318.04,T,,M,3.98,N,7.4,K,A*02
$GPGGA,120311.000,5405.6236,N,01207.3422,E,1,09,1.1,-6.9,M,41.9,M,,0000*7D
$GPGSV,3,1,11,05,23,045,23,07,01,344,,16,53,294,42,18,74,137,41*78
$GPGSV,3,2,11,20,34,067,41,23,19,147,37,25,00,141,,26,69,240,44*78
$GPGSV,3,3,11,27,20,272,40,29,35,085,37,31,15,212,34*49
$GPGLL,5405.6236,N,01207.3422,E,120311.000,A,A*5F
$WIMWV,53.2,R,2.5,N,A*10
$WIMWV,57.9,R,2.5,N,A*1f
$WIMWV,59.2,R,2.1,N,A*1e
$WIMWV,60.4,R,2.5,N,A*16
$WIMWV,59.4,R,2.1,N,A*18
$WIMWV,58.2,R,2.1,N,A*1f
$WIMWV,52.8,R,2.1,N,A*1f
$WIMWV,45.3,R,2.1,N,A*12
$WIMWV,36.3,R,2.1,N,A*16
$WIMWV,22.9,R,2.1,N,A*19
$GPRMC,120312.000,A,5405.6244,N,01207.3409,E,3.93,318.28,240521,,,A*6E
$GPVTG,318.28,T,,M,3.93,N,7.3,K,A*00
$GPGGA,120312.000,5405.6244,N,01207.3409,E,1,09,1.1,-6.8,M,41.9,M,,0000*73
$GPGSV,3,1,11,05,23,045,25,07,01,344,,16,53,294,41,18,74,137,38*73
$GPGSV,3,2,11,20,34,067,39,23,19,147,35,25,00,141,,26,69,240,43*72
$GPGSV,3,3,11,27,20,272,39,29,35,085,38,31,15,212,34*48
$GPGLL,5405.6244,N,01207.3409,E,120312.000,A,A*50
$WIMWV,8.9,R,2.1,N,A*21
$WIMWV,356.0,R,2.1,N,A*20
$WIMWV,344.9,R,2.1,N,A*2a
$WIMWV,335.3,R,1.7,N,A*23
$WIMWV,330.3,R,2.1,N,A*23
$WIMWV,328.7,R,2.1,N,A*2e
$WIMWV,329.2,R,2.1,N,A*2a
$WIMWV,331.4,R,2.1,N,A*25
$WIMWV,336.1,R,2.1,N,A*27
$WIMWV,341.3,R,2.1,N,A*25
$GPRMC,120313.000,A,5405.6252,N,01207.3397,E,3.98,318.46,240521,,,A*6B
$GPVTG,318.46,T,,M,3.98,N,7.4,K,A*04
$GPGGA,120313.000,5405.6252,N,01207.3397,E,1,09,0.9,-6.8,M,41.9,M,,0000*7C
$GPGSV,3,1,11,05,23,045,24,07,01,344,,16,53,294,41,18,74,137,38*72
$GPGSV,3,2,11,20,34,067,38,23,19,147,35,25,00,141,,26,69,240,43*73
$GPGSV,3,3,11,27,20,272,39,29,35,085,36,31,15,212,31*43
$GPGLL,5405.6252,N,01207.3397,E,120313.000,A,A*56
$WIMWV,343.7,R,2.1,N,A*23
$WIMWV,349.8,R,2.1,N,A*26
$WIMWV,356.4,R,1.7,N,A*21
$WIMWV,1.5,R,2.1,N,A*24
$WIMWV,4.7,R,2.1,N,A*23
$WIMWV,6.9,R,1.7,N,A*2a
$WIMWV,8.1,R,2.1,N,A*29
$WIMWV,8.1,R,1.7,N,A*2c
$WIMWV,6.6,R,2.1,N,A*20
$WIMWV,4.7,R,1.7,N,A*26
$GPRMC,120314.000,A,5405.6260,N,01207.3384,E,3.96,318.07,240521,,,A*64
$GPVTG,318.07,T,,M,3.96,N,7.3,K,A*08
$GPGGA,120314.000,5405.6260,N,01207.3384,E,1,09,0.9,-6.8,M,41.9,M,,0000*78
$GPGSV,3,1,11,05,23,045,22,07,01,344,,16,53,294,41,18,74,137,38*74
$GPGSV,3,2,11,20,34,067,38,23,19,147,37,25,00,141,,26,69,240,43*71
$GPGSV,3,3,11,27,20,272,38,29,35,085,32,31,15,212,34*43
$GPGLL,5405.6260,N,01207.3384,E,120314.000,A,A*52
$WIMWV,0.3,R,2.1,N,A*23
$WIMWV,355.8,R,1.7,N,A*2e
$WIMWV,350.0,R,2.1,N,A*26
$WIMWV,343.3,R,1.7,N,A*22
$WIMWV,335.0,R,2.1,N,A*25
$WIMWV,327.8,R,1.7,N,A*2b
$WIMWV,317.9,R,1.7,N,A*29
$WIMWV,308.3,R,2.1,N,A*28
$WIMWV,304.6,R,1.7,N,A*24
$WIMWV,306.9,R,2.1,N,A*2c
$GPRMC,120315.000,A,5405.6268,N,01207.3371,E,3.97,317.69,240521,,,A*61
$GPVTG,317.69,T,,M,3.97,N,7.4,K,A*09
$GPGGA,120315.000,5405.6268,N,01207.3371,E,1,09,0.9,-6.7,M,41.9,M,,0000*74
$GPGSV,3,1,11,05,23,045,20,07,01,344,,16,53,294,42,18,74,137,38*75
$GPGSV,3,2,11,20,34,067,38,23,19,147,36,25,00,141,,26,69,240,42*71
$GPGSV,3,3,11,27,20,272,38,29,35,085,31,31,15,212,30*44
$GPGLL,5405.6268,N,01207.3371,E,120315.000,A,A*51
$WIMWV,309.7,R,2.1,N,A*2d
$WIMWV,312.8,R,1.7,N,A*2d
$WIMWV,318.3,R,2.1,N,A*29
$WIMWV,329.7,R,1.7,N,A*2a
$WIMWV,341.2,R,2.1,N,A*24
$WIMWV,354.4,R,2.1,N,A*26
$WIMWV,6.7,R,2.1,N,A*21
$WIMWV,19.4,R,1.7,N,A*19
$WIMWV,25.8,R,2.1,N,A*1f
$WIMWV,28.5,R,2.1,N,A*1f
$GPRMC,120316.000,A,5405.6276,N,01207.3359,E,3.98,317.45,240521,,,A*66
$GPVTG,317.45,T,,M,3.98,N,7.4,K,A*08
$GPGGA,120316.000,5405.6276,N,01207.3359,E,1,09,0.9,-6.6,M,41.9,M,,0000*73
$GPGSV,3,1,11,05,23,045,22,07,01,344,,16,53,294,42,18,74,137,38*77
$GPGSV,3,2,11,20,34,067,38,23,19,147,35,25,00,141,,26,69,240,43*73
$GPGSV,3,3,11,27,20,272,39,29,35,085,31,31,15,212,37*42
$GPGLL,5405.6276,N,01207.3359,E,120316.000,A,A*57
$WIMWV,28.2,R,2.1,N,A*18
$WIMWV,23.1,R,1.7,N,A*15
$WIMWV,15.3,R,2.1,N,A*17
$WIMWV,6.7,R,2.1,N,A*21
$WIMWV,355.6,R,2.1,N,A*25
$WIMWV,342.8,R,1.7,N,A*28
$WIMWV,330.1,R,2.1,N,A*21
$WIMWV,317.9,R,2.1,N,A*2c
$WIMWV,315.2,R,1.7,N,A*20
$WIMWV,314.0,R,2.1,N,A*26
$GPRMC,120317.000,A,5405.6284,N,01207.3346,E,3.95,317.08,240521,,,A*60
$GPVTG,317.08,T,,M,3.95,N,7.3,K,A*0B
$GPGGA,120317.000,5405.6284,N,01207.3346,E,1,09,0.9,-6.5,M,41.9,M,,0000*72
$GPGSV,3,1,11,05,23,045,22,07,01,344,,16,53,294,40,18,74,137,38*75
$GPGSV,3,2,11,20,34,067,38,23,19,147,35,25,00,141,,26,69,240,42*72
$GPGSV,3,3,11,27,20,272,37,29,35,085,30,31,15,212,32*48
$GPGLL,5405.6284,N,01207.3346,E,120317.000,A,A*55
$WIMWV,318.3,R,2.1,N,A*29
$WIMWV,324.1,R,1.7,N,A*21
$WIMWV,333.6,R,2.1,N,A*25
$WIMWV,344.3,R,1.7,N,A*25
$WIMWV,358.7,R,2.1,N,A*29
$WIMWV,11.8,R,1.7,N,A*1d
$WIMWV,21.2,R,2.1,N,A*11
$WIMWV,27.3,R,1.7,N,A*13
$WIMWV,27.6,R,2.1,N,A*13
$WIMWV,22.3,R,2.1,N,A*13
$GPRMC,120318.000,A,5405.6292,N,01207.3333,E,4.03,317.21,240521,,,A*69
$GPVTG,317.21,T,,M,4.03,N,7.5,K,A*0E
$GPGGA,120318.000,5405.6292,N,01207.3333,E,1,09,0.9,-6.5,M,41.9,M,,0000*78
$GPGSV,3,1,11,05,23,045,25,07,01,344,,16,53,294,41,18,74,137,41*7D
$GPGSV,3,2,11,20,34,067,36,23,19,147,37,25,00,141,,26,69,240,41*7D
$GPGSV,3,3,11,27,20,272,37,29,35,085,31,31,15,212,23*49
$GPGLL,5405.6292,N,01207.3333,E,120318.000,A,A*5F
$WIMWV,14.4,R,2.1,N,A*11
$WIMWV,1.0,R,2.1,N,A*21
$WIMWV,346.0,R,2.1,N,A*21
$WIMWV,335.9,R,2.1,N,A*2c
$WIMWV,324.6,R,2.1,N,A*23
$WIMWV,315.3,R,2.1,N,A*24
$WIMWV,311.4,R,2.5,N,A*23
$WIMWV,312.0,R,2.1,N,A*20
$WIMWV,322.3,R,2.1,N,A*20
$WIMWV,333.6,R,2.9,N,A*2d
$GPRMC,120319.000,A,5405.6300,N,01207.3319,E,4.08,316.74,240521,,,A*60
$GPVTG,316.74,T,,M,4.08,N,7.6,K,A*07
$GPGGA,120319.000,5405.6300,N,01207.3319,E,1,09,0.9,-6.5,M,41.9,M,,0000*7B
$GPGSV,3,1,11,05,23,044,27,07,01,344,,16,53,294,41,18,74,137,40*7F
$GPGSV,3,2,11,20,34,067,40,23,19,147,38,25,00,141,,26,69,240,43*71
$GPGSV,3,3,11,27,21,272,39,29,35,085,30,31,15,212,31*44
$GPGLL,5405.6300,N,01207.3319,E,120319.000,A,A*5C
$WIMWV,352.3,R,2.9,N,A*2f
$WIMWV,3.4,R,3.7,N,A*20
$WIMWV,356.8,R,4.5,N,A*2a
$WIMWV,344.7,R,4.9,N,A*2a
$WIMWV,337.6,R,5.3,N,A*24
$WIMWV,339.3,R,5.3,N,A*2f
$WIMWV,337.5,R,6.1,N,A*26
$WIMWV,351.0,R,6.1,N,A*23
$WIMWV,358.0,R,5.7,N,A*2f
$WIMWV,0.6,R,6.2,N,A*21
$GPRMC,120320.000,A,5405.6309,N,01207.3306,E,4.01,316.95,240521,,,A*6B
$GPVTG,316.95,T,,M,4.01,N,7.4,K,A*03
$GPGGA,120320.000,5405.6309,N,01207.3306,E,1,09,0.9,-6.6,M,41.9,M,,0000*75
$GPGSV,3,1,11,05,23,044,28,07,01,344,,16,53,294,40,18,74,137,40*71
$GPGSV,3,2,11,20,34,067,37,23,19,147,39,25,00,141,,26,69,240,42*71
$GPGSV,3,3,11,27,21,272,34,29,35,085,35,31,15,212,32*4F
$GPGLL,5405.6309,N,01207.3306,E,120320.000,A,A*51
$WIMWV,1.4,R,5.7,N,A*24
$WIMWV,5.4,R,6.1,N,A*25
$WIMWV,5.9,R,5.7,N,A*2d
$WIMWV,5.2,R,5.7,N,A*26
$WIMWV,4.5,R,5.7,N,A*20
$WIMWV,1.6,R,5.3,N,A*22
$WIMWV,358.8,R,5.3,N,A*23
$WIMWV,356.9,R,5.3,N,A*2c
$WIMWV,355.5,R,5.3,N,A*23
$WIMWV,354.3,R,5.7,N,A*20
$GPRMC,120321.000,A,5405.6317,N,01207.3292,E,4.04,317.22,240521,,,A*61
$GPVTG,317.22,T,,M,4.04,N,7.5,K,A*0A
$GPGGA,120321.000,5405.6317,N,01207.3292,E,1,09,0.9,-6.6,M,41.9,M,,0000*77
$GPGSV,3,1,11,05,23,044,27,07,01,344,,16,53,294,40,18,74,137,39*70
$GPGSV,3,2,11,20,34,067,38,23,19,147,37,25,00,141,,26,69,240,42*70
$GPGSV,3,3,11,27,21,272,25,29,35,085,36,31,15,212,26*49
$GPGLL,5405.6317,N,01207.3292,E,120321.000,A,A*53
$WIMWV,355.7,R,5.3,N,A*21
$WIMWV,357.2,R,5.7,N,A*22
$WIMWV,359.8,R,5.3,N,A*22
$WIMWV,3.8,R,5.7,N,A*2a
$WIMWV,2.7,R,5.3,N,A*20
$WIMWV,356.5,R,5.7,N,A*24
$WIMWV,354.6,R,5.3,N,A*21
$WIMWV,353.9,R,5.3,N,A*29
$WIMWV,0.4,R,5.7,N,A*25
$GPRMC,120322.000,A,5405.6325,N,01207.3279,E,3.99,316.91,240521,,,A*6C
$GPVTG,316.91,T,,M,3.99,N,7.4,K,A*01
$GPGGA,120322.000,5405.6325,N,01207.3279,E,1,09,0.9,-6.6,M,41.9,M,,0000*70
$GPGSV,3,1,11,05,23,044,27,07,01,344,,16,53,294,43,18,74,137,39*73
$GPGSV,3,2,11,20,34,067,39,23,19,147,37,25,00,141,,26,69,240,43*70
$GPGSV,3,3,11,27,21,272,31,29,35,085,38,31,15,212,26*42
$GPGLL,5405.6325,N,01207.3279,E,120322.000,A,A*54
$WIMWV,8.1,R,5.3,N,A*2c
$WIMWV,18.7,R,5.7,N,A*1f
$WIMWV,18.8,R,5.7,N,A*10
$WIMWV,7.5,R,5.7,N,A*23
$WIMWV,359.4,R,5.7,N,A*2a
$WIMWV,356.7,R,6.1,N,A*23
$WIMWV,5.9,R,6.5,N,A*2c
$WIMWV,12.5,R,6.6,N,A*15
$WIMWV,16.2,R,6.5,N,A*15
$WIMWV,18.4,R,6.6,N,A*1e
$WIMWV,18.7,R,6.5,N,A*1e
$GPRMC,120323.000,A,5405.6333,N,01207.3266,E,4.01,316.32,240521,,,A*6B
$GPVTG,316.32,T,,M,4.01,N,7.4,K,A*0E
$GPGGA,120323.000,5405.6333,N,01207.3266,E,1,09,0.9,-6.7,M,41.9,M,,0000*79
$GPGSV,3,1,11,05,23,044,24,07,01,344,,16,53,294,42,18,74,137,39*71
$GPGSV,3,2,11,20,34,067,39,23,19,147,35,25,00,141,,26,69,240,43*72
$GPGSV,3,3,11,27,21,272,36,29,35,085,36,31,15,212,28*45
$GPGLL,5405.6333,N,01207.3266,E,120323.000,A,A*5C
$WIMWV,14.5,R,6.5,N,A*10
$WIMWV,13.9,R,7.0,N,A*1f
$WIMWV,18.5,R,7.0,N,A*18
$WIMWV,24.1,R,7.0,N,A*13
$WIMWV,23.6,R,7.4,N,A*17
$WIMWV,20.0,R,7.0,N,A*16
$WIMWV,18.1,R,7.4,N,A*18
$WIMWV,28.0,R,7.4,N,A*1a
$WIMWV,41.2,R,7.8,N,A*1b
$WIMWV,51.4,R,7.4,N,A*10
$GPRMC,120324.000,A,5405.6342,N,01207.3252,E,4.04,315.26,240521,,,A*6E
$GPVTG,315.26,T,,M,4.04,N,7.5,K,A*0C
$GPGGA,120324.000,5405.6342,N,01207.3252,E,1,09,0.9,-6.7,M,41.9,M,,0000*7F
$GPGSV,3,1,11,05,23,044,30,07,01,344,,16,53,294,46,18,74,137,37*7E
$GPGSV,3,2,11,20,34,067,40,23,19,147,37,25,00,141,,26,69,240,45*78
$GPGSV,3,3,11,27,21,272,35,29,35,085,34,31,15,212,38*45
$GPGLL,5405.6342,N,01207.3252,E,120324.000,A,A*5A
$WIMWV,54.2,R,7.8,N,A*1f
$WIMWV,53.5,R,7.4,N,A*13
$WIMWV,51.3,R,7.8,N,A*1b
$WIMWV,56.0,R,7.4,N,A*13
$WIMWV,63.1,R,7.4,N,A*14
$WIMWV,68.6,R,7.4,N,A*18
$WIMWV,67.7,R,7.4,N,A*16
$WIMWV,65.9,R,7.4,N,A*1a
$WIMWV,65.7,R,7.8,N,A*18
$GPRMC,120325.000,A,5405.6350,N,01207.3239,E,4.08,313.91,240521,,,A*67
$GPVTG,313.91,T,,M,4.08,N,7.6,K,A*09
$GPGGA,120325.000,5405.6350,N,01207.3239,E,1,09,0.9,-6.6,M,41.9,M,,0000*71
$GPGSV,3,1,11,05,23,044,36,07,01,344,,16,53,294,46,18,74,137,35*7A
$GPGSV,3,2,11,20,34,067,38,23,19,147,33,25,00,141,,26,69,240,45*73
$GPGSV,3,3,11,27,21,272,35,29,35,085,35,31,15,212,35*49
$WIMWV,62.5,R,7.8,N,A*1d
$GPGLL,5405.6350,N,01207.3239,E,120325.000,A,A*55
$WIMWV,58.7,R,7.4,N,A*1a
$WIMWV,56.2,R,7.8,N,A*1d
$WIMWV,56.4,R,7.4,N,A*17
$WIMWV,58.8,R,7.4,N,A*15
$WIMWV,61.8,R,7.4,N,A*1f
$WIMWV,64.7,R,7.4,N,A*15
$WIMWV,68.4,R,7.8,N,A*16
$WIMWV,68.0,R,7.4,N,A*1e
$WIMWV,57.1,R,7.8,N,A*1f
$GPRMC,120326.000,A,5405.6357,N,01207.3225,E,4.07,311.62,240521,,,A*6F
$GPVTG,311.62,T,,M,4.07,N,7.5,K,A*0B
$GPGGA,120326.000,5405.6357,N,01207.3225,E,1,09,0.9,-6.6,M,41.9,M,,0000*78
$GPGSV,3,1,11,05,23,044,38,07,01,344,,16,53,294,43,18,74,137,27*72
$GPGSV,3,2,11,20,34,067,36,23,19,147,37,25,00,141,,26,69,240,43*7F
$GPGSV,3,3,11,27,21,272,35,29,35,085,36,31,15,212,38*47
$WIMWV,47.7,R,7.4,N,A*14
$GPGLL,5405.6357,N,01207.3225,E,120326.000,A,A*5C
$WIMWV,45.5,R,7.4,N,A*14
$WIMWV,50.8,R,7.4,N,A*1d
$WIMWV,55.3,R,7.4,N,A*13
$WIMWV,59.9,R,7.0,N,A*11
$WIMWV,57.6,R,7.4,N,A*14
$WIMWV,52.1,R,7.0,N,A*12
$WIMWV,51.4,R,7.0,N,A*14
$WIMWV,52.3,R,7.0,N,A*10
$WIMWV,54.6,R,7.0,N,A*13
$GPRMC,120327.000,A,5405.6365,N,01207.3210,E,4.05,309.62,240521,,,A*62
$GPVTG,309.62,T,,M,4.05,N,7.5,K,A*00
$GPGGA,120327.000,5405.6365,N,01207.3210,E,1,09,0.9,-6.6,M,41.9,M,,0000*7E
$GPGSV,3,1,11,05,23,044,34,07,01,344,,16,53,294,40,18,74,137,30*7B
$GPGSV,3,2,11,20,34,067,39,23,19,147,39,25,00,141,,26,69,240,42*7F
$GPGSV,3,3,11,27,21,272,36,29,35,085,34,31,15,212,40*49
$GPGLL,5405.6365,N,01207.3210,E,120327.000,A,A*5A
$WIMWV,60.2,R,7.0,N,A*10
$WIMWV,63.6,R,7.4,N,A*13
$WIMWV,66.6,R,7.0,N,A*12
$WIMWV,66.8,R,7.4,N,A*18
$WIMWV,65.8,R,7.0,N,A*1f
$WIMWV,69.9,R,7.4,N,A*16
$WIMWV,73.8,R,7.4,N,A*1c
$WIMWV,69.5,R,7.0,N,A*1e
$WIMWV,62.1,R,7.4,N,A*15
$WIMWV,61.9,R,7.8,N,A*12
$GPRMC,120328.000,A,5405.6372,N,01207.3194,E,4.14,306.16,240521,,,A*68
$GPVTG,306.16,T,,M,4.14,N,7.7,K,A*0E
$GPGGA,120328.000,5405.6372,N,01207.3194,E,1,09,0.9,-6.5,M,41.9,M,,0000*7B
$GPGSV,3,1,11,05,23,044,30,07,01,344,,16,53,294,41,18,74,137,31*7F
$GPGSV,3,2,11,20,34,067,41,23,19,147,37,25,00,141,,26,69,240,42*7E
$GPGSV,3,3,11,27,21,272,35,29,35,085,29,31,15,212,40*46
$GPGLL,5405.6372,N,01207.3194,E,120328.000,A,A*5C
$WIMWV,66.7,R,7.4,N,A*17
$WIMWV,70.5,R,7.8,N,A*1e
$WIMWV,67.6,R,7.4,N,A*17
$WIMWV,62.5,R,8.2,N,A*18
$WIMWV,60.2,R,8.6,N,A*19
$WIMWV,58.6,R,8.6,N,A*16
$WIMWV,61.7,R,9.0,N,A*1a
$WIMWV,66.1,R,9.4,N,A*1f
$WIMWV,66.0,R,9.4,N,A*1e
$WIMWV,64.9,R,9.4,N,A*15
$GPRMC,120329.000,A,5405.6379,N,01207.3178,E,4.16,304.50,240521,,,A*62
$GPVTG,304.50,T,,M,4.16,N,7.7,K,A*0C
$GPGGA,120329.000,5405.6379,N,01207.3178,E,1,09,0.9,-6.5,M,41.9,M,,0000*73
$GPGSV,3,1,11,05,23,044,27,07,01,344,,16,53,294,40,18,74,137,28*70
$GPGSV,3,2,11,20,34,067,39,23,19,147,37,25,00,141,,26,69,240,40*73
