$GPRMC,124933.000,A,5405.9637,N,01206.4050,E,1.79,267.67,310521,,,A*62
$GPVTG,267.67,T,,M,1.79,N,3.3,K,A*00
$GPGGA,124933.000,5405.9637,N,01206.4050,E,1,12,0.8,-6.6,M,41.9,M,,0000*73
$GPGSA,A,3,16,18,27,23,26,10,08,07,20,15,13,29,1.5,0.8,1.3*33
$GPGSV,4,1,14,05,01,026,29,07,15,321,38,08,19,287,24,10,30,160,26*70
$GPGSV,4,2,14,13,08,037,33,15,11,067,30,16,64,226,30,18,53,067,34*7B
$GPGSV,4,3,14,20,11,037,32,23,48,122,41,26,43,190,37,27,52,286,37*70
$GPGSV,4,4,14,29,06,103,20,30,00,353,*77
$GPGLL,5405.9637,N,01206.4050,E,124933.000,A,A*5C
$GPRMC,124934.000,A,5405.9637,N,01206.4040,E,1.87,266.39,310521,,,A*6F
$GPVTG,266.39,T,,M,1.87,N,3.5,K,A*0D
$GPGGA,124934.000,5405.9637,N,01206.4040,E,1,12,0.8,-6.5,M,41.9,M,,0000*76
$GPGSA,A,3,16,18,27,23,26,10,08,07,20,15,13,29,1.5,0.8,1.3*33
$GPGSV,4,1,14,05,01,026,28,07,15,321,38,08,19,287,31,10,30,160,32*70
$GPGSV,4,2,14,13,08,037,26,15,11,067,28,16,64,226,34,18,53,067,28*7F
$GPGSV,4,3,14,20,11,037,27,23,48,122,38,26,43,190,34,27,53,287,38*76
$GPGSV,4,4,14,29,06,103,22,30,00,353,*75
$GPGLL,5405.9637,N,01206.4040,E,124934.000,A,A*5A
$GPRMC,124935.000,A,5405.9637,N,01206.4031,E,2.01,265.03,310521,,,A*6F
$GPVTG,265.03,T,,M,2.01,N,3.7,K,A*08
$GPGGA,124935.000,5405.9637,N,01206.4031,E,1,12,0.8,-6.5,M,41.9,M,,0000*71
$GPGSA,A,3,16,18,27,23,26,10,08,07,20,15,13,29,1.5,0.8,1.3*33
$GPGSV,4,1,14,05,01,026,25,07,15,321,33,08,19,287,32,10,30,160,35*72
$GPGSV,4,2,14,13,08,037,26,15,11,067,19,16,64,226,36,18,53,067,36*70
$GPGSV,4,3,14,20,11,037,24,23,48,122,34,26,43,190,34,27,53,287,40*76
$GPGSV,4,4,14,29,06,103,19,30,00,353,*7D
$GPGLL,5405.9637,N,01206.4031,E,124935.000,A,A*5D
$GPRMC,124936.000,A,5405.9636,N,01206.4021,E,2.14,264.10,310521,,,A*6B
$GPVTG,264.10,T,,M,2.14,N,4.0,K,A*0F
$GPGGA,124936.000,5405.9636,N,01206.4021,E,1,12,0.8,-6.6,M,41.9,M,,0000*71
$GPGSA,A,3,16,18,27,23,26,10,08,07,20,15,13,29,1.5,0.8,1.3*33
$GPGSV,4,1,14,05,01,026,23,07,15,321,33,08,19,287,35,10,30,160,34*72
$GPGSV,4,2,14,13,08,037,26,15,11,067,29,16,64,226,36,18,53,067,36*73
$GPGSV,4,3,14,20,11,037,25,23,48,122,33,26,43,190,34,27,53,287,40*70
$GPGSV,4,4,14,29,05,103,18,30,00,353,*7F
$GPGLL,5405.9636,N,01206.4021,E,124936.000,A,A*5E
$GPRMC,124937.000,A,5405.9637,N,01206.4009,E,2.21,265.70,310521,,,A*60
$GPVTG,265.70,T,,M,2.21,N,4.1,K,A*0F
$GPGGA,124937.000,5405.9637,N,01206.4009,E,1,12,0.8,-6.5,M,41.9,M,,0000*78
$GPGSA,A,3,16,18,27,23,26,10,08,07,20,15,13,29,1.5,0.8,1.3*33
$GPGSV,4,1,14,05,01,026,20,07,15,321,33,08,19,287,33,10,30,160,34*77
$GPGSV,4,2,14,13,08,037,26,15,11,067,31,16,64,226,37,18,53,067,37*7A
$GPGSV,4,3,14,20,11,037,26,23,48,122,32,26,43,190,34,27,53,287,40*72
$GPGSV,4,4,14,29,05,103,17,30,00,353,*70
$GPGLL,5405.9637,N,01206.4009,E,124937.000,A,A*54
$GPRMC,124938.000,A,5405.9637,N,01206.3997,E,2.28,268.37,310521,,,A*61
$GPVTG,268.37,T,,M,2.28,N,4.2,K,A*0B
$GPGGA,124938.000,5405.9637,N,01206.3997,E,1,12,0.8,-6.4,M,41.9,M,,0000*7F
$GPGSA,A,3,16,18,27,23,26,10,08,07,20,15,13,29,1.5,0.8,1.3*33
$GPGSV,4,1,14,05,01,026,21,07,15,321,37,08,19,287,33,10,30,160,34*72
$GPGSV,4,2,14,13,08,037,25,15,11,067,29,16,64,226,36,18,53,067,39*7F
$GPGSV,4,3,14,20,11,037,26,23,48,122,33,26,43,190,30,27,53,287,40*77
$GPGSV,4,4,14,29,05,103,16,30,00,353,*71
$GPGLL,5405.9637,N,01206.3997,E,124938.000,A,A*52
$GPRMC,124939.000,A,5405.9638,N,01206.3986,E,2.33,271.80,310521,,,A*61
$GPVTG,271.80,T,,M,2.33,N,4.3,K,A*04
$GPGGA,124939.000,5405.9638,N,01206.3986,E,1,12,0.8,-6.5,M,41.9,M,,0000*70
$GPGSA,A,3,16,18,27,23,26,10,08,07,20,15,13,29,1.5,0.8,1.3*33
$GPGSV,4,1,14,05,01,026,21,07,15,321,40,08,19,287,33,10,30,160,32*74
$GPGSV,4,2,14,13,08,037,24,15,11,067,33,16,64,226,34,18,53,067,32*7C
$GPGSV,4,3,14,20,11,037,24,23,48,122,36,26,43,190,34,27,53,287,37*74
$GPGSV,4,4,14,29,05,103,20,30,00,353,*74
$GPGLL,5405.9638,N,01206.3986,E,124939.000,A,A*5C
$GPRMC,124940.000,A,5405.9639,N,01206.3974,E,2.47,274.33,310521,,,A*6D
$GPVTG,274.33,T,,M,2.47,N,4.6,K,A*0F
$GPGGA,124940.000,5405.9639,N,01206.3974,E,1,12,0.8,-6.5,M,41.9,M,,0000*72
$GPGSA,A,3,16,18,27,23,26,10,08,07,20,15,13,29,1.5,0.8,1.3*33
$GPGSV,4,1,14,05,01,026,23,07,15,321,42,08,19,287,29,10,30,160,31*7C
$GPGSV,4,2,14,13,08,037,31,15,11,067,34,16,64,226,34,18,53,067,30*7D
$GPGSV,4,3,14,20,11,037,31,23,48,122,40,26,43,190,35,27,53,287,40*70
$GPGSV,4,4,14,29,05,103,24,30,00,353,*70
$GPGLL,5405.9639,N,01206.3974,E,124940.000,A,A*5E
$GPRMC,124941.000,A,5405.9639,N,01206.3962,E,2.53,277.04,310521,,,A*69
$GPVTG,277.04,T,,M,2.53,N,4.7,K,A*0C
$GPGGA,124941.000,5405.9639,N,01206.3962,E,1,12,0.8,-6.6,M,41.9,M,,0000*77
$GPGSA,A,3,16,18,27,23,26,10,08,07,20,15,13,29,1.5,0.8,1.3*33
$GPGSV,4,1,14,05,01,026,23,07,15,321,42,08,19,287,30,10,30,160,25*71
$GPGSV,4,2,14,13,08,037,32,15,11,067,34,16,64,226,37,18,53,067,33*7E
$GPGSV,4,3,14,20,11,037,31,23,48,122,37,26,43,190,37,27,53,287,36*73
$GPGSV,4,4,14,29,05,103,25,30,00,353,*71
$GPGLL,5405.9639,N,01206.3962,E,124941.000,A,A*58
$GPRMC,124942.000,A,5405.9640,N,01206.3950,E,2.59,278.42,310521,,,A*62
$GPVTG,278.42,T,,M,2.59,N,4.8,K,A*04
$GPGGA,124942.000,5405.9640,N,01206.3950,E,1,12,0.8,-6.6,M,41.9,M,,0000*7B
$GPGSA,A,3,16,18,27,23,26,10,08,07,20,15,13,29,1.5,0.8,1.3*33
$GPGSV,4,1,14,05,01,026,22,07,15,321,41,08,19,287,30,10,30,160,24*72
$GPGSV,4,2,14,13,08,037,35,15,11,067,34,16,64,226,37,18,53,067,37*7D
$GPGSV,4,3,14,20,11,037,33,23,48,122,39,26,43,190,35,27,53,287,40*7C
$GPGSV,4,4,14,29,05,103,23,30,00,353,*77
$GPGLL,5405.9640,N,01206.3950,E,124942.000,A,A*54
$GPRMC,124943.000,A,5405.9642,N,01206.3937,E,2.59,280.75,310521,,,A*63
$GPVTG,280.75,T,,M,2.59,N,4.8,K,A*07
$GPGGA,124943.000,5405.9642,N,01206.3937,E,1,12,0.8,-6.6,M,41.9,M,,0000*79
$GPGSA,A,3,16,18,27,23,26,10,08,07,20,15,13,29,1.5,0.8,1.3*33
$GPGSV,4,1,14,05,01,026,23,07,15,321,39,08,19,287,28,10,30,160,23*72
$GPGSV,4,2,14,13,08,037,37,15,11,067,30,16,64,226,37,18,53,067,32*7E
$GPGSV,4,3,14,20,11,037,36,23,48,122,39,26,43,190,34,27,53,287,36*79
$GPGSV,4,4,14,29,05,103,20,30,00,353,*74
$GPGLL,5405.9642,N,01206.3937,E,124943.000,A,A*56
$GPRMC,124944.000,A,5405.9643,N,01206.3925,E,2.63,282.00,310521,,,A*6F
$GPVTG,282.00,T,,M,2.63,N,4.9,K,A*0F
$GPGGA,124944.000,5405.9643,N,01206.3925,E,1,12,0.8,-6.6,M,41.9,M,,0000*7C
$GPGSA,A,3,16,18,27,23,26,10,08,07,20,15,13,29,1.5,0.8,1.3*33
$GPGSV,4,1,14,05,01,026,23,07,15,321,40,08,19,287,28,10,30,160,23*7C
$GPGSV,4,2,14,13,08,037,36,15,11,067,30,16,64,226,38,18,53,067,35*77
$GPGSV,4,3,14,20,11,037,38,23,48,122,38,26,43,190,33,27,53,287,36*71
$GPGSV,4,4,14,29,05,103,17,30,00,353,*70
$GPGLL,5405.9643,N,01206.3925,E,124944.000,A,A*53
$GPRMC,124945.000,A,5405.9645,N,01206.3911,E,2.75,281.81,310521,,,A*62
$GPVTG,281.81,T,,M,2.75,N,5.1,K,A*0B
$GPGGA,124945.000,5405.9645,N,01206.3911,E,1,12,0.8,-6.5,M,41.9,M,,0000*7F
$GPGSA,A,3,16,18,27,23,26,10,08,07,20,15,13,29,1.5,0.8,1.3*33
$GPGSV,4,1,14,05,01,026,24,07,15,321,41,08,19,287,28,10,30,160,22*7B
$GPGSV,4,2,14,13,08,037,37,15,11,067,28,16,64,226,37,18,53,067,32*77
$GPGSV,4,3,14,20,11,037,38,23,48,122,39,26,43,190,30,27,53,287,36*73
$GPGSV,4,4,14,29,05,103,15,30,00,353,*72
$GPGLL,5405.9645,N,01206.3911,E,124945.000,A,A*53
$GPRMC,124946.000,A,5405.9646,N,01206.3899,E,2.69,283.05,310521,,,A*60
$GPVTG,283.05,T,,M,2.69,N,5.0,K,A*09
$GPGGA,124946.000,5405.9646,N,01206.3899,E,1,12,0.8,-6.5,M,41.9,M,,0000*7E
$GPGSA,A,3,16,18,27,23,26,10,08,07,20,15,13,29,1.5,0.8,1.3*33
$GPGSV,4,1,14,05,01,026,23,07,15,321,41,08,19,287,29,10,30,160,24*7B
$GPGSV,4,2,14,13,08,037,28,15,11,067,27,16,64,226,39,18,53,067,34*7E
$GPGSV,4,3,14,20,11,037,28,23,48,122,41,26,43,190,30,27,53,287,34*7F
$GPGSV,4,4,14,29,05,103,14,30,00,353,*73
$GPGLL,5405.9646,N,01206.3899,E,124946.000,A,A*52
$GPRMC,124947.000,A,5405.9648,N,01206.3886,E,2.72,284.25,310521,,,A*6E
$GPVTG,284.25,T,,M,2.72,N,5.0,K,A*06
$GPGGA,124947.000,5405.9648,N,01206.3886,E,1,12,0.8,-6.5,M,41.9,M,,0000*7F
$GPGSA,A,3,16,18,27,23,26,10,08,07,20,15,13,29,1.5,0.8,1.3*33
$GPGSV,4,1,14,05,01,026,24,07,15,321,41,08,19,287,29,10,30,160,30*79
$GPGSV,4,2,14,13,08,037,40,15,11,067,25,16,64,226,37,18,53,067,36*7E
$GPGSV,4,3,14,20,11,037,38,23,48,122,42,26,43,190,36,27,53,287,30*7F
$GPGSV,4,4,14,29,05,103,13,30,00,353,*74
$GPGLL,5405.9648,N,01206.3886,E,124947.000,A,A*53
$GPRMC,124948.000,A,5405.9650,N,01206.3873,E,2.75,284.34,310521,,,A*65
$GPVTG,284.34,T,,M,2.75,N,5.1,K,A*00
$GPGGA,124948.000,5405.9650,N,01206.3873,E,1,12,0.8,-6.5,M,41.9,M,,0000*73
$GPGSA,A,3,16,18,27,23,26,10,08,07,20,15,13,29,1.5,0.8,1.3*33
$GPGSV,4,1,14,05,01,026,26,07,15,321,40,08,19,287,28,10,30,160,30*7B
$GPGSV,4,2,14,13,08,037,40,15,11,067,24,16,64,226,38,18,53,067,34*72
$GPGSV,4,3,14,20,11,037,39,23,48,122,42,26,43,190,36,27,53,287,29*76
$GPGSV,4,4,14,29,05,103,16,30,00,353,*71
$GPGLL,5405.9650,N,01206.3873,E,124948.000,A,A*5F
$GPRMC,124949.000,A,5405.9651,N,01206.3860,E,2.85,284.40,310521,,,A*6B
$GPVTG,284.40,T,,M,2.85,N,5.3,K,A*0E
$GPGGA,124949.000,5405.9651,N,01206.3860,E,1,12,0.8,-6.6,M,41.9,M,,0000*72
$GPGSA,A,3,16,18,27,23,26,10,08,07,20,15,13,29,1.5,0.8,1.3*33
$GPGSV,4,1,14,05,01,026,27,07,15,321,42,08,19,287,30,10,30,160,30*71
$GPGSV,4,2,14,13,08,037,37,15,11,067,22,16,64,226,37,18,53,067,37*78
$GPGSV,4,3,14,20,11,037,38,23,48,122,42,26,43,190,38,27,53,287,29*79
$GPGSV,4,4,14,29,05,103,20,30,00,353,*74
$GPGLL,5405.9651,N,01206.3860,E,124949.000,A,A*5D
$GPRMC,124950.000,A,5405.9652,N,01206.3846,E,2.86,285.16,310521,,,A*65
$GPVTG,285.16,T,,M,2.86,N,5.3,K,A*0F
$GPGGA,124950.000,5405.9652,N,01206.3846,E,1,12,0.8,-6.8,M,41.9,M,,0000*73
$GPGSA,A,3,16,18,27,23,26,10,08,07,20,15,13,29,1.5,0.8,1.3*33
$GPGSV,4,1,14,05,01,026,28,07,15,321,43,08,19,287,30,10,30,160,31*7E
$GPGSV,4,2,14,13,08,037,37,15,11,067,22,16,64,226,37,18,53,067,37*78
$GPGSV,4,3,14,20,11,037,39,23,48,122,42,26,43,190,40,27,53,287,32*7D
$GPGSV,4,4,14,29,05,103,22,30,00,353,*76
$GPGLL,5405.9652,N,01206.3846,E,124950.000,A,A*52
$GPRMC,124951.000,A,5405.9654,N,01206.3832,E,2.93,284.59,310521,,,A*6F
$GPVTG,284.59,T,,M,2.93,N,5.4,K,A*06
$GPGGA,124951.000,5405.9654,N,01206.3832,E,1,12,0.8,-6.9,M,41.9,M,,0000*76
$GPGSA,A,3,16,18,27,23,26,10,08,07,20,15,13,29,1.5,0.8,1.3*33
$GPGSV,4,1,14,05,01,026,30,07,15,321,41,08,19,287,30,10,30,160,35*71
$GPGSV,4,2,14,13,08,037,37,15,11,067,23,16,64,226,39,18,53,067,36*76
$GPGSV,4,3,14,20,11,037,39,23,48,122,43,26,43,190,39,27,53,287,32*72
$GPGSV,4,4,14,29,05,103,24,30,00,353,*70
$GPGLL,5405.9654,N,01206.3832,E,124951.000,A,A*56
$GPRMC,124952.000,A,5405.9655,N,01206.3818,E,2.98,285.43,310521,,,A*64
$GPVTG,285.43,T,,M,2.98,N,5.5,K,A*06
$GPGGA,124952.000,5405.9655,N,01206.3818,E,1,12,0.8,-7.1,M,41.9,M,,0000*75
$GPGSA,A,3,16,18,27,23,26,10,08,07,20,15,13,29,1.5,0.8,1.3*33
$GPGSV,4,1,14,05,01,026,29,07,15,321,41,08,19,287,29,10,30,160,35*71
$GPGSV,4,2,14,13,08,037,37,15,11,067,30,16,64,226,38,18,53,067,39*7A
$GPGSV,4,3,14,20,11,037,40,23,48,122,42,26,43,190,39,27,53,287,28*76
$GPGSV,4,4,14,29,05,103,24,30,00,353,*70
$GPGLL,5405.9655,N,01206.3818,E,124952.000,A,A*5C
$WIMWV,57.5,R,6.2,N,A*10
$WIMWV,56.6,R,6.5,N,A*15
$WIMWV,58.3,R,6.2,N,A*19
$WIMWV,60.9,R,6.5,N,A*1f
$WIMWV,63.0,R,6.5,N,A*15
$WIMWV,63.7,R,6.6,N,A*11
$WIMWV,64.3,R,6.2,N,A*16
$WIMWV,64.8,R,6.5,N,A*1a
$WIMWV,65.2,R,6.5,N,A*11
$WIMWV,67.0,R,6.5,N,A*11
$WIMWV,69.2,R,6.5,N,A*1d
$WIMWV,72.2,R,7.0,N,A*13
$WIMWV,73.8,R,6.6,N,A*1f
$WIMWV,73.9,R,6.6,N,A*1e
$WIMWV,73.5,R,7.0,N,A*15
$WIMWV,72.1,R,6.5,N,A*14
$WIMWV,69.9,R,7.0,N,A*12
$WIMWV,70.6,R,7.0,N,A*15
$WIMWV,72.3,R,6.5,N,A*16
$WIMWV,74.0,R,7.0,N,A*17
$WIMWV,75.0,R,7.0,N,A*16
$WIMWV,76.5,R,7.0,N,A*10
$WIMWV,75.8,R,7.0,N,A*1e
$WIMWV,76.2,R,7.0,N,A*17
$WIMWV,76.5,R,7.0,N,A*10
$WIMWV,77.9,R,7.0,N,A*1d
$WIMWV,79.1,R,7.0,N,A*1b
$WIMWV,78.2,R,7.0,N,A*19
$WIMWV,78.1,R,7.0,N,A*1a
$WIMWV,78.4,R,7.0,N,A*1f
$WIMWV,79.7,R,7.0,N,A*1d
$WIMWV,81.4,R,6.5,N,A*1d
$WIMWV,83.0,R,7.0,N,A*1f
$WIMWV,82.9,R,7.0,N,A*17
$WIMWV,83.2,R,6.5,N,A*19
$WIMWV,83.0,R,7.0,N,A*1f
$WIMWV,83.3,R,6.5,N,A*18
$WIMWV,84.0,R,6.5,N,A*1c
$WIMWV,84.6,R,6.6,N,A*19
$WIMWV,85.2,R,6.5,N,A*1f
$WIMWV,84.7,R,6.5,N,A*1b
$WIMWV,84.9,R,6.6,N,A*16
$WIMWV,83.8,R,6.2,N,A*14
$WIMWV,84.5,R,6.5,N,A*19
$WIMWV,84.8,R,6.5,N,A*14
$WIMWV,85.1,R,6.2,N,A*1b
$WIMWV,84.7,R,6.6,N,A*18
$WIMWV,84.8,R,6.2,N,A*13
$WIMWV,85.3,R,6.2,N,A*19
$WIMWV,84.8,R,6.5,N,A*14
$WIMWV,85.2,R,6.2,N,A*18
$WIMWV,84.6,R,6.1,N,A*1e
$WIMWV,83.8,R,6.1,N,A*17
$WIMWV,83.4,R,6.1,N,A*1b
$WIMWV,81.6,R,6.1,N,A*1b
$WIMWV,79.5,R,5.7,N,A*1a
$WIMWV,78.2,R,6.2,N,A*1a
$WIMWV,78.6,R,5.7,N,A*18
$WIMWV,78.4,R,5.7,N,A*1a
$WIMWV,78.1,R,6.1,N,A*1a
$WIMWV,78.9,R,5.7,N,A*17
$WIMWV,80.3,R,5.7,N,A*1a
$WIMWV,82.1,R,5.7,N,A*1a
$WIMWV,84.2,R,5.7,N,A*1f
$WIMWV,86.3,R,5.7,N,A*1c
$WIMWV,88.1,R,5.7,N,A*10
$WIMWV,87.5,R,5.7,N,A*1b
$WIMWV,84.0,R,5.7,N,A*1d
$WIMWV,78.4,R,5.7,N,A*1a
$WIMWV,72.7,R,5.7,N,A*13
$WIMWV,70.9,R,5.7,N,A*1f
$WIMWV,72.1,R,5.3,N,A*11
$WIMWV,74.6,R,5.7,N,A*14
$WIMWV,76.9,R,5.7,N,A*19
$WIMWV,79.0,R,5.7,N,A*1f
$WIMWV,78.4,R,5.3,N,A*1e
$WIMWV,77.8,R,5.7,N,A*19
$WIMWV,76.9,R,5.7,N,A*19
$WIMWV,77.2,R,5.3,N,A*17
$WIMWV,78.2,R,5.7,N,A*1c
$WIMWV,78.9,R,5.7,N,A*17
$WIMWV,80.0,R,5.3,N,A*1d
$WIMWV,77.8,R,5.7,N,A*19
$WIMWV,75.9,R,5.3,N,A*1e
$WIMWV,74.1,R,5.3,N,A*17
$WIMWV,72.2,R,5.7,N,A*16
$WIMWV,71.0,R,5.3,N,A*13
$WIMWV,69.7,R,5.3,N,A*1d
$WIMWV,71.1,R,5.3,N,A*12
$WIMWV,72.5,R,5.7,N,A*11
$WIMWV,74.6,R,5.3,N,A*10
$WIMWV,75.0,R,5.3,N,A*17
$WIMWV,75.0,R,5.3,N,A*17
$WIMWV,73.7,R,5.3,N,A*16
$WIMWV,72.4,R,5.3,N,A*14
$WIMWV,70.5,R,4.9,N,A*1c
$WIMWV,68.3,R,5.3,N,A*18
$WIMWV,67.4,R,4.9,N,A*1b
$WIMWV,66.8,R,5.3,N,A*1d
$WIMWV,66.7,R,4.9,N,A*19
$WIMWV,67.2,R,5.3,N,A*16
$WIMWV,68.8,R,4.9,N,A*18
$WIMWV,71.1,R,5.3,N,A*12
$WIMWV,73.2,R,4.9,N,A*18
$WIMWV,75.7,R,4.9,N,A*1b
$WIMWV,75.9,R,4.9,N,A*15
$WIMWV,75.1,R,5.3,N,A*16
$WIMWV,71.8,R,4.9,N,A*10
$WIMWV,67.7,R,4.9,N,A*18
$WIMWV,65.2,R,5.3,N,A*14
$WIMWV,63.5,R,4.9,N,A*1e
$WIMWV,65.4,R,5.3,N,A*12
$WIMWV,67.7,R,4.9,N,A*18
$WIMWV,69.4,R,5.3,N,A*1e
$WIMWV,70.1,R,5.3,N,A*13
$WIMWV,69.6,R,4.9,N,A*17
$WIMWV,67.7,R,5.3,N,A*13
$WIMWV,67.0,R,4.9,N,A*1f
$WIMWV,67.1,R,5.3,N,A*15
$WIMWV,67.7,R,5.3,N,A*13
$WIMWV,67.3,R,5.3,N,A*17
$WIMWV,65.9,R,5.3,N,A*1f
$WIMWV,64.1,R,4.9,N,A*1d
$WIMWV,62.6,R,5.3,N,A*17
$WIMWV,61.2,R,5.3,N,A*10
$WIMWV,59.7,R,5.3,N,A*1e
$WIMWV,59.2,R,5.3,N,A*1b
$WIMWV,59.8,R,5.3,N,A*11
$WIMWV,60.8,R,5.3,N,A*1b
$WIMWV,62.6,R,5.3,N,A*17
$WIMWV,63.4,R,5.7,N,A*10
$WIMWV,63.1,R,5.3,N,A*11
$WIMWV,61.6,R,5.3,N,A*14
$WIMWV,60.5,R,5.3,N,A*16
$WIMWV,59.0,R,5.7,N,A*1d
$WIMWV,58.8,R,5.3,N,A*10
$WIMWV,59.8,R,5.7,N,A*15
$WIMWV,60.5,R,5.3,N,A*16
$WIMWV,61.2,R,5.3,N,A*10
$WIMWV,62.0,R,5.7,N,A*15
$WIMWV,62.6,R,5.3,N,A*17
$WIMWV,62.5,R,5.3,N,A*14
$WIMWV,61.9,R,5.3,N,A*1b
$WIMWV,61.7,R,5.3,N,A*15
$WIMWV,61.1,R,5.7,N,A*17
$WIMWV,60.7,R,5.3,N,A*14
$WIMWV,59.8,R,5.3,N,A*11
$WIMWV,61.1,R,5.3,N,A*13
$WIMWV,62.3,R,5.3,N,A*12
$WIMWV,63.8,R,5.3,N,A*18
$WIMWV,62.9,R,5.7,N,A*1c
$WIMWV,63.4,R,5.3,N,A*14
$WIMWV,64.2,R,5.3,N,A*15
$WIMWV,64.8,R,5.3,N,A*1f
$WIMWV,65.2,R,5.3,N,A*14
$WIMWV,64.1,R,5.3,N,A*16
$WIMWV,62.5,R,5.3,N,A*14
$WIMWV,60.3,R,5.7,N,A*14
$WIMWV,58.0,R,5.3,N,A*18
$WIMWV,56.4,R,5.3,N,A*12
$WIMWV,55.4,R,5.7,N,A*15
$WIMWV,54.9,R,5.3,N,A*1d
$WIMWV,55.0,R,5.7,N,A*11
$WIMWV,56.6,R,5.3,N,A*10
$WIMWV,58.8,R,5.7,N,A*14
$WIMWV,57.6,R,5.3,N,A*11
$WIMWV,55.2,R,5.7,N,A*13
$WIMWV,51.0,R,5.7,N,A*15
$WIMWV,48.4,R,5.7,N,A*19
$WIMWV,46.5,R,5.7,N,A*16
$WIMWV,46.0,R,5.7,N,A*13
$WIMWV,48.0,R,5.7,N,A*1d
$WIMWV,50.3,R,5.7,N,A*17
$WIMWV,51.0,R,6.1,N,A*10
$WIMWV,51.6,R,5.7,N,A*13
$WIMWV,50.8,R,5.7,N,A*1c
$WIMWV,49.9,R,6.1,N,A*10
$WIMWV,49.9,R,6.1,N,A*10
$WIMWV,50.3,R,5.7,N,A*17
$WIMWV,52.1,R,6.1,N,A*12
$WIMWV,53.6,R,6.1,N,A*14
$WIMWV,54.8,R,5.7,N,A*18
$WIMWV,54.7,R,6.2,N,A*11
$WIMWV,53.2,R,6.2,N,A*13
$WIMWV,51.0,R,5.7,N,A*15
$WIMWV,49.8,R,6.2,N,A*12
$WIMWV,50.0,R,6.2,N,A*12
$WIMWV,51.6,R,6.1,N,A*16
$WIMWV,50.7,R,5.7,N,A*13
$WIMWV,49.6,R,6.2,N,A*1c
$WIMWV,46.1,R,6.2,N,A*14
$WIMWV,43.0,R,6.2,N,A*10
$WIMWV,41.0,R,6.6,N,A*16
$WIMWV,42.2,R,6.2,N,A*13
$WIMWV,45.5,R,6.2,N,A*13
$WIMWV,49.7,R,6.2,N,A*1d
$WIMWV,53.0,R,6.2,N,A*11
$WIMWV,54.4,R,6.5,N,A*15
$WIMWV,54.2,R,6.1,N,A*17
$WIMWV,52.4,R,6.5,N,A*13
$WIMWV,51.5,R,6.2,N,A*16
$WIMWV,49.9,R,6.6,N,A*17
$WIMWV,49.7,R,6.5,N,A*1a
$WIMWV,49.6,R,6.1,N,A*1f
$WIMWV,50.1,R,6.5,N,A*14
$WIMWV,50.5,R,6.5,N,A*10
$WIMWV,50.0,R,6.5,N,A*15
$WIMWV,49.0,R,7.0,N,A*19
$WIMWV,49.1,R,6.6,N,A*1f
$GPRMC,124953.000,A,5405.9657,N,01206.3804,E,3.00,285.92,310521,,,A*66
$GPVTG,285.92,T,,M,3.00,N,5.6,K,A*09
$GPGGA,124953.000,5405.9657,N,01206.3804,E,1,12,0.8,-7.2,M,41.9,M,,0000*78
$GPGSA,A,3,16,18,27,23,26,10,08,07,20,15,13,29,1.5,0.8,1.3*33
$GPGSV,4,1,14,05,01,026,30,07,15,321,41,08,19,287,30,10,30,160,32*76
$GPGSV,4,2,14,13,08,037,37,15,11,067,24,16,64,226,38,18,53,067,37*71
$GPGSV,4,3,14,20,11,037,38,23,48,122,42,26,43,190,37,27,53,287,29*76
$GPGSV,4,4,14,29,05,103,25,30,00,353,*71
$GPGLL,5405.9657,N,01206.3804,E,124953.000,A,A*52
$WIMWV,48.7,R,6.5,N,A*1b
$WIMWV,49.1,R,7.0,N,A*18
$WIMWV,49.1,R,6.6,N,A*1f
$WIMWV,50.1,R,6.5,N,A*14
$WIMWV,51.3,R,7.0,N,A*13
$WIMWV,52.3,R,6.6,N,A*17
$WIMWV,53.2,R,6.5,N,A*14
$WIMWV,55.4,R,6.5,N,A*14
$WIMWV,56.1,R,6.5,N,A*12
$WIMWV,55.6,R,7.0,N,A*12
$GPRMC,124954.000,A,5405.9659,N,01206.3790,E,3.01,286.40,310521,,,A*60
$GPVTG,286.40,T,,M,3.01,N,5.6,K,A*04
$GPGGA,124954.000,5405.9659,N,01206.3790,E,1,12,0.8,-7.4,M,41.9,M,,0000*75
$GPGSA,A,3,16,18,27,23,26,10,08,07,20,15,13,29,1.5,0.8,1.3*33
$GPGSV,4,1,14,05,01,026,28,07,15,321,39,08,19,287,29,10,30,160,35*7F
$GPGSV,4,2,14,13,08,037,36,15,11,067,23,16,64,226,38,18,53,067,34*74
$GPGSV,4,3,14,20,11,037,38,23,48,122,42,26,43,190,39,27,53,287,28*79
$GPGSV,4,4,14,29,05,103,25,30,00,353,*71
$GPGLL,5405.9659,N,01206.3790,E,124954.000,A,A*59
$WIMWV,53.5,R,6.5,N,A*13
$WIMWV,51.9,R,6.5,N,A*1d
$WIMWV,52.0,R,7.0,N,A*13
$WIMWV,53.7,R,6.5,N,A*11
$WIMWV,55.6,R,7.0,N,A*12
$WIMWV,56.1,R,6.6,N,A*11
$WIMWV,56.5,R,7.0,N,A*12
$WIMWV,57.3,R,6.5,N,A*11
$WIMWV,59.8,R,7.0,N,A*10
$WIMWV,59.3,R,6.5,N,A*1f
$GPRMC,124955.000,A,5405.9661,N,01206.3776,E,3.07,286.31,310521,,,A*62
$GPVTG,286.31,T,,M,3.07,N,5.7,K,A*05
$GPGGA,124955.000,5405.9661,N,01206.3776,E,1,12,0.8,-7.4,M,41.9,M,,0000*77
$GPGSA,A,3,16,18,27,23,26,10,08,07,20,15,13,29,1.5,0.8,1.3*33
$GPGSV,4,1,14,05,01,026,30,07,15,321,40,08,19,287,29,10,30,160,36*7B
$GPGSV,4,2,14,13,08,037,39,15,11,067,22,16,64,226,36,18,53,067,39*79
$GPGSV,4,3,14,20,11,037,38,23,48,122,41,26,43,190,36,27,53,287,28*75
$GPGSV,4,4,14,29,05,103,26,30,00,353,*72
$GPGLL,5405.9661,N,01206.3776,E,124955.000,A,A*5B
$WIMWV,59.1,R,7.0,N,A*19
$WIMWV,60.3,R,7.0,N,A*11
$WIMWV,60.5,R,7.0,N,A*17
$WIMWV,59.7,R,7.0,N,A*1f
$WIMWV,56.6,R,7.0,N,A*11
$WIMWV,54.2,R,7.0,N,A*17
$WIMWV,54.7,R,7.0,N,A*12
$WIMWV,55.3,R,7.0,N,A*17
$WIMWV,57.6,R,7.4,N,A*14
$GPRMC,124956.000,A,5405.9664,N,01206.3761,E,3.12,286.50,310521,,,A*61
$GPVTG,286.50,T,,M,3.12,N,5.8,K,A*09
$GPGGA,124956.000,5405.9664,N,01206.3761,E,1,12,0.8,-7.4,M,41.9,M,,0000*77
$GPGSA,A,3,16,18,27,23,26,10,08,07,20,15,13,29,1.5,0.8,1.3*33
$GPGSV,4,1,14,05,01,026,28,07,15,321,38,08,19,287,30,10,30,160,34*77
$GPGSV,4,2,14,13,08,037,37,15,11,067,25,16,64,226,38,18,53,067,37*70
$GPGSV,4,3,14,20,11,037,37,23,48,122,45,26,43,190,35,27,53,287,33*77
$GPGSV,4,4,14,29,05,103,27,30,00,353,*73
$WIMWV,60.6,R,7.0,N,A*14
$GPGLL,5405.9664,N,01206.3761,E,124956.000,A,A*5B
$WIMWV,62.0,R,7.0,N,A*10
$WIMWV,60.3,R,7.4,N,A*15
$WIMWV,56.8,R,7.0,N,A*1f
$WIMWV,56.7,R,7.0,N,A*10
$WIMWV,56.4,R,7.0,N,A*13
$WIMWV,57.5,R,7.0,N,A*13
$WIMWV,60.4,R,7.4,N,A*12
$WIMWV,61.6,R,7.0,N,A*15
$WIMWV,60.5,R,7.0,N,A*17
$GPRMC,124957.000,A,5405.9666,N,01206.3747,E,3.21,287.30,310521,,,A*61
$GPVTG,287.30,T,,M,3.21,N,6.0,K,A*05
$GPGGA,124957.000,5405.9666,N,01206.3747,E,1,12,0.8,-7.5,M,41.9,M,,0000*71
$GPGSA,A,3,16,18,27,23,26,10,08,07,20,15,13,29,1.5,0.8,1.3*33
$GPGSV,4,1,14,05,01,026,27,07,15,321,36,08,19,287,34,10,30,160,40*71
$GPGSV,4,2,14,13,08,037,36,15,11,067,26,16,64,226,38,18,53,067,39*7C
$GPGSV,4,3,14,20,11,037,31,23,48,122,43,26,43,190,37,27,53,287,36*70
$WIMWV,61.0,R,7.0,N,A*13
$GPGSV,4,4,14,29,05,103,27,30,00,353,07*74
$GPGLL,5405.9666,N,01206.3747,E,124957.000,A,A*5C
$WIMWV,60.6,R,7.0,N,A*14
$WIMWV,59.0,R,7.0,N,A*18
$WIMWV,57.6,R,7.0,N,A*10
$WIMWV,57.1,R,7.4,N,A*13
$WIMWV,56.2,R,7.0,N,A*15
$WIMWV,55.8,R,7.4,N,A*18
$WIMWV,56.3,R,7.0,N,A*14
$WIMWV,56.4,R,7.0,N,A*13
$WIMWV,54.1,R,7.0,N,A*14
$WIMWV,53.4,R,7.0,N,A*16
$GPRMC,124958.000,A,5405.9668,N,01206.3732,E,3.25,287.69,310521,,,A*6A
$GPVTG,287.69,T,,M,3.25,N,6.0,K,A*0D
$GPGGA,124958.000,5405.9668,N,01206.3732,E,1,12,0.8,-7.8,M,41.9,M,,0000*7F
$GPGSA,A,3,16,18,27,23,26,10,08,07,20,15,13,29,1.5,0.8,1.3*33
$GPGSV,4,1,14,05,01,026,27,07,15,321,38,08,19,287,34,10,30,160,38*70
$GPGSV,4,2,14,13,08,037,39,15,11,067,26,16,64,226,41,18,53,067,38*7C
$GPGSV,4,3,14,20,11,037,39,23,48,122,42,26,43,190,43,27,53,287,36*7A
$GPGSV,4,4,14,29,05,103,23,30,00,353,08*7F
$GPGLL,5405.9668,N,01206.3732,E,124958.000,A,A*5F
$WIMWV,52.5,R,7.0,N,A*16
$WIMWV,52.7,R,6.6,N,A*13
$WIMWV,51.9,R,7.0,N,A*19
$WIMWV,49.1,R,7.0,N,A*18
$WIMWV,44.7,R,7.0,N,A*13
$WIMWV,40.7,R,7.0,N,A*17
$WIMWV,39.8,R,6.5,N,A*12
$WIMWV,42.5,R,7.0,N,A*17
$WIMWV,47.9,R,7.0,N,A*1e
$WIMWV,56.1,R,7.0,N,A*16
$GPRMC,124959.000,A,5405.9671,N,01206.3717,E,3.24,289.13,310521,,,A*66
$GPVTG,289.13,T,,M,3.24,N,6.0,K,A*0F
$GPGGA,124959.000,5405.9671,N,01206.3717,E,1,12,0.8,-8.1,M,41.9,M,,0000*77
$GPGSA,A,3,16,18,27,23,26,10,08,07,20,15,13,29,1.5,0.8,1.3*33
$GPGSV,4,1,14,05,01,026,24,07,15,321,40,08,19,287,34,10,30,160,38*7C
$GPGSV,4,2,14,13,08,037,37,15,11,067,37,16,64,226,39,18,53,067,34*71
$GPGSV,4,3,14,20,11,037,30,23,48,122,33,26,43,190,42,27,53,287,28*7B
$GPGSV,4,4,14,29,05,103,23,30,00,353,12*74
$GPGLL,5405.9671,N,01206.3717,E,124959.000,A,A*51
$WIMWV,60.7,R,7.0,N,A*15
$WIMWV,56.7,R,7.4,N,A*14
$WIMWV,50.2,R,7.0,N,A*13
$WIMWV,46.5,R,7.0,N,A*13
$WIMWV,48.0,R,7.0,N,A*18
$WIMWV,49.5,R,7.4,N,A*18
$WIMWV,47.3,R,7.0,N,A*14
$WIMWV,42.9,R,7.0,N,A*1b
$WIMWV,39.4,R,7.0,N,A*1a
$GPRMC,125000.000,A,5405.9673,N,01206.3703,E,3.33,290.76,310521,,,A*68
$GPVTG,290.76,T,,M,3.33,N,6.2,K,A*00
$GPGGA,125000.000,5405.9673,N,01206.3703,E,1,12,0.8,-8.2,M,41.9,M,,0000*77
$GPGSA,A,3,16,18,27,23,26,10,08,07,20,15,13,29,1.5,0.8,1.3*33
$GPGSV,4,1,14,05,01,026,21,07,15,321,41,08,19,287,36,10,30,160,40*75
$GPGSV,4,2,14,13,08,037,39,15,11,067,36,16,64,226,35,18,53,067,30*76
$GPGSV,4,3,14,20,11,037,34,23,48,122,36,26,43,190,41,27,53,287,35*75
$WIMWV,37.7,R,7.0,N,A*17
$GPGSV,4,4,14,29,05,103,22,30,00,353,10*77
$GPGLL,5405.9673,N,01206.3703,E,125000.000,A,A*52
$WIMWV,37.9,R,7.4,N,A*1d
$WIMWV,39.7,R,7.0,N,A*19
$WIMWV,42.0,R,7.0,N,A*12
$WIMWV,43.0,R,7.0,N,A*13
$WIMWV,41.3,R,7.0,N,A*12
$WIMWV,38.5,R,7.0,N,A*1a
$WIMWV,35.5,R,7.0,N,A*17
$WIMWV,37.5,R,7.4,N,A*11
$WIMWV,42.4,R,7.0,N,A*16
$GPRMC,125001.000,A,5405.9677,N,01206.3689,E,3.25,291.69,310521,,,A*66
$GPVTG,291.69,T,,M,3.25,N,6.0,K,A*0A
$GPGGA,125001.000,5405.9677,N,01206.3689,E,1,12,0.8,-8.3,M,41.9,M,,0000*70
$GPGSA,A,3,16,18,27,23,26,10,08,07,20,15,13,29,1.5,0.8,1.3*33
$GPGSV,4,1,14,05,01,026,19,07,15,321,36,08,19,287,33,10,30,160,34*78
$GPGSV,4,2,14,13,08,037,39,15,11,067,40,16,64,226,37,18,53,067,26*72
$GPGSV,4,3,14,20,11,037,40,23,48,122,36,26,43,190,43,27,53,287,33*72
$GPGSV,4,4,14,29,05,103,23,30,00,353,09*7E
$GPGLL,5405.9677,N,01206.3689,E,125001.000,A,A*54
$WIMWV,45.7,R,7.0,N,A*12
$WIMWV,45.9,R,7.4,N,A*18
$WIMWV,43.6,R,7.0,N,A*15
$WIMWV,40.1,R,7.0,N,A*11
$WIMWV,37.1,R,7.4,N,A*15
$WIMWV,34.9,R,7.0,N,A*1a
$WIMWV,35.1,R,7.4,N,A*17
$WIMWV,35.3,R,7.4,N,A*15
$WIMWV,36.8,R,7.4,N,A*1d
$WIMWV,37.2,R,7.8,N,A*1a
$GPRMC,125002.000,A,5405.9680,N,01206.3674,E,3.30,292.76,310521,,,A*66
$GPVTG,292.76,T,,M,3.30,N,6.1,K,A*02
$GPGGA,125002.000,5405.9680,N,01206.3674,E,1,12,0.8,-8.2,M,41.9,M,,0000*78
$GPGSA,A,3,16,18,27,23,26,10,08,07,20,15,13,29,1.5,0.8,1.3*33
$GPGSV,4,1,14,05,01,026,20,07,15,321,36,08,19,287,32,10,30,160,39*7E
$GPGSV,4,2,14,13,08,037,37,15,11,067,36,16,64,226,35,18,53,067,35*7D
$GPGSV,4,3,14,20,11,037,38,23,48,122,31,26,43,190,39,27,53,287,35*71
$GPGSV,4,4,14,29,05,103,24,30,00,353,09*79
$GPGLL,5405.9680,N,01206.3674,E,125002.000,A,A*5D
$WIMWV,37.3,R,7.8,N,A*1b
$WIMWV,36.7,R,7.8,N,A*1e
$WIMWV,32.8,R,8.2,N,A*10
$WIMWV,31.1,R,7.8,N,A*1f
$WIMWV,32.7,R,8.6,N,A*1b
$WIMWV,36.5,R,8.2,N,A*19
$WIMWV,38.3,R,8.6,N,A*15
$WIMWV,35.1,R,8.2,N,A*1e
$WIMWV,31.0,R,9.0,N,A*18
$WIMWV,31.9,R,9.0,N,A*11
$GPRMC,125003.000,A,5405.9684,N,01206.3661,E,3.25,293.60,310521,,,A*65
$GPVTG,293.60,T,,M,3.25,N,6.0,K,A*01
$GPGGA,125003.000,5405.9684,N,01206.3661,E,1,12,0.8,-8.2,M,41.9,M,,0000*79
$GPGSA,A,3,16,18,27,23,26,10,08,07,20,15,13,29,1.5,0.8,1.3*33
$GPGSV,4,1,14,05,01,026,22,07,15,321,36,08,19,287,30,10,30,160,41*71
$GPGSV,4,2,14,13,08,037,37,15,11,067,34,16,64,226,38,18,53,067,35*72
$GPGSV,4,3,14,20,11,037,37,23,48,122,35,26,43,190,41,27,53,287,38*78
$GPGSV,4,4,14,29,05,103,21,30,00,353,09*7C
$GPGLL,5405.9684,N,01206.3661,E,125003.000,A,A*5C
$WIMWV,34.9,R,9.0,N,A*14
$WIMWV,34.9,R,9.0,N,A*14
$WIMWV,33.6,R,9.0,N,A*1c
$WIMWV,34.3,R,9.4,N,A*1a
$WIMWV,35.5,R,9.0,N,A*19
$WIMWV,35.4,R,9.4,N,A*1c
$WIMWV,33.3,R,9.0,N,A*19
$WIMWV,31.4,R,9.4,N,A*18
$WIMWV,29.5,R,9.4,N,A*10
$WIMWV,31.1,R,9.0,N,A*19
$GPRMC,125004.000,A,5405.9688,N,01206.3647,E,3.10,293.18,310521,,,A*63
$GPVTG,293.18,T,,M,3.10,N,5.7,K,A*0C
$GPGGA,125004.000,5405.9688,N,01206.3647,E,1,12,0.8,-8.0,M,41.9,M,,0000*74
$GPGSA,A,3,16,18,27,23,26,10,08,07,20,15,13,29,1.5,0.8,1.3*33
$GPGSV,4,1,14,05,01,026,24,07,15,321,38,08,19,287,27,10,30,160,42*7C
$GPGSV,4,2,14,13,08,037,38,15,11,067,30,16,64,226,42,18,53,067,36*77
$GPGSV,4,3,14,20,11,037,41,23,48,122,43,26,43,190,44,27,53,287,28*7C
$GPGSV,4,4,14,29,05,103,21,30,00,353,11*75
$GPGLL,5405.9688,N,01206.3647,E,125004.000,A,A*53
$WIMWV,33.5,R,9.4,N,A*1b
$WIMWV,34.8,R,9.4,N,A*11
$WIMWV,35.3,R,9.4,N,A*1b
$WIMWV,35.5,R,9.4,N,A*1d
$WIMWV,35.4,R,9.4,N,A*1c
$WIMWV,34.9,R,9.8,N,A*1c
$WIMWV,34.9,R,9.4,N,A*10
$WIMWV,35.1,R,9.4,N,A*19
$WIMWV,37.9,R,9.4,N,A*13
$WIMWV,40.4,R,9.8,N,A*12
$GPRMC,125005.000,A,5405.9692,N,01206.3633,E,3.28,293.70,310521,,,A*6F
$GPVTG,293.70,T,,M,3.28,N,6.1,K,A*0C
$GPGGA,125005.000,5405.9692,N,01206.3633,E,1,12,0.8,-7.9,M,41.9,M,,0000*7B
$GPGSA,A,3,16,18,27,23,26,10,08,07,20,15,13,29,1.5,0.8,1.3*33
$GPGSV,4,1,14,05,01,026,25,07,15,321,39,08,19,287,26,10,30,160,42*7D
$GPGSV,4,2,14,13,08,037,38,15,11,067,27,16,64,226,41,18,53,067,35*71
$GPGSV,4,3,14,20,11,037,39,23,48,122,41,26,43,190,41,27,53,287,28*74
$GPGSV,4,4,14,29,05,103,19,30,00,353,09*77
$GPGLL,5405.9692,N,01206.3633,E,125005.000,A,A*5A
$WIMWV,38.6,R,9.4,N,A*13
$WIMWV,32.1,R,9.8,N,A*12
$WIMWV,29.7,R,9.4,N,A*12
$WIMWV,34.6,R,9.4,N,A*1f
$WIMWV,41.6,R,9.4,N,A*1d
$WIMWV,45.4,R,9.4,N,A*1b
$WIMWV,44.0,R,9.4,N,A*1e
$WIMWV,38.6,R,9.4,N,A*13
$WIMWV,36.1,R,9.0,N,A*1e
$WIMWV,36.1,R,9.0,N,A*1e
$GPRMC,125006.000,A,5405.9696,N,01206.3619,E,3.32,293.96,310521,,,A*63
$GPVTG,293.96,T,,M,3.32,N,6.1,K,A*0F
$GPGGA,125006.000,5405.9696,N,01206.3619,E,1,12,0.8,-7.8,M,41.9,M,,0000*75
$GPGSA,A,3,16,18,27,23,26,10,08,07,20,15,13,29,1.5,0.8,1.3*33
$GPGSV,4,1,14,05,01,026,25,07,15,321,38,08,19,287,26,10,30,160,43*7D
$GPGSV,4,2,14,13,08,037,38,15,11,067,25,16,64,226,41,18,53,067,34*72
$GPGSV,4,3,14,20,11,037,39,23,48,122,39,26,43,190,43,27,53,287,33*73
$GPGSV,4,4,14,29,05,103,19,30,00,353,09*77
$GPGLL,5405.9696,N,01206.3619,E,125006.000,A,A*55
$WIMWV,39.6,R,9.0,N,A*16
$WIMWV,41.2,R,9.0,N,A*1d
$WIMWV,37.8,R,9.0,N,A*16
$WIMWV,30.6,R,9.0,N,A*1f
$WIMWV,30.6,R,9.0,N,A*1f
$WIMWV,33.4,R,9.0,N,A*1e
$WIMWV,38.2,R,9.4,N,A*17
$WIMWV,39.4,R,9.0,N,A*14
$WIMWV,38.4,R,9.0,N,A*15
$WIMWV,37.0,R,9.0,N,A*1e
$GPRMC,125007.000,A,5405.9701,N,01206.3605,E,3.28,293.56,310521,,,A*67
$GPVTG,293.56,T,,M,3.28,N,6.1,K,A*08
$GPGGA,125007.000,5405.9701,N,01206.3605,E,1,12,0.8,-7.7,M,41.9,M,,0000*79
$GPGSA,A,3,16,18,27,23,26,10,08,07,20,15,13,29,1.5,0.8,1.3*33
$GPGSV,4,1,14,05,01,026,24,07,15,321,39,08,19,287,25,10,30,160,44*79
$GPGSV,4,2,14,13,08,037,39,15,11,067,24,16,64,226,40,18,53,067,38*7F
$GPGSV,4,3,14,20,11,037,36,23,48,122,39,26,43,190,42,27,53,287,33*7D
$GPGSV,4,4,14,29,05,103,20,30,00,353,09*7D
$GPGLL,5405.9701,N,01206.3605,E,125007.000,A,A*56
$WIMWV,36.7,R,9.4,N,A*1c
$WIMWV,38.5,R,8.6,N,A*13
$WIMWV,42.1,R,9.0,N,A*1d
$WIMWV,43.7,R,8.6,N,A*1d
$WIMWV,40.5,R,9.0,N,A*1b
$WIMWV,35.7,R,8.6,N,A*1c
$WIMWV,36.4,R,8.6,N,A*1c
$WIMWV,39.3,R,8.6,N,A*14
$WIMWV,42.5,R,9.0,N,A*19
$WIMWV,43.8,R,8.6,N,A*12
$GPRMC,125008.000,A,5405.9705,N,01206.3590,E,3.28,295.14,310521,,,A*63
$GPVTG,295.14,T,,M,3.28,N,6.1,K,A*08
$GPGGA,125008.000,5405.9705,N,01206.3590,E,1,12,0.8,-7.7,M,41.9,M,,0000*7D
$GPGSA,A,3,16,18,27,23,26,10,08,07,20,15,13,29,1.5,0.8,1.3*33
$GPGSV,4,1,14,05,01,026,24,07,15,321,38,08,19,287,25,10,30,160,44*78
$GPGSV,4,2,14,13,08,037,39,15,11,067,23,16,64,226,38,18,53,067,36*79
$GPGSV,4,3,14,20,11,037,36,23,48,122,41,26,43,190,44,27,53,287,33*74
$GPGSV,4,4,14,29,05,103,22,30,00,353,10*77
$GPGLL,5405.9705,N,01206.3590,E,125008.000,A,A*52
$WIMWV,41.8,R,8.6,N,A*10
$WIMWV,42.8,R,8.6,N,A*13
$WIMWV,43.2,R,8.6,N,A*18
$WIMWV,41.8,R,8.6,N,A*10
$WIMWV,39.3,R,8.6,N,A*14
$WIMWV,39.0,R,9.0,N,A*10
$WIMWV,41.0,R,8.6,N,A*18
$WIMWV,43.9,R,8.6,N,A*13
$WIMWV,44.5,R,9.0,N,A*1f
$WIMWV,42.5,R,8.6,N,A*1e
$GPRMC,125009.000,A,5405.9709,N,01206.3574,E,3.33,294.07,310521,,,A*6D
$GPVTG,294.07,T,,M,3.33,N,6.2,K,A*02
$GPGGA,125009.000,5405.9709,N,01206.3574,E,1,12,0.8,-7.7,M,41.9,M,,0000*7A
$GPGSA,A,3,16,18,27,23,26,10,08,07,20,15,13,29,1.5,0.8,1.3*33
$GPGSV,4,1,14,05,01,026,23,07,15,321,38,08,19,287,25,10,30,160,44*7F
$GPGSV,4,2,14,13,08,037,39,15,11,067,24,16,64,226,41,18,53,067,35*73
$GPGSV,4,3,14,20,11,037,35,23,48,122,39,26,43,190,42,27,53,287,34*79
$GPGSV,4,4,14,29,05,103,21,30,00,353,09*7C
$GPGLL,5405.9709,N,01206.3574,E,125009.000,A,A*55
$WIMWV,39.3,R,9.0,N,A*13
$WIMWV,38.5,R,9.0,N,A*14
$WIMWV,41.0,R,9.0,N,A*1f
$WIMWV,44.4,R,9.0,N,A*1e
$WIMWV,45.2,R,9.4,N,A*1d
$WIMWV,43.6,R,9.0,N,A*1b
$WIMWV,39.7,R,9.4,N,A*13
$WIMWV,37.1,R,9.0,N,A*1f
$WIMWV,37.4,R,9.4,N,A*1e
$WIMWV,39.3,R,9.4,N,A*17
$GPRMC,125010.000,A,5405.9713,N,01206.3559,E,3.28,295.08,310521,,,A*65
$GPVTG,295.08,T,,M,3.28,N,6.1,K,A*05
$GPGGA,125010.000,5405.9713,N,01206.3559,E,1,12,0.8,-7.7,M,41.9,M,,0000*76
$GPGSA,A,3,16,18,27,23,26,10,08,07,20,15,13,29,1.5,0.8,1.3*33
$GPGSV,4,1,14,05,01,026,23,07,15,321,38,08,19,287,25,10,30,160,44*7F
$GPGSV,4,2,14,13,08,037,39,15,11,067,26,16,64,226,37,18,53,067,39*7C
$GPGSV,4,3,14,20,11,037,36,23,48,122,39,26,43,190,42,27,53,287,31*7F
$GPGSV,4,4,14,29,05,103,22,30,00,353,09*7F
$GPGLL,5405.9713,N,01206.3559,E,125010.000,A,A*59
$WIMWV,40.9,R,9.4,N,A*13
$WIMWV,42.0,R,9.0,N,A*1c
$WIMWV,40.1,R,9.4,N,A*1b
$WIMWV,39.2,R,9.0,N,A*12
$WIMWV,39.1,R,9.4,N,A*15
$WIMWV,40.3,R,9.4,N,A*19
$WIMWV,41.7,R,9.0,N,A*18
$WIMWV,42.8,R,9.4,N,A*10
$WIMWV,42.6,R,9.4,N,A*1e
$WIMWV,42.3,R,9.0,N,A*1f
$GPRMC,125011.000,A,5405.9717,N,01206.3544,E,3.31,295.62,310521,,,A*68
$GPVTG,295.62,T,,M,3.31,N,6.1,K,A*01
$GPGGA,125011.000,5405.9717,N,01206.3544,E,1,12,0.8,-7.8,M,41.9,M,,0000*70
$GPGSA,A,3,16,18,27,23,26,10,08,07,20,15,13,29,1.5,0.8,1.3*33
$GPGSV,4,1,14,05,01,026,22,07,15,321,37,08,19,287,27,10,30,160,43*74
$GPGSV,4,2,14,13,08,037,38,15,11,067,25,16,64,226,37,18,53,067,38*7F
$GPGSV,4,3,14,20,11,037,37,23,48,122,37,26,43,190,42,27,53,287,33*72
$GPGSV,4,4,14,29,05,103,22,30,00,353,09*7F
$GPGLL,5405.9717,N,01206.3544,E,125011.000,A,A*50
$WIMWV,42.1,R,9.4,N,A*19
$WIMWV,40.6,R,9.0,N,A*18
$WIMWV,41.0,R,9.4,N,A*1b
$WIMWV,42.2,R,9.0,N,A*1e
$WIMWV,43.1,R,9.0,N,A*1c
$WIMWV,43.6,R,9.0,N,A*1b
$WIMWV,42.4,R,9.0,N,A*18
$WIMWV,40.8,R,9.0,N,A*16
$WIMWV,39.3,R,9.0,N,A*13
$WIMWV,38.5,R,9.0,N,A*14
$GPRMC,125012.000,A,5405.9721,N,01206.3529,E,3.32,296.09,310521,,,A*68
$GPVTG,296.09,T,,M,3.32,N,6.1,K,A*0C
$GPGGA,125012.000,5405.9721,N,01206.3529,E,1,12,0.8,-8.0,M,41.9,M,,0000*7A
$GPGSA,A,3,16,18,27,23,26,10,08,07,20,15,13,29,1.5,0.8,1.3*33
$GPGSV,4,1,14,05,01,026,24,07,15,321,39,08,19,287,32,10,30,160,43*78
$GPGSV,4,2,14,13,08,037,40,15,11,067,26,16,64,226,40,18,53,067,36*7D
$GPGSV,4,3,14,20,11,037,37,23,48,122,38,26,43,190,44,27,53,287,34*7C
$GPGSV,4,4,14,29,05,103,23,30,00,353,*77
$GPGLL,5405.9721,N,01206.3529,E,125012.000,A,A*5D
$WIMWV,40.0,R,9.0,N,A*1e
$WIMWV,41.6,R,9.0,N,A*19
$WIMWV,41.5,R,9.0,N,A*1a
$WIMWV,39.9,R,9.0,N,A*19
$WIMWV,38.7,R,9.0,N,A*16
$WIMWV,39.1,R,9.0,N,A*11
$WIMWV,40.7,R,9.0,N,A*19
$WIMWV,41.0,R,9.0,N,A*1f
$WIMWV,41.6,R,9.0,N,A*19
$WIMWV,41.4,R,9.0,N,A*1b
$GPRMC,125013.000,A,5405.9725,N,01206.3513,E,3.37,296.30,310521,,,A*6B
$GPVTG,296.30,T,,M,3.37,N,6.2,K,A*00
$GPGGA,125013.000,5405.9725,N,01206.3513,E,1,12,0.8,-8.3,M,41.9,M,,0000*75
$GPGSA,A,3,16,18,27,23,26,10,08,07,20,15,13,29,1.5,0.8,1.3*33
$GPGSV,4,1,14,05,01,026,24,07,15,321,37,08,19,287,28,10,30,160,45*7B
$GPGSV,4,2,14,13,08,037,41,15,11,067,25,16,64,226,41,18,53,067,38*70
$GPGSV,4,3,14,20,11,037,40,23,48,122,40,26,43,190,43,27,53,287,34*74
$GPGSV,4,4,14,29,05,103,23,30,00,353,18*7E
$GPGLL,5405.9725,N,01206.3513,E,125013.000,A,A*51
$WIMWV,39.2,R,9.0,N,A*12
$WIMWV,37.2,R,9.0,N,A*1c
$WIMWV,36.7,R,9.0,N,A*18
$WIMWV,37.4,R,9.0,N,A*1a
$WIMWV,37.7,R,8.6,N,A*1e
$WIMWV,37.7,R,9.0,N,A*19
$WIMWV,37.4,R,9.0,N,A*1a
$WIMWV,36.5,R,9.0,N,A*1a
$WIMWV,37.0,R,8.6,N,A*19
$WIMWV,37.7,R,9.0,N,A*19
$GPRMC,125014.000,A,5405.9729,N,01206.3498,E,3.38,296.52,310521,,,A*69
$GPVTG,296.52,T,,M,3.38,N,6.3,K,A*0A
$GPGGA,125014.000,5405.9729,N,01206.3498,E,1,12,0.8,-8.4,M,41.9,M,,0000*7B
$GPGSA,A,3,16,18,27,23,26,10,08,07,20,15,13,29,1.5,0.8,1.3*33
$GPGSV,4,1,14,05,01,026,23,07,15,321,37,08,19,287,29,10,30,160,43*7B
$GPGSV,4,2,14,13,08,037,39,15,11,067,27,16,64,226,40,18,53,067,36*72
$GPGSV,4,3,14,20,11,037,39,23,48,122,38,26,43,190,43,27,53,287,33*72
$GPGSV,4,4,14,29,05,103,24,30,00,353,16*77
$GPGLL,5405.9729,N,01206.3498,E,125014.000,A,A*58
$WIMWV,39.0,R,8.6,N,A*17
$WIMWV,39.8,R,9.0,N,A*18
$WIMWV,39.6,R,9.0,N,A*16
$WIMWV,39.3,R,8.6,N,A*14
$WIMWV,37.3,R,9.0,N,A*1d
$WIMWV,37.6,R,8.6,N,A*1f
$WIMWV,37.9,R,8.6,N,A*10
$WIMWV,39.1,R,9.0,N,A*11
$WIMWV,40.1,R,8.6,N,A*18
$WIMWV,41.7,R,8.6,N,A*1f
$GPRMC,125015.000,A,5405.9733,N,01206.3483,E,3.34,297.64,310521,,,A*61
$GPVTG,297.64,T,,M,3.34,N,6.2,K,A*03
$GPGGA,125015.000,5405.9733,N,01206.3483,E,1,12,0.8,-8.6,M,41.9,M,,0000*79
$GPGSA,A,3,16,18,27,23,26,10,08,07,20,15,13,29,1.5,0.8,1.3*33
$GPGSV,4,1,14,05,01,026,22,07,15,321,37,08,19,287,29,10,30,160,41*78
$GPGSV,4,2,14,13,08,037,41,15,11,067,29,16,64,226,40,18,53,067,35*70
$GPGSV,4,3,14,20,11,037,40,23,48,122,38,26,43,190,43,27,53,287,33*7C
$GPGSV,4,4,14,29,05,103,23,30,00,353,17*71
$GPGLL,5405.9733,N,01206.3483,E,125015.000,A,A*58
$WIMWV,42.3,R,8.6,N,A*18
$WIMWV,42.6,R,8.6,N,A*1d
$WIMWV,40.5,R,8.6,N,A*1c
$WIMWV,37.9,R,8.2,N,A*14
$WIMWV,37.2,R,8.6,N,A*1b
$WIMWV,36.8,R,8.2,N,A*14
$WIMWV,37.5,R,8.2,N,A*18
$WIMWV,38.4,R,8.2,N,A*16
$WIMWV,39.3,R,7.8,N,A*15
$WIMWV,40.2,R,8.2,N,A*1f
$GPRMC,125016.000,A,5405.9737,N,01206.3468,E,3.35,297.77,310521,,,A*60
$GPVTG,297.77,T,,M,3.35,N,6.2,K,A*00
$GPGGA,125016.000,5405.9737,N,01206.3468,E,1,12,0.8,-8.7,M,41.9,M,,0000*7A
$GPGSA,A,3,16,18,27,23,26,10,08,07,20,15,13,29,1.5,0.8,1.3*33
$GPGSV,4,1,14,05,01,026,23,07,15,321,35,08,19,287,31,10,30,160,43*70
$GPGSV,4,2,14,13,08,037,41,15,11,067,30,16,64,226,41,18,53,067,35*79
$GPGSV,4,3,14,20,11,037,40,23,48,122,37,26,43,190,44,27,53,287,33*74
$GPGSV,4,4,14,29,05,103,22,30,00,353,20*74
$GPGLL,5405.9737,N,01206.3468,E,125016.000,A,A*5A
$WIMWV,38.4,R,8.2,N,A*16
$WIMWV,38.3,R,7.8,N,A*14
$WIMWV,37.6,R,8.2,N,A*1b
$WIMWV,37.0,R,7.8,N,A*18
$WIMWV,35.7,R,7.8,N,A*1d
$WIMWV,34.0,R,7.8,N,A*1b
$WIMWV,31.4,R,7.8,N,A*1a
$WIMWV,33.3,R,7.8,N,A*1f
$WIMWV,34.8,R,7.8,N,A*13
$WIMWV,31.9,R,7.8,N,A*17
$GPRMC,125017.000,A,5405.9741,N,01206.3454,E,3.36,298.32,310521,,,A*62
$GPVTG,298.32,T,,M,3.36,N,6.2,K,A*0D
$GPGGA,125017.000,5405.9741,N,01206.3454,E,1,12,0.8,-8.9,M,41.9,M,,0000*7B
$GPGSA,A,3,16,18,27,23,26,10,08,07,20,15,13,29,1.5,0.8,1.3*33
$GPGSV,4,1,14,05,01,026,23,07,15,321,35,08,19,287,30,10,30,160,43*71
$GPGSV,4,2,14,13,08,037,41,15,11,067,24,16,64,226,41,18,53,067,36*7F
$GPGSV,4,3,14,20,11,037,41,23,48,122,37,26,43,190,41,27,53,287,36*75
$GPGSV,4,4,14,29,05,103,21,30,00,353,20*77
$GPGLL,5405.9741,N,01206.3454,E,125017.000,A,A*55
$WIMWV,30.3,R,7.8,N,A*1c
$WIMWV,29.1,R,7.8,N,A*16
$WIMWV,27.2,R,7.8,N,A*1b
$WIMWV,27.3,R,8.2,N,A*1f
$WIMWV,28.6,R,7.8,N,A*10
$WIMWV,31.7,R,7.8,N,A*19
$WIMWV,32.8,R,8.2,N,A*10
$WIMWV,31.5,R,8.2,N,A*1e
$WIMWV,27.8,R,8.6,N,A*10
$WIMWV,26.6,R,8.2,N,A*1b
$GPRMC,125018.000,A,5405.9745,N,01206.3440,E,3.30,298.88,310521,,,A*6B
$GPVTG,298.88,T,,M,3.30,N,6.1,K,A*09
$GPGGA,125018.000,5405.9745,N,01206.3440,E,1,12,0.8,-9.0,M,41.9,M,,0000*7D
$GPGSA,A,3,16,18,27,23,26,10,08,07,20,15,13,29,1.5,0.8,1.3*33
$GPGSV,4,1,14,05,01,026,23,07,15,321,35,08,19,287,31,10,30,160,42*71
$GPGSV,4,2,14,13,08,037,41,15,11,067,26,16,64,226,41,18,53,067,36*7D
$GPGSV,4,3,14,20,11,037,41,23,48,122,36,26,43,190,40,27,53,287,33*70
$GPGSV,4,4,14,29,05,103,19,30,00,353,19*76
$GPGLL,5405.9745,N,01206.3440,E,125018.000,A,A*5B
$WIMWV,28.0,R,8.6,N,A*17
$WIMWV,30.6,R,8.6,N,A*18
$WIMWV,30.1,R,8.6,N,A*1f
$WIMWV,27.4,R,8.6,N,A*1c
$WIMWV,25.9,R,8.6,N,A*13
$WIMWV,27.4,R,8.6,N,A*1c
$WIMWV,30.1,R,9.0,N,A*18
$WIMWV,31.1,R,8.6,N,A*1e
$WIMWV,29.3,R,8.6,N,A*15
$WIMWV,28.3,R,8.6,N,A*14
$GPRMC,125019.000,A,5405.9750,N,01206.3426,E,3.25,298.87,310521,,,A*65
$GPVTG,298.87,T,,M,3.25,N,6.0,K,A*03
$GPGGA,125019.000,5405.9750,N,01206.3426,E,1,12,0.8,-9.2,M,41.9,M,,0000*7A
$GPGSA,A,3,16,18,27,23,26,10,08,07,20,15,13,29,1.5,0.8,1.3*33
$GPGSV,4,1,14,05,01,026,24,07,15,321,34,08,19,287,29,10,30,160,43*7F
$GPGSV,4,2,14,13,08,037,41,15,11,067,26,16,64,226,41,18,53,067,30*7B
$GPGSV,4,3,14,20,11,037,41,23,48,122,37,26,43,190,42,27,53,287,36*76
$GPGSV,4,4,14,29,05,103,20,30,00,353,18*7D
$GPGLL,5405.9750,N,01206.3426,E,125019.000,A,A*5E
$WIMWV,29.9,R,8.6,N,A*1f
$WIMWV,31.3,R,8.6,N,A*1c
$WIMWV,30.0,R,9.0,N,A*19
$WIMWV,26.8,R,8.6,N,A*11
$WIMWV,27.2,R,9.0,N,A*1d
$WIMWV,29.7,R,8.6,N,A*11
$WIMWV,30.9,R,9.0,N,A*10
$WIMWV,31.8,R,8.6,N,A*17
$WIMWV,30.8,R,9.0,N,A*11
$WIMWV,29.0,R,8.6,N,A*16
$GPRMC,125020.000,A,5405.9754,N,01206.3412,E,3.19,298.94,310521,,,A*61
$GPVTG,298.94,T,,M,3.19,N,5.9,K,A*04
$GPGGA,125020.000,5405.9754,N,01206.3412,E,1,12,0.8,-9.2,M,41.9,M,,0000*73
$GPGSA,A,3,16,18,27,23,26,10,08,07,20,15,13,29,1.5,0.8,1.3*33
$GPGSV,4,1,14,05,01,026,26,07,15,321,34,08,19,287,30,10,30,160,43*75
$GPGSV,4,2,14,13,08,037,41,15,11,067,26,16,64,226,42,18,53,067,36*7E
$GPGSV,4,3,14,20,11,037,40,23,48,122,37,26,43,190,40,27,53,287,36*75
$GPGSV,4,4,14,29,05,103,20,30,00,353,17*72
$GPGLL,5405.9754,N,01206.3412,E,125020.000,A,A*57
$WIMWV,27.0,R,9.0,N,A*1f
$WIMWV,26.9,R,8.6,N,A*10
$WIMWV,30.3,R,8.6,N,A*1d
$WIMWV,35.7,R,8.6,N,A*1c
$WIMWV,38.8,R,8.6,N,A*1e
$WIMWV,37.9,R,8.2,N,A*14
$WIMWV,32.6,R,8.2,N,A*1e
$WIMWV,26.1,R,8.2,N,A*1c
$WIMWV,24.2,R,8.2,N,A*1d
$WIMWV,27.0,R,8.2,N,A*1c
$GPRMC,125021.000,A,5405.9758,N,01206.3399,E,3.18,298.11,310521,,,A*64
$GPVTG,298.11,T,,M,3.18,N,5.9,K,A*08
$GPGGA,125021.000,5405.9758,N,01206.3399,E,1,12,0.8,-9.3,M,41.9,M,,0000*7B
$GPGSA,A,3,16,18,27,23,26,10,08,07,20,15,13,29,1.5,0.8,1.3*33
$GPGSV,4,1,14,05,01,026,26,07,15,321,35,08,19,287,31,10,30,160,44*72
$GPGSV,4,2,14,13,08,037,41,15,11,067,27,16,64,226,43,18,53,067,34*7C
$GPGSV,4,3,14,20,11,037,40,23,48,122,37,26,43,190,41,27,53,287,35*77
$GPGSV,4,4,14,29,05,103,20,30,00,353,15*70
$GPGLL,5405.9758,N,01206.3399,E,125021.000,A,A*5E
$WIMWV,30.4,R,8.6,N,A*1a
$WIMWV,32.2,R,8.2,N,A*1a
$WIMWV,32.1,R,8.2,N,A*19
$WIMWV,32.9,R,8.6,N,A*15
$WIMWV,33.6,R,8.2,N,A*1f
$WIMWV,34.6,R,8.2,N,A*18
$WIMWV,35.7,R,8.2,N,A*18
$WIMWV,36.5,R,7.8,N,A*1c
$WIMWV,38.4,R,8.2,N,A*16
$WIMWV,41.6,R,7.8,N,A*1f
$GPRMC,125022.000,A,5405.9762,N,01206.3385,E,3.14,297.45,310521,,,A*61
$GPVTG,297.45,T,,M,3.14,N,5.8,K,A*0B
$GPGGA,125022.000,5405.9762,N,01206.3385,E,1,12,0.8,-9.4,M,41.9,M,,0000*7B
$GPGSA,A,3,16,18,27,23,26,10,08,07,20,15,13,29,1.5,0.8,1.3*33
$GPGSV,4,1,14,05,01,026,26,07,15,321,36,08,19,287,30,10,30,160,44*70
$GPGSV,4,2,14,13,08,037,41,15,11,067,33,16,64,226,41,18,53,067,34*7B
$GPGSV,4,3,14,20,11,037,41,23,48,122,35,26,43,190,41,27,53,287,34*75
$GPGSV,4,4,14,29,05,103,21,30,00,353,18*7C
$GPGLL,5405.9762,N,01206.3385,E,125022.000,A,A*59
$WIMWV,43.9,R,7.8,N,A*12
$WIMWV,45.7,R,7.8,N,A*1a
$WIMWV,45.1,R,7.8,N,A*1c
$WIMWV,41.9,R,8.2,N,A*15
$WIMWV,36.5,R,7.8,N,A*1c
$WIMWV,32.8,R,7.4,N,A*19
$WIMWV,34.6,R,7.8,N,A*1d
$WIMWV,39.3,R,7.4,N,A*19
$WIMWV,42.3,R,7.4,N,A*15
$WIMWV,42.6,R,7.8,N,A*1c
$GPRMC,125023.000,A,5405.9766,N,01206.3371,E,3.11,297.12,310521,,,A*68
$GPVTG,297.12,T,,M,3.11,N,5.8,K,A*0C
$GPGGA,125023.000,5405.9766,N,01206.3371,E,1,12,0.8,-9.5,M,41.9,M,,0000*74
$GPGSA,A,3,16,18,27,23,26,10,08,07,20,15,13,29,1.5,0.8,1.3*33
$GPGSV,4,1,14,05,01,026,26,07,15,321,37,08,19,287,30,10,30,160,43*76
$GPGSV,4,2,14,13,08,037,41,15,11,067,32,16,64,226,42,18,53,067,37*7A
$GPGSV,4,3,14,20,11,037,40,23,48,122,38,26,43,190,41,27,53,287,33*7E
$GPGSV,4,4,14,29,05,103,20,30,00,353,20*76
$GPGLL,5405.9766,N,01206.3371,E,125023.000,A,A*57
$WIMWV,40.1,R,7.0,N,A*11
$WIMWV,37.4,R,7.4,N,A*10
$WIMWV,37.9,R,7.4,N,A*1d
$WIMWV,38.9,R,7.0,N,A*16
$WIMWV,39.4,R,7.4,N,A*1e
$WIMWV,38.9,R,7.0,N,A*16
$WIMWV,37.4,R,7.4,N,A*10
$WIMWV,36.8,R,7.0,N,A*19
$WIMWV,37.9,R,7.4,N,A*1d
$WIMWV,38.8,R,7.0,N,A*17
$GPRMC,125024.000,A,5405.9770,N,01206.3357,E,3.15,296.23,310521,,,A*6B
$GPVTG,296.23,T,,M,3.15,N,5.8,K,A*0B
$GPGGA,125024.000,5405.9770,N,01206.3357,E,1,12,0.9,-9.6,M,41.9,M,,0000*72
$GPGSA,A,3,16,18,27,23,26,10,08,07,20,15,13,29,1.8,0.9,1.6*3A
$GPGSV,4,1,14,05,01,026,25,07,15,321,37,08,19,287,29,10,30,160,44*7A
$GPGSV,4,2,14,13,08,037,40,15,11,067,28,16,64,226,41,18,53,067,37*73
$GPGSV,4,3,14,20,11,037,39,23,48,122,38,26,43,190,41,27,53,287,34*77
$GPGSV,4,4,14,29,05,103,22,30,00,353,22*76
$GPGLL,5405.9770,N,01206.3357,E,125024.000,A,A*53
$WIMWV,39.4,R,7.4,N,A*1e
$WIMWV,40.4,R,7.0,N,A*14
$WIMWV,43.9,R,7.4,N,A*1e
$WIMWV,46.9,R,7.0,N,A*1f
$WIMWV,48.0,R,7.4,N,A*1c
$WIMWV,46.6,R,7.4,N,A*14
$WIMWV,43.8,R,7.4,N,A*1f
$WIMWV,40.3,R,7.0,N,A*13
$WIMWV,37.3,R,7.4,N,A*17
$WIMWV,37.1,R,7.0,N,A*11
$GPRMC,125025.000,A,5405.9774,N,01206.3343,E,3.15,295.76,310521,,,A*68
$GPVTG,295.76,T,,M,3.15,N,5.8,K,A*08
$GPGGA,125025.000,5405.9774,N,01206.3343,E,1,12,0.8,-9.5,M,41.9,M,,0000*70
$GPGSA,A,3,16,18,27,23,26,10,08,07,20,15,13,29,1.5,0.8,1.3*33
$GPGSV,4,1,14,05,01,026,23,07,15,321,38,08,19,287,28,10,30,160,43*75
$GPGSV,4,2,14,13,08,037,39,15,11,067,27,16,64,226,42,18,53,067,39*7F
$GPGSV,4,3,14,20,11,037,37,23,48,122,40,26,43,190,42,27,53,287,33*72
$GPGSV,4,4,14,29,05,103,23,30,00,353,23*76
$GPGLL,5405.9774,N,01206.3343,E,125025.000,A,A*53
$WIMWV,38.1,R,7.4,N,A*1a
$WIMWV,39.1,R,7.4,N,A*1b
$WIMWV,38.6,R,7.0,N,A*19
$WIMWV,39.4,R,7.4,N,A*1e
$WIMWV,40.2,R,7.8,N,A*1a
$WIMWV,41.4,R,7.4,N,A*11
$WIMWV,41.8,R,7.4,N,A*1d
$WIMWV,40.6,R,7.4,N,A*12
$WIMWV,39.7,R,7.4,N,A*1d
$WIMWV,40.4,R,7.4,N,A*10
$GPRMC,125026.000,A,5405.9778,N,01206.3327,E,3.21,294.77,310521,,,A*62
$GPVTG,294.77,T,,M,3.21,N,6.0,K,A*04
$GPGGA,125026.000,5405.9778,N,01206.3327,E,1,12,0.8,-9.7,M,41.9,M,,0000*7F
$GPGSA,A,3,16,18,27,23,26,10,08,07,20,15,13,29,1.5,0.8,1.3*33
$GPGSV,4,1,14,05,01,026,22,07,15,321,40,08,19,287,28,10,30,160,45*7D
$GPGSV,4,2,14,13,08,037,40,15,11,067,26,16,64,226,42,18,53,067,34*7D
$GPGSV,4,3,14,20,11,037,39,23,48,122,42,26,43,190,41,27,53,287,33*7D
$GPGSV,4,4,14,29,05,103,24,30,00,353,23*71
$GPGLL,5405.9778,N,01206.3327,E,125026.000,A,A*5E
$WIMWV,42.3,R,7.4,N,A*15
$WIMWV,45.2,R,7.4,N,A*13
$WIMWV,49.2,R,7.4,N,A*1f
$WIMWV,51.7,R,7.4,N,A*13
$WIMWV,49.4,R,7.4,N,A*19
$WIMWV,42.5,R,7.0,N,A*17
$WIMWV,37.2,R,7.4,N,A*16
$WIMWV,34.4,R,7.4,N,A*13
$WIMWV,34.0,R,7.4,N,A*17
$WIMWV,37.5,R,7.4,N,A*11
$GPRMC,125027.000,A,5405.9782,N,01206.3313,E,3.28,294.69,310521,,,A*67
$GPVTG,294.69,T,,M,3.28,N,6.1,K,A*03
$GPGGA,125027.000,5405.9782,N,01206.3313,E,1,12,0.8,-9.5,M,41.9,M,,0000*7E
$GPGSA,A,3,16,18,27,23,26,10,08,07,20,15,13,29,1.5,0.8,1.3*33
$GPGSV,4,1,14,05,01,026,21,07,15,321,38,08,19,287,28,10,30,160,44*70
$GPGSV,4,2,14,13,08,037,40,15,11,067,25,16,64,226,43,18,53,067,41*7D
$GPGSV,4,3,14,20,11,037,41,23,48,122,42,26,43,190,43,27,53,287,31*72
$GPGSV,4,4,14,29,05,103,24,30,00,353,23*71
$GPGLL,5405.9782,N,01206.3313,E,125027.000,A,A*5D
$WIMWV,42.1,R,7.4,N,A*17
$WIMWV,46.0,R,7.8,N,A*1e
$WIMWV,45.9,R,7.4,N,A*18
$WIMWV,43.0,R,7.4,N,A*17
$WIMWV,40.8,R,7.8,N,A*10
$WIMWV,38.6,R,7.4,N,A*1d
$WIMWV,35.6,R,8.2,N,A*19
$WIMWV,32.9,R,7.8,N,A*14
$WIMWV,33.3,R,8.2,N,A*1a
$WIMWV,35.0,R,8.2,N,A*1f
$GPRMC,125028.000,A,5405.9787,N,01206.3298,E,3.25,294.38,310521,,,A*66
$GPVTG,294.38,T,,M,3.25,N,6.0,K,A*0B
$GPGGA,125028.000,5405.9787,N,01206.3298,E,1,11,0.9,-9.4,M,41.9,M,,0000*75
$GPGSA,A,3,16,18,27,23,26,10,08,07,20,15,13,,1.7,0.9,1.5*3D
$GPGSV,4,1,14,05,01,026,20,07,15,321,40,08,19,287,32,10,31,159,43*79
$GPGSV,4,2,14,13,08,037,40,15,11,067,24,16,64,226,44,18,53,067,41*7B
$GPGSV,4,3,14,20,11,037,41,23,48,122,43,26,43,190,43,27,53,287,29*7A
$GPGSV,4,4,14,29,05,103,,30,00,353,24*70
$GPGLL,5405.9787,N,01206.3298,E,125028.000,A,A*55
$WIMWV,36.5,R,8.6,N,A*1d
$WIMWV,37.3,R,8.6,N,A*1a
$WIMWV,37.0,R,8.6,N,A*19
$WIMWV,37.9,R,8.6,N,A*10
$WIMWV,40.2,R,9.0,N,A*1c
$WIMWV,39.3,R,9.0,N,A*13
$WIMWV,35.9,R,9.0,N,A*15
$WIMWV,35.1,R,9.0,N,A*1d
$WIMWV,37.9,R,9.0,N,A*17
$WIMWV,42.2,R,9.0,N,A*1e
$GPRMC,125029.000,A,5405.9790,N,01206.3283,E,3.24,293.42,310521,,,A*60
$GPVTG,293.42,T,,M,3.24,N,6.0,K,A*00
$GPGGA,125029.000,5405.9790,N,01206.3283,E,1,11,0.9,-9.5,M,41.9,M,,0000*79
$GPGSA,A,3,16,18,27,23,26,10,08,07,20,15,13,,1.7,0.9,1.5*3D
$GPGSV,4,1,14,05,01,026,20,07,15,321,39,08,19,287,29,10,31,159,43*7D
$GPGSV,4,2,14,13,08,037,39,15,11,067,23,16,64,226,43,18,53,067,36*75
$GPGSV,4,3,14,20,11,037,41,23,48,122,43,26,43,190,43,27,53,287,29*7A
$GPGSV,4,4,14,29,05,103,,30,00,353,24*70
$GPGLL,5405.9790,N,01206.3283,E,125029.000,A,A*58
$WIMWV,45.2,R,9.0,N,A*19
$WIMWV,44.0,R,9.4,N,A*1e
$WIMWV,41.2,R,9.0,N,A*1d
$WIMWV,38.4,R,9.0,N,A*15
$WIMWV,38.2,R,9.0,N,A*13
$WIMWV,41.2,R,9.0,N,A*1d
$WIMWV,43.7,R,9.0,N,A*1a
$WIMWV,44.1,R,8.6,N,A*1c
$WIMWV,42.1,R,9.0,N,A*1d
$WIMWV,39.4,R,8.6,N,A*13
$GPRMC,125030.000,A,5405.9793,N,01206.3268,E,3.29,292.50,310521,,,A*61
$GPVTG,292.50,T,,M,3.29,N,6.1,K,A*0E
$GPGGA,125030.000,5405.9793,N,01206.3268,E,1,11,0.9,-9.5,M,41.9,M,,0000*77
$GPGSA,A,3,16,18,27,23,26,10,08,07,20,15,13,,1.7,0.9,1.5*3D
$GPGSV,4,1,14,05,01,026,18,07,15,321,39,08,19,287,28,10,31,159,41*75
$GPGSV,4,2,14,13,08,037,37,15,11,067,24,16,64,226,40,18,53,067,35*7C
$GPGSV,4,3,14,20,11,037,37,23,48,122,42,26,43,190,43,27,53,287,22*71
$GPGSV,4,4,14,29,05,103,,30,00,353,22*76
$GPGLL,5405.9793,N,01206.3268,E,125030.000,A,A*56
$WIMWV,38.8,R,9.0,N,A*19
$WIMWV,40.1,R,8.6,N,A*18
$WIMWV,42.9,R,9.0,N,A*15
$WIMWV,45.1,R,8.6,N,A*1d
$WIMWV,43.4,R,9.0,N,A*19
$WIMWV,41.6,R,9.0,N,A*19
$WIMWV,40.7,R,8.6,N,A*1e
$WIMWV,41.6,R,9.0,N,A*19
$WIMWV,45.2,R,9.0,N,A*19
$WIMWV,45.9,R,8.6,N,A*15
$GPRMC,125031.000,A,5405.9797,N,01206.3254,E,3.31,291.96,310521,,,A*6B
$GPVTG,291.96,T,,M,3.31,N,6.1,K,A*0E
$GPGGA,125031.000,5405.9797,N,01206.3254,E,1,12,0.9,-9.6,M,41.9,M,,0000*7D
$GPGSA,A,3,16,18,27,23,26,10,08,07,20,15,13,29,1.7,0.9,1.5*36
$GPGSV,4,1,14,05,01,026,18,07,15,321,39,08,19,287,29,10,31,159,42*77
$GPGSV,4,2,14,13,08,037,37,15,11,067,24,16,64,226,40,18,53,067,35*7C
$GPGSV,4,3,14,20,11,037,36,23,48,122,43,26,43,190,40,27,53,287,29*79
$GPGSV,4,4,14,29,05,103,26,30,00,353,21*71
$GPGLL,5405.9797,N,01206.3254,E,125031.000,A,A*5C
$WIMWV,44.3,R,9.0,N,A*19
$WIMWV,43.4,R,9.0,N,A*19
$WIMWV,43.4,R,9.0,N,A*19
$WIMWV,43.6,R,9.0,N,A*1b
$WIMWV,43.5,R,8.6,N,A*1f
$WIMWV,43.8,R,9.0,N,A*15
$WIMWV,44.3,R,9.0,N,A*19
$WIMWV,44.9,R,9.0,N,A*13
$WIMWV,45.4,R,9.0,N,A*1f
$WIMWV,45.7,R,9.0,N,A*1c
$GPRMC,125032.000,A,5405.9800,N,01206.3239,E,3.33,290.65,310521,,,A*6D
$GPVTG,290.65,T,,M,3.33,N,6.2,K,A*02
$GPGGA,125032.000,5405.9800,N,01206.3239,E,1,12,0.8,-9.6,M,41.9,M,,0000*75
$GPGSA,A,3,16,18,27,23,26,10,08,07,20,15,13,29,1.5,0.8,1.3*33
$GPGSV,4,1,14,05,01,026,18,07,15,321,41,08,19,287,29,10,31,159,43*79
$GPGSV,4,2,14,13,08,037,37,15,11,067,26,16,64,226,40,18,53,067,37*7C
$GPGSV,4,3,14,20,11,037,37,23,48,122,43,26,43,190,41,27,53,287,27*77
$GPGSV,4,4,14,29,05,103,27,30,00,353,22*73
$GPGLL,5405.9800,N,01206.3239,E,125032.000,A,A*55
$WIMWV,45.9,R,9.0,N,A*12
$WIMWV,46.1,R,9.0,N,A*19
$WIMWV,45.8,R,8.6,N,A*14
$WIMWV,46.5,R,9.0,N,A*1d
$WIMWV,47.2,R,9.0,N,A*1b
$WIMWV,48.8,R,9.0,N,A*1e
$WIMWV,48.2,R,9.0,N,A*14
$WIMWV,46.7,R,8.6,N,A*18
$WIMWV,45.9,R,9.0,N,A*12
$WIMWV,48.1,R,8.6,N,A*10
$GPRMC,125033.000,A,5405.9803,N,01206.3225,E,3.36,289.47,310521,,,A*6F
$GPVTG,289.47,T,,M,3.36,N,6.2,K,A*0F
$GPGGA,125033.000,5405.9803,N,01206.3225,E,1,12,0.8,-9.2,M,41.9,M,,0000*7E
$GPGSA,A,3,16,18,27,23,26,10,08,07,20,15,13,29,1.5,0.8,1.3*33
$GPGSV,4,1,14,05,01,026,18,07,15,321,39,08,19,287,30,10,31,159,41*7C
$GPGSV,4,2,14,13,08,037,37,15,12,067,32,16,64,226,40,18,53,067,40*7A
$GPGSV,4,3,14,20,11,037,37,23,48,122,43,26,43,190,43,27,53,287,26*74
$GPGSV,4,4,14,29,05,103,27,30,00,353,23*72
$GPGLL,5405.9803,N,01206.3225,E,125033.000,A,A*5A
$WIMWV,49.3,R,8.6,N,A*13
$WIMWV,49.5,R,8.6,N,A*15
$WIMWV,48.6,R,8.6,N,A*17
$WIMWV,49.7,R,8.2,N,A*13
$WIMWV,50.7,R,8.6,N,A*1f
$WIMWV,50.5,R,8.6,N,A*1d
$WIMWV,50.1,R,8.2,N,A*1d
$WIMWV,48.8,R,8.2,N,A*1d
$WIMWV,45.6,R,8.6,N,A*1a
$GPRMC,125034.000,A,5405.9807,N,01206.3211,E,3.43,289.62,310521,,,A*6E
$GPVTG,289.62,T,,M,3.43,N,6.4,K,A*0C
$GPGGA,125034.000,5405.9807,N,01206.3211,E,1,12,0.8,-9.0,M,41.9,M,,0000*78
$GPGSA,A,3,16,18,27,23,26,10,08,07,20,15,13,29,1.5,0.8,1.3*33
$GPGSV,4,1,14,05,01,026,18,07,15,321,38,08,19,287,35,10,31,159,39*77
$GPGSV,4,2,14,13,08,037,37,15,12,067,31,16,64,225,37,18,53,067,39*74
$GPGSV,4,3,14,20,11,037,36,23,48,122,43,26,43,190,42,27,53,287,25*77
$GPGSV,4,4,14,29,05,103,27,30,00,353,21*70
$WIMWV,43.5,R,8.2,N,A*1b
$GPGLL,5405.9807,N,01206.3211,E,125034.000,A,A*5E
$WIMWV,40.9,R,8.6,N,A*10
$WIMWV,40.7,R,8.6,N,A*1e
$WIMWV,43.7,R,8.6,N,A*1d
$WIMWV,47.1,R,8.6,N,A*1f
$WIMWV,46.8,R,8.6,N,A*17
$WIMWV,44.2,R,8.6,N,A*1f
$WIMWV,44.1,R,9.0,N,A*1b
$WIMWV,45.9,R,8.6,N,A*15
$WIMWV,47.7,R,8.6,N,A*19
$WIMWV,49.0,R,9.0,N,A*17
$GPRMC,125035.000,A,5405.9810,N,01206.3197,E,3.47,288.43,310521,,,A*62
$GPVTG,288.43,T,,M,3.47,N,6.4,K,A*0A
$GPGGA,125035.000,5405.9810,N,01206.3197,E,1,12,0.8,-8.8,M,41.9,M,,0000*7B
$GPGSA,A,3,16,18,27,23,26,10,08,07,20,15,13,29,1.5,0.8,1.3*33
$GPGSV,4,1,14,05,01,026,18,07,15,321,40,08,19,287,34,10,31,159,40*77
$GPGSV,4,2,14,13,08,037,37,15,12,067,31,16,64,225,39,18,53,067,40*74
$GPGSV,4,3,14,20,11,037,36,23,48,122,44,26,43,190,41,27,53,287,25*73
$GPGSV,4,4,14,29,05,103,26,30,00,353,20*70
$GPGLL,5405.9810,N,01206.3197,E,125035.000,A,A*54
$WIMWV,49.5,R,8.6,N,A*15
$WIMWV,49.8,R,8.6,N,A*18
$WIMWV,49.6,R,8.2,N,A*12
$WIMWV,48.1,R,8.6,N,A*10
$WIMWV,48.3,R,8.6,N,A*12
$WIMWV,50.8,R,8.6,N,A*10
$WIMWV,52.3,R,8.2,N,A*1d
$WIMWV,50.8,R,8.6,N,A*10
$WIMWV,49.6,R,8.2,N,A*12
$WIMWV,47.6,R,8.6,N,A*18
$GPRMC,125036.000,A,5405.9813,N,01206.3181,E,3.55,288.67,310521,,,A*60
$GPVTG,288.67,T,,M,3.55,N,6.6,K,A*0D
$GPGGA,125036.000,5405.9813,N,01206.3181,E,1,12,0.8,-9.0,M,41.9,M,,0000*75
$GPGSA,A,3,16,18,27,23,26,10,08,07,20,15,13,29,1.5,0.8,1.3*33
$GPGSV,4,1,14,05,01,026,17,07,15,321,40,08,19,287,34,10,31,159,42*7A
$GPGSV,4,2,14,13,08,037,38,15,12,067,30,16,64,225,39,18,52,066,34*79
$GPGSV,4,3,14,20,11,037,33,23,48,122,44,26,43,190,42,27,53,287,24*74
$GPGSV,4,4,14,29,05,103,25,30,00,353,22*71
$GPGLL,5405.9813,N,01206.3181,E,125036.000,A,A*53
$WIMWV,48.3,R,8.2,N,A*16
$WIMWV,49.8,R,8.6,N,A*18
$WIMWV,50.3,R,8.2,N,A*1f
$WIMWV,49.3,R,8.6,N,A*13
$WIMWV,47.9,R,8.6,N,A*17
$WIMWV,45.6,R,8.2,N,A*1e
$WIMWV,45.0,R,8.6,N,A*1c
$WIMWV,48.7,R,8.6,N,A*16
$WIMWV,52.5,R,8.2,N,A*1b
$WIMWV,52.6,R,8.6,N,A*1c
$GPRMC,125037.000,A,5405.9816,N,01206.3165,E,3.64,287.92,310521,,,A*69
$GPVTG,287.92,T,,M,3.64,N,6.7,K,A*0B
$GPGGA,125037.000,5405.9816,N,01206.3165,E,1,12,0.8,-8.8,M,41.9,M,,0000*72
$GPGSA,A,3,16,18,27,23,26,10,08,07,20,15,13,29,1.5,0.8,1.3*33
$GPGSV,4,1,14,05,01,026,15,07,15,321,39,08,19,287,35,10,31,159,42*77
$GPGSV,4,2,14,13,08,037,39,15,12,067,29,16,64,225,39,18,52,066,39*7D
$GPGSV,4,3,14,20,11,037,36,23,48,122,44,26,43,190,42,27,53,287,24*71
$GPGSV,4,4,14,29,05,103,23,30,00,353,24*71
$GPGLL,5405.9816,N,01206.3165,E,125037.000,A,A*5D
$WIMWV,49.6,R,8.2,N,A*12
$WIMWV,46.6,R,8.6,N,A*19
$WIMWV,46.9,R,8.6,N,A*16
$WIMWV,50.4,R,8.6,N,A*1c
$WIMWV,52.7,R,8.6,N,A*1d
$WIMWV,51.3,R,8.6,N,A*1a
$WIMWV,50.4,R,8.6,N,A*1c
$WIMWV,48.9,R,9.0,N,A*1f
$WIMWV,49.5,R,8.6,N,A*15
$WIMWV,49.3,R,8.6,N,A*13
$GPRMC,125038.000,A,5405.9818,N,01206.3149,E,3.64,287.86,310521,,,A*63
$GPVTG,287.86,T,,M,3.64,N,6.7,K,A*0E
$GPGGA,125038.000,5405.9818,N,01206.3149,E,1,11,0.9,-9.0,M,41.9,M,,0000*76
$GPGSA,A,3,16,18,27,23,26,10,08,07,20,15,13,,1.7,0.9,1.5*3D
$GPGSV,4,1,14,05,01,026,15,07,15,321,40,08,19,287,35,10,31,159,40*7B
$GPGSV,4,2,14,13,08,037,37,15,12,067,30,16,64,225,39,18,52,066,36*74
$GPGSV,4,3,14,20,10,037,33,23,48,122,44,26,43,190,43,27,53,287,25*75
$GPGSV,4,4,14,29,05,103,,30,00,353,25*71
$GPGLL,5405.9818,N,01206.3149,E,125038.000,A,A*52
$WIMWV,50.3,R,8.6,N,A*1b
$WIMWV,50.7,R,8.6,N,A*1f
$WIMWV,51.1,R,8.6,N,A*18
$WIMWV,50.7,R,8.6,N,A*1f
$WIMWV,50.6,R,8.2,N,A*1a
$WIMWV,52.5,R,8.6,N,A*1f
$WIMWV,53.9,R,8.2,N,A*16
$WIMWV,52.9,R,8.2,N,A*17
$WIMWV,52.1,R,8.2,N,A*1f
$GPRMC,125039.000,A,5405.9821,N,01206.3133,E,3.68,288.05,310521,,,A*6D
$GPVTG,288.05,T,,M,3.68,N,6.8,K,A*09
$GPGGA,125039.000,5405.9821,N,01206.3133,E,1,11,0.9,-9.0,M,41.9,M,,0000*70
$GPGSA,A,3,16,18,27,23,26,10,08,07,20,15,13,,1.7,0.9,1.5*3D
$GPGSV,4,1,14,05,01,026,15,07,15,321,41,08,19,287,37,10,31,159,42*7A
$GPGSV,4,2,14,13,08,037,39,15,12,067,30,16,64,225,38,18,52,066,37*7A
$GPGSV,4,3,14,20,10,037,36,23,48,122,44,26,43,190,42,27,53,287,26*72
$WIMWV,51.7,R,8.2,N,A*1a
$GPGSV,4,4,14,29,05,103,,30,00,353,26*72
$GPGLL,5405.9821,N,01206.3133,E,125039.000,A,A*54
$WIMWV,51.3,R,8.2,N,A*1e
$WIMWV,52.5,R,8.2,N,A*1b
$WIMWV,51.8,R,8.2,N,A*15
$WIMWV,52.8,R,8.2,N,A*16
$WIMWV,53.8,R,8.2,N,A*17
$WIMWV,53.0,R,8.2,N,A*1f
$WIMWV,51.8,R,8.2,N,A*15
$WIMWV,51.7,R,8.2,N,A*1a
$WIMWV,51.9,R,7.8,N,A*11
$GPRMC,125040.000,A,5405.9824,N,01206.3117,E,3.69,288.05,310521,,,A*61
$GPVTG,288.05,T,,M,3.69,N,6.8,K,A*08
$GPGGA,125040.000,5405.9824,N,01206.3117,E,1,11,0.9,-8.8,M,41.9,M,,0000*74
$GPGSA,A,3,16,18,27,23,26,10,08,07,20,15,13,,1.8,0.9,1.5*32
$GPGSV,4,1,14,05,01,026,16,07,15,321,39,08,19,287,37,10,31,159,42*76
$GPGSV,4,2,14,13,08,037,38,15,12,067,30,16,64,225,38,18,52,066,39*75
$GPGSV,4,3,14,20,10,037,36,23,48,122,43,26,43,190,42,27,53,287,27*74
$GPGSV,4,4,14,29,05,103,,30,00,353,26*72
$GPGLL,5405.9824,N,01206.3117,E,125040.000,A,A*59
$WIMWV,52.5,R,8.2,N,A*1b
$WIMWV,52.9,R,8.2,N,A*17
$WIMWV,55.3,R,7.8,N,A*1f
$WIMWV,54.7,R,8.2,N,A*1f
$WIMWV,53.0,R,7.8,N,A*1a
$WIMWV,50.4,R,8.2,N,A*18
$WIMWV,51.1,R,8.2,N,A*1c
$WIMWV,51.8,R,7.8,N,A*10
$WIMWV,50.8,R,8.2,N,A*14
$WIMWV,48.1,R,8.2,N,A*14
$WIMWV,46.4,R,7.8,N,A*1a
$GPRMC,125041.000,A,5405.9827,N,01206.3101,E,3.78,287.91,310521,,,A*66
$GPVTG,287.91,T,,M,3.78,N,7.0,K,A*03
$GPGGA,125041.000,5405.9827,N,01206.3101,E,1,11,0.9,-8.9,M,41.9,M,,0000*70
$GPGSA,A,3,16,18,27,23,26,10,08,07,20,15,13,,1.7,0.9,1.5*3D
$GPGSV,4,1,14,05,01,026,19,07,15,321,40,08,19,287,36,10,31,159,43*77
$GPGSV,4,2,14,13,08,037,39,15,12,067,31,16,64,225,39,18,52,066,38*75
$GPGSV,4,3,14,20,10,037,36,23,48,121,45,26,43,190,43,27,53,287,25*72
$GPGSV,4,4,14,29,05,103,,30,00,353,25*71
$GPGLL,5405.9827,N,01206.3101,E,125041.000,A,A*5C
$WIMWV,47.6,R,8.2,N,A*1c
$WIMWV,49.6,R,8.2,N,A*12
$WIMWV,52.3,R,8.2,N,A*1d
$WIMWV,53.3,R,8.2,N,A*1c
$WIMWV,54.3,R,8.2,N,A*1b
$WIMWV,53.4,R,7.8,N,A*1e
$WIMWV,50.3,R,8.2,N,A*1f
$WIMWV,45.9,R,8.2,N,A*11
$WIMWV,45.1,R,8.2,N,A*19
$WIMWV,46.1,R,8.6,N,A*1e
$GPRMC,125042.000,A,5405.9830,N,01206.3084,E,3.82,287.91,310521,,,A*6A
$GPVTG,287.91,T,,M,3.82,N,7.1,K,A*07
$GPGGA,125042.000,5405.9830,N,01206.3084,E,1,11,0.9,-8.9,M,41.9,M,,0000*79
$GPGSA,A,3,16,18,27,23,26,10,08,07,20,15,13,,1.8,0.9,1.5*32
$GPGSV,4,1,14,05,01,026,20,07,15,321,41,08,19,287,36,10,31,159,44*7B
$GPGSV,4,2,14,13,08,037,37,15,12,067,34,16,64,225,39,18,52,066,38*7E
$GPGSV,4,3,14,20,10,037,36,23,48,121,45,26,43,190,41,27,53,287,25*70
$GPGSV,4,4,14,29,05,103,,30,00,353,24*70
$GPGLL,5405.9830,N,01206.3084,E,125042.000,A,A*55
$WIMWV,49.6,R,8.2,N,A*12
$WIMWV,52.4,R,8.2,N,A*1a
$WIMWV,54.4,R,7.8,N,A*19
$WIMWV,57.0,R,8.2,N,A*1b
$WIMWV,55.8,R,8.2,N,A*11
$WIMWV,53.2,R,8.2,N,A*1d
$WIMWV,51.3,R,8.2,N,A*1e
$WIMWV,51.0,R,8.2,N,A*1d
$WIMWV,49.7,R,8.2,N,A*13
$GPRMC,125043.000,A,5405.9832,N,01206.3067,E,3.81,287.48,310521,,,A*63
$GPVTG,287.48,T,,M,3.81,N,7.1,K,A*00
$GPGGA,125043.000,5405.9832,N,01206.3067,E,1,11,0.9,-9.1,M,41.9,M,,0000*7E
$GPGSA,A,3,16,18,27,23,26,10,08,07,20,15,13,,1.8,0.9,1.5*32
$GPGSV,4,1,14,05,01,026,21,07,15,321,41,08,19,287,35,10,31,159,44*79
$GPGSV,4,2,14,13,08,037,37,15,12,067,34,16,64,225,39,18,52,066,36*70
$GPGSV,4,3,14,20,10,037,36,23,48,121,45,26,43,190,41,27,53,287,31*75
$GPGSV,4,4,14,29,05,103,,30,00,353,25*71
$GPGLL,5405.9832,N,01206.3067,E,125043.000,A,A*5B
$WIMWV,48.5,R,8.2,N,A*10
$WIMWV,48.1,R,7.8,N,A*11
$WIMWV,49.8,R,8.2,N,A*1c
$WIMWV,51.5,R,8.2,N,A*18
$WIMWV,51.5,R,8.2,N,A*18
$WIMWV,51.1,R,8.2,N,A*1c
$WIMWV,50.5,R,7.8,N,A*1c
$WIMWV,50.5,R,8.2,N,A*19
$WIMWV,51.0,R,8.2,N,A*1d
$WIMWV,51.2,R,7.8,N,A*1a
$GPRMC,125044.000,A,5405.9835,N,01206.3050,E,3.93,287.18,310521,,,A*61
$GPVTG,287.18,T,,M,3.93,N,7.3,K,A*04
$GPGGA,125044.000,5405.9835,N,01206.3050,E,1,11,0.9,-9.3,M,41.9,M,,0000*78
$GPGSA,A,3,16,18,27,23,26,10,08,07,20,15,13,,1.7,0.9,1.5*3D
$GPGSV,4,1,14,05,01,026,23,07,15,321,41,08,19,287,37,10,31,159,43*7E
$GPGSV,4,2,14,13,08,037,37,15,12,067,32,16,64,225,38,18,52,066,33*72
$GPGSV,4,3,14,20,10,037,33,23,48,121,45,26,42,190,44,27,53,287,24*70
$GPGSV,4,4,14,29,05,103,,30,00,353,23*77
$GPGLL,5405.9835,N,01206.3050,E,125044.000,A,A*5F
$WIMWV,51.8,R,8.2,N,A*15
$WIMWV,53.3,R,7.8,N,A*19
$WIMWV,54.6,R,7.8,N,A*1b
$WIMWV,55.7,R,8.2,N,A*1e
$WIMWV,54.6,R,7.8,N,A*1b
$WIMWV,52.5,R,7.8,N,A*1e
$WIMWV,49.6,R,8.2,N,A*12
$WIMWV,45.8,R,7.8,N,A*15
$WIMWV,44.6,R,8.2,N,A*1f
$WIMWV,46.1,R,7.8,N,A*1f
$GPRMC,125045.000,A,5405.9837,N,01206.3033,E,3.91,287.27,310521,,,A*69
$GPVTG,287.27,T,,M,3.91,N,7.2,K,A*0B
$GPGGA,125045.000,5405.9837,N,01206.3033,E,1,11,0.9,-9.4,M,41.9,M,,0000*79
$GPGSA,A,3,16,18,27,23,26,10,08,07,20,15,13,,1.7,0.9,1.5*3D
$GPGSV,4,1,14,05,01,026,23,07,15,321,39,08,19,287,35,10,31,159,43*73
$GPGSV,4,2,14,13,08,037,38,15,12,067,31,16,64,225,39,18,52,066,40*7B
$GPGSV,4,3,14,20,10,037,36,23,48,121,44,26,42,190,41,27,53,287,26*73
$GPGSV,4,4,14,29,05,103,,30,00,353,21*75
$GPGLL,5405.9837,N,01206.3033,E,125045.000,A,A*59
$WIMWV,49.0,R,8.2,N,A*14
$WIMWV,51.6,R,8.2,N,A*1b
$WIMWV,49.6,R,7.8,N,A*17
$WIMWV,46.7,R,8.2,N,A*1c
$WIMWV,46.7,R,8.2,N,A*1c
$WIMWV,49.5,R,8.2,N,A*11
$WIMWV,51.0,R,8.2,N,A*1d
$WIMWV,49.6,R,7.8,N,A*17
$WIMWV,48.6,R,8.2,N,A*13
$WIMWV,48.8,R,8.2,N,A*1d
$GPRMC,125046.000,A,5405.9841,N,01206.3015,E,3.94,287.63,310521,,,A*6A
$GPVTG,287.63,T,,M,3.94,N,7.3,K,A*0F
$GPGGA,125046.000,5405.9841,N,01206.3015,E,1,11,0.9,-9.4,M,41.9,M,,0000*7F
$GPGSA,A,3,16,18,27,23,26,10,08,07,20,15,13,,1.7,0.9,1.5*3D
$GPGSV,4,1,14,05,01,026,22,07,15,321,39,08,19,287,35,10,31,159,44*75
$GPGSV,4,2,14,13,08,037,36,15,12,067,31,16,64,225,38,18,52,066,38*7B
$GPGSV,4,3,14,20,10,037,34,23,48,121,44,26,42,190,40,27,53,287,25*73
$GPGSV,4,4,14,29,05,103,,30,00,353,18*7F
$GPGLL,5405.9841,N,01206.3015,E,125046.000,A,A*5F
$WIMWV,50.2,R,8.2,N,A*1e
$WIMWV,52.5,R,8.2,N,A*1b
$WIMWV,53.0,R,8.2,N,A*1f
$WIMWV,53.5,R,8.2,N,A*1a
$WIMWV,51.4,R,7.8,N,A*1c
$WIMWV,51.7,R,8.2,N,A*1a
$WIMWV,52.2,R,8.2,N,A*1c
$WIMWV,50.7,R,8.2,N,A*1b
$WIMWV,50.3,R,8.2,N,A*1f
$WIMWV,50.2,R,8.2,N,A*1e
$GPRMC,125047.000,A,5405.9843,N,01206.2997,E,3.94,287.74,310521,,,A*6D
$GPVTG,287.74,T,,M,3.94,N,7.3,K,A*09
$GPGGA,125047.000,5405.9843,N,01206.2997,E,1,11,0.9,-9.6,M,41.9,M,,0000*7C
$GPGSA,A,3,16,18,27,23,26,10,08,07,20,15,13,,1.7,0.9,1.5*3D
$GPGSV,4,1,14,05,01,026,23,07,15,321,39,08,19,287,35,10,31,159,43*73
$GPGSV,4,2,14,13,08,037,37,15,12,067,31,16,64,225,39,18,52,066,37*74
$GPGSV,4,3,14,20,10,037,35,23,48,121,43,26,42,190,40,27,53,287,30*71
$GPGSV,4,4,14,29,05,103,,30,00,353,12*75
$GPGLL,5405.9843,N,01206.2997,E,125047.000,A,A*5E
$WIMWV,50.7,R,8.2,N,A*1b
$WIMWV,50.7,R,7.8,N,A*1e
$WIMWV,51.0,R,8.2,N,A*1d
$WIMWV,50.5,R,8.2,N,A*19
$WIMWV,50.4,R,8.2,N,A*18
$WIMWV,49.0,R,8.2,N,A*14
$WIMWV,47.4,R,8.2,N,A*1e
$WIMWV,46.6,R,8.2,N,A*1d
$WIMWV,48.1,R,8.2,N,A*14
$WIMWV,50.4,R,8.2,N,A*18
$GPRMC,125048.000,A,5405.9846,N,01206.2980,E,3.98,287.33,310521,,,A*6E
$GPVTG,287.33,T,,M,3.98,N,7.4,K,A*01
$GPGGA,125048.000,5405.9846,N,01206.2980,E,1,11,0.9,-9.6,M,41.9,M,,0000*70
$GPGSA,A,3,16,18,27,23,26,10,08,07,20,15,13,,1.7,0.9,1.5*3D
