$GPRMC,161114.000,A,5410.5635,N,01154.8475,E,0.80,316.93,240521,,,A*60
$GPVTG,316.93,T,,M,0.80,N,1.5,K,A*0F
$GPGGA,161114.000,5410.5635,N,01154.8475,E,1,10,0.9,-2.3,M,42.1,M,,0000*77
$GPGSV,3,1,12,01,34,274,35,03,02,222,28,08,68,201,37,10,44,060,42*70
$GPGSV,3,2,12,14,20,319,45,21,60,277,37,22,29,221,33,23,12,052,15*7E
$GPGSV,3,3,12,24,04,033,14,27,40,157,23,28,12,333,42,32,35,113,26*72
$GPGLL,5410.5635,N,01154.8475,E,161114.000,A,A*51
$GPRMC,161115.000,A,5410.5636,N,01154.8473,E,0.79,314.01,240521,,,A*6B
$GPVTG,314.01,T,,M,0.79,N,1.5,K,A*00
$GPGGA,161115.000,5410.5636,N,01154.8473,E,1,10,0.9,-2.4,M,42.1,M,,0000*74
$GPGSV,3,1,12,01,34,274,44,03,02,222,29,08,68,201,36,10,44,060,43*77
$GPGSV,3,2,12,14,20,319,38,21,60,277,23,22,29,221,28,23,12,052,18*76
$GPGSV,3,3,12,24,04,033,12,27,40,157,31,28,12,333,46,32,35,113,31*75
$GPGLL,5410.5636,N,01154.8473,E,161115.000,A,A*55
$GPRMC,161116.000,A,5410.5638,N,01154.8471,E,0.67,314.01,240521,,,A*6B
$GPVTG,314.01,T,,M,0.67,N,1.2,K,A*08
$GPGGA,161116.000,5410.5638,N,01154.8471,E,1,10,0.9,-2.5,M,42.1,M,,0000*7A
$GPGSV,3,1,12,01,34,274,35,03,02,222,28,08,68,201,36,10,44,060,42*71
$GPGSV,3,2,12,14,20,319,45,21,60,277,25,22,29,221,32,23,12,052,18*71
$GPGSV,3,3,12,24,04,033,11,27,40,157,26,28,12,333,44,32,35,113,25*77
$GPGLL,5410.5638,N,01154.8471,E,161116.000,A,A*5A
$GPRMC,161117.000,A,5410.5640,N,01154.8467,E,0.87,312.71,240521,,,A*6D
$GPVTG,312.71,T,,M,0.87,N,1.6,K,A*03
$GPGGA,161117.000,5410.5640,N,01154.8467,E,1,10,0.9,-2.3,M,42.1,M,,0000*75
$GPGSV,3,1,12,01,34,274,31,03,02,222,28,08,68,201,36,10,44,060,40*77
$GPGSV,3,2,12,14,20,319,42,21,60,277,26,22,29,221,34,23,12,052,17*7C
$GPGSV,3,3,12,24,04,033,11,27,40,157,26,28,12,333,45,32,35,113,25*76
$GPGLL,5410.5640,N,01154.8467,E,161117.000,A,A*53
$GPRMC,161118.000,A,5410.5641,N,01154.8464,E,0.76,313.21,240521,,,A*6A
$GPVTG,313.21,T,,M,0.76,N,1.4,K,A*0B
$GPGGA,161118.000,5410.5641,N,01154.8464,E,1,10,0.9,-2.3,M,42.1,M,,0000*78
$GPGSV,3,1,12,01,34,274,43,03,02,222,28,08,68,201,33,10,44,060,42*75
$GPGSV,3,2,12,14,20,319,40,21,60,277,26,22,29,221,30,23,12,052,16*7B
$GPGSV,3,3,12,24,04,033,10,27,40,157,28,28,12,333,44,32,35,113,30*7C
$GPGLL,5410.5641,N,01154.8464,E,161118.000,A,A*5E
$GPRMC,161119.000,A,5410.5643,N,01154.8462,E,0.69,315.08,240521,,,A*6C
$GPVTG,315.08,T,,M,0.69,N,1.3,K,A*0F
$GPGGA,161119.000,5410.5643,N,01154.8462,E,1,10,0.9,-2.5,M,42.1,M,,0000*7B
$GPGSV,3,1,12,01,34,274,31,03,02,222,28,08,68,201,36,10,44,060,40*77
$GPGSV,3,2,12,14,20,319,45,21,60,277,31,22,29,221,34,23,12,052,13*79
$GPGSV,3,3,12,24,04,033,10,27,40,157,29,28,12,333,43,32,35,113,30*7A
$GPGLL,5410.5643,N,01154.8462,E,161119.000,A,A*5B
$GPRMC,161120.000,A,5410.5645,N,01154.8459,E,0.87,319.94,240521,,,A*61
$GPVTG,319.94,T,,M,0.87,N,1.6,K,A*03
$GPGGA,161120.000,5410.5645,N,01154.8459,E,1,10,0.9,-2.4,M,42.1,M,,0000*7E
$GPGSV,3,1,12,01,34,274,36,03,02,222,29,08,68,201,36,10,44,060,43*72
$GPGSV,3,2,12,14,20,319,35,21,60,277,27,22,29,221,31,23,12,052,16*79
$GPGSV,3,3,12,24,04,033,,27,40,157,30,28,12,333,46,32,35,113,34*72
$GPGLL,5410.5645,N,01154.8459,E,161120.000,A,A*5F
$GPRMC,161121.000,A,5410.5646,N,01154.8457,E,0.75,319.94,240521,,,A*60
$GPVTG,319.94,T,,M,0.75,N,1.4,K,A*0C
$GPGGA,161121.000,5410.5646,N,01154.8457,E,1,10,0.9,-2.6,M,42.1,M,,0000*70
$GPGSV,3,1,12,01,34,274,33,03,02,222,30,08,68,201,33,10,44,060,36*78
$GPGSV,3,2,12,14,20,319,46,21,60,277,32,22,29,221,31,23,12,052,18*77
$GPGSV,3,3,12,24,04,033,16,27,40,157,33,28,12,333,43,32,35,113,23*75
$GPGLL,5410.5646,N,01154.8457,E,161121.000,A,A*53
$GPRMC,161122.000,A,5410.5648,N,01154.8453,E,1.07,310.75,240521,,,A*6B
$GPVTG,310.75,T,,M,1.07,N,2.0,K,A*09
$GPGGA,161122.000,5410.5648,N,01154.8453,E,1,10,0.9,-2.4,M,42.1,M,,0000*7B
$GPGSV,3,1,12,01,34,274,40,03,02,222,31,08,68,201,37,10,44,060,42*7A
$GPGSV,3,2,12,14,20,319,40,21,60,277,28,22,29,221,31,23,12,052,21*70
$GPGSV,3,3,12,24,04,033,16,27,40,157,29,28,12,333,43,32,35,113,28*75
$GPGLL,5410.5648,N,01154.8453,E,161122.000,A,A*5A
$GPRMC,161123.000,A,5410.5649,N,01154.8451,E,0.74,315.21,240521,,,A*68
$GPVTG,315.21,T,,M,0.74,N,1.4,K,A*0F
$GPGGA,161123.000,5410.5649,N,01154.8451,E,1,10,0.9,-2.9,M,42.1,M,,0000*74
$GPGSV,3,1,12,01,34,274,32,03,02,222,31,08,68,201,37,10,44,060,40*7D
$GPGSV,3,2,12,14,20,319,45,21,60,277,32,22,29,221,30,23,12,052,19*74
$GPGSV,3,3,12,24,04,033,14,27,40,157,25,28,12,333,42,32,35,113,20*72
$GPGLL,5410.5649,N,01154.8451,E,161123.000,A,A*58
$GPRMC,161124.000,A,5410.5651,N,01154.8449,E,0.76,314.50,240521,,,A*6A
$GPVTG,314.50,T,,M,0.76,N,1.4,K,A*0A
$GPGGA,161124.000,5410.5651,N,01154.8449,E,1,10,0.9,-2.6,M,42.1,M,,0000*7C
$GPGSV,3,1,12,01,34,274,44,03,02,222,30,08,68,201,35,10,44,060,41*7E
$GPGSV,3,2,12,14,20,319,40,21,60,277,21,22,29,221,32,23,12,052,20*7B
$GPGSV,3,3,12,24,04,033,16,27,40,157,30,28,12,333,45,32,35,113,23*70
$GPGLL,5410.5651,N,01154.8449,E,161124.000,A,A*5F
$GPRMC,161125.000,A,5410.5653,N,01154.8446,E,0.88,316.78,240521,,,A*6F
$GPVTG,316.78,T,,M,0.88,N,1.6,K,A*01
$GPGGA,161125.000,5410.5653,N,01154.8446,E,1,10,0.9,-2.6,M,42.1,M,,0000*70
$GPGSV,3,1,12,01,34,274,38,03,02,222,31,08,68,201,37,10,44,060,40*77
$GPGSV,3,2,12,14,20,319,43,21,60,277,28,22,29,221,27,23,12,052,29*7C
$GPGSV,3,3,12,24,04,033,16,27,40,157,30,28,12,333,45,32,35,113,24*77
$GPGLL,5410.5653,N,01154.8446,E,161125.000,A,A*53
$GPRMC,161126.000,A,5410.5654,N,01154.8443,E,0.80,314.97,240521,,,A*65
$GPVTG,314.97,T,,M,0.80,N,1.5,K,A*09
$GPGGA,161126.000,5410.5654,N,01154.8443,E,1,10,0.9,-2.5,M,42.1,M,,0000*72
$GPGSV,3,1,12,01,34,274,41,03,02,222,30,08,68,201,36,10,44,060,41*78
$GPGSV,3,2,12,14,20,319,42,21,60,277,31,22,29,221,35,23,12,052,26*79
$GPGSV,3,3,12,24,04,033,14,27,40,157,23,28,12,333,45,32,35,113,24*77
$GPGLL,5410.5654,N,01154.8443,E,161126.000,A,A*52
$GPRMC,161127.000,A,5410.5655,N,01154.8440,E,0.82,317.78,240521,,,A*66
$GPVTG,317.78,T,,M,0.82,N,1.5,K,A*09
$GPGGA,161127.000,5410.5655,N,01154.8440,E,1,10,0.9,-2.7,M,42.1,M,,0000*73
$GPGSV,3,1,12,01,34,274,44,03,02,222,30,08,68,201,37,10,44,060,39*73
$GPGSV,3,2,12,14,20,319,42,21,60,277,31,22,29,221,29,23,12,052,27*75
$GPGSV,3,3,12,24,04,033,14,27,40,157,29,28,12,333,43,32,35,113,26*79
$GPGLL,5410.5655,N,01154.8440,E,161127.000,A,A*51
$GPRMC,161128.000,A,5410.5657,N,01154.8438,E,0.76,313.53,240521,,,A*62
$GPVTG,313.53,T,,M,0.76,N,1.4,K,A*0E
$GPGGA,161128.000,5410.5657,N,01154.8438,E,1,10,0.9,-2.6,M,42.1,M,,0000*70
$GPGSV,3,1,12,01,34,274,37,03,02,222,30,08,68,201,37,10,44,060,41*78
$GPGSV,3,2,12,14,20,319,45,21,60,277,34,22,29,221,33,23,12,052,27*7C
$GPGSV,3,3,12,24,04,033,18,27,40,157,30,28,12,333,46,32,35,113,31*7E
$GPGLL,5410.5657,N,01154.8438,E,161128.000,A,A*53
$GPRMC,161129.000,A,5410.5658,N,01154.8435,E,0.75,315.02,240521,,,A*60
$GPVTG,315.02,T,,M,0.75,N,1.4,K,A*0F
$GPGGA,161129.000,5410.5658,N,01154.8435,E,1,10,0.9,-2.5,M,42.1,M,,0000*70
$GPGSV,3,1,12,01,34,274,37,03,02,222,30,08,68,201,34,10,44,060,39*74
$GPGSV,3,2,12,14,20,319,39,21,60,277,34,22,29,221,28,23,12,052,27*7D
$GPGSV,3,3,12,24,04,033,16,27,40,157,29,28,12,333,43,32,35,113,23*7E
$GPGLL,5410.5658,N,01154.8435,E,161129.000,A,A*50
$GPRMC,161130.000,A,5410.5660,N,01154.8433,E,0.74,316.01,240521,,,A*64
$GPVTG,316.01,T,,M,0.74,N,1.4,K,A*0E
$GPGGA,161130.000,5410.5660,N,01154.8433,E,1,10,0.9,-2.5,M,42.1,M,,0000*75
$GPGSV,3,1,12,01,34,274,44,03,02,222,30,08,68,201,30,10,44,060,40*7A
$GPGSV,3,2,12,14,20,319,44,21,60,277,30,22,29,221,32,23,12,052,28*77
$GPGSV,3,3,12,24,04,033,17,27,40,157,34,28,12,333,44,32,35,113,30*76
$GPGLL,5410.5660,N,01154.8433,E,161130.000,A,A*55
$GPRMC,161131.000,A,5410.5663,N,01154.8429,E,1.03,316.50,240521,,,A*68
$GPVTG,316.50,T,,M,1.03,N,1.9,K,A*06
$GPGGA,161131.000,5410.5663,N,01154.8429,E,1,10,0.9,-2.0,M,42.1,M,,0000*79
$GPGSV,3,1,12,01,34,274,31,03,02,222,29,08,68,201,38,10,44,060,40*78
$GPGSV,3,2,12,14,20,319,42,21,60,277,37,22,29,221,34,23,12,052,27*7F
$GPGSV,3,3,12,24,04,033,17,27,40,157,33,28,12,333,46,32,35,113,29*7B
$GPGLL,5410.5663,N,01154.8429,E,161131.000,A,A*5C
$GPRMC,161132.000,A,5410.5664,N,01154.8427,E,0.67,320.43,240521,,,A*66
$GPVTG,320.43,T,,M,0.67,N,1.2,K,A*09
$GPGGA,161132.000,5410.5664,N,01154.8427,E,1,10,0.9,-2.2,M,42.1,M,,0000*71
$GPGSV,3,1,12,01,34,274,42,03,02,222,29,08,68,201,30,10,44,060,38*7B
$GPGSV,3,2,12,14,20,319,39,21,60,277,25,22,29,221,30,23,12,052,27*74
$GPGSV,3,3,12,24,04,033,16,27,40,157,29,28,12,333,44,32,35,113,21*7B
$GPGLL,5410.5664,N,01154.8427,E,161132.000,A,A*56
$GPRMC,161133.000,A,5410.5666,N,01154.8425,E,0.89,320.43,240521,,,A*67
$GPVTG,320.43,T,,M,0.89,N,1.6,K,A*0D
$GPGGA,161133.000,5410.5666,N,01154.8425,E,1,10,0.9,-2.3,M,42.1,M,,0000*71
$GPGSV,3,1,12,01,34,274,33,03,02,222,28,08,68,201,32,10,44,060,32*74
$GPGSV,3,2,12,14,20,319,41,21,60,277,31,22,29,221,25,23,12,052,26*7B
$GPGSV,3,3,12,24,04,033,18,27,40,157,28,28,12,333,44,32,35,113,29*7C
$GPGLL,5410.5666,N,01154.8425,E,161133.000,A,A*57
$GPRMC,161134.000,A,5410.5667,N,01154.8423,E,0.70,319.51,240521,,,A*68
$GPVTG,319.51,T,,M,0.70,N,1.3,K,A*07
$GPGGA,161134.000,5410.5667,N,01154.8423,E,1,10,0.9,-2.1,M,42.1,M,,0000*73
$GPGSV,3,1,12,01,34,274,44,03,02,222,28,08,68,201,28,10,44,060,36*7B
$GPGSV,3,2,12,14,20,319,29,21,60,277,28,22,29,221,25,23,12,052,24*7F
$GPGSV,3,3,12,24,04,033,17,27,40,157,33,28,12,333,43,32,35,113,29*7E
$GPGLL,5410.5667,N,01154.8423,E,161134.000,A,A*57
$GPRMC,161135.000,A,5410.5669,N,01154.8421,E,0.76,319.51,240521,,,A*63
$GPVTG,319.51,T,,M,0.76,N,1.4,K,A*06
$GPGGA,161135.000,5410.5669,N,01154.8421,E,1,10,0.9,-2.3,M,42.1,M,,0000*7C
$GPGSV,3,1,12,01,34,274,33,03,02,222,25,08,68,201,36,10,44,060,33*7C
$GPGSV,3,2,12,14,20,319,41,21,60,277,27,22,29,221,30,23,12,052,24*7A
$GPGSV,3,3,12,24,04,033,15,27,40,157,28,28,12,333,43,32,35,113,29*76
$GPGLL,5410.5669,N,01154.8421,E,161135.000,A,A*5A
$GPRMC,161136.000,A,5410.5670,N,01154.8418,E,0.81,319.51,240521,,,A*6A
$GPVTG,319.51,T,,M,0.81,N,1.5,K,A*0F
$GPGGA,161136.000,5410.5670,N,01154.8418,E,1,10,0.9,-2.4,M,42.1,M,,0000*7A
$GPGSV,3,1,12,01,34,274,41,03,02,222,26,08,68,201,33,10,44,060,29*74
$GPGSV,3,2,12,14,20,319,30,21,60,277,26,22,29,221,25,23,12,052,20*7D
$GPGSV,3,3,12,24,04,033,16,27,40,157,28,28,12,333,42,32,35,113,30*7C
$GPGLL,5410.5670,N,01154.8418,E,161136.000,A,A*5B
$GPRMC,161137.000,A,5410.5671,N,01154.8416,E,0.68,319.51,240521,,,A*63
$GPVTG,319.51,T,,M,0.68,N,1.3,K,A*0E
$GPGGA,161137.000,5410.5671,N,01154.8416,E,1,10,0.9,-2.7,M,42.1,M,,0000*77
$GPGSV,3,1,12,01,34,274,30,03,02,222,23,08,68,201,37,10,44,060,36*7D
$GPGSV,3,2,12,14,20,319,42,21,60,277,37,22,29,221,26,23,12,052,20*7B
$GPGSV,3,3,12,24,04,033,16,27,40,157,29,28,12,333,43,32,35,113,27*7A
$GPGLL,5410.5671,N,01154.8416,E,161137.000,A,A*55
$GPRMC,161138.000,A,5410.5674,N,01154.8413,E,0.79,319.51,240521,,,A*6C
$GPVTG,319.51,T,,M,0.79,N,1.5,K,A*08
$GPGGA,161138.000,5410.5674,N,01154.8413,E,1,10,0.9,-2.4,M,42.1,M,,0000*7B
$GPGSV,3,1,12,01,34,274,37,03,02,222,23,08,68,201,35,10,44,060,33*7D
$GPGSV,3,2,12,14,20,319,39,21,60,277,31,22,29,221,32,23,12,052,16*71
$GPGSV,3,3,12,24,04,033,16,27,40,157,28,28,12,333,46,32,35,113,36*7E
$GPGLL,5410.5674,N,01154.8413,E,161138.000,A,A*5A
$GPRMC,161139.000,A,5410.5676,N,01154.8411,E,0.71,319.51,240521,,,A*65
$GPVTG,319.51,T,,M,0.71,N,1.3,K,A*06
$GPGGA,161139.000,5410.5676,N,01154.8411,E,1,10,0.9,-2.2,M,42.1,M,,0000*7C
$GPGSV,3,1,12,01,34,274,40,03,02,222,21,08,68,201,34,10,44,060,35*78
$GPGSV,3,2,12,14,20,319,43,21,60,277,26,22,29,221,31,23,12,052,15*7A
$GPGSV,3,3,12,24,04,033,18,27,40,157,27,28,12,333,44,32,35,113,36*7D
$GPGLL,5410.5676,N,01154.8411,E,161139.000,A,A*5B
$GPRMC,161140.000,A,5410.5679,N,01154.8409,E,0.73,319.51,240521,,,A*6F
$GPVTG,319.51,T,,M,0.73,N,1.3,K,A*04
$GPGGA,161140.000,5410.5679,N,01154.8409,E,1,10,0.9,-1.9,M,42.1,M,,0000*7C
$GPGSV,3,1,12,01,34,274,29,03,02,222,21,08,68,201,38,10,44,060,31*7F
$GPGSV,3,2,12,14,20,319,40,21,60,277,29,22,29,221,34,23,12,052,15*73
$GPGSV,3,3,12,24,04,033,17,27,40,157,27,28,12,333,46,32,35,113,35*73
$GPGLL,5410.5679,N,01154.8409,E,161140.000,A,A*53
$GPRMC,161141.000,A,5410.5680,N,01154.8406,E,0.71,319.51,240521,,,A*65
$GPVTG,319.51,T,,M,0.71,N,1.3,K,A*06
$GPGGA,161141.000,5410.5680,N,01154.8406,E,1,10,0.9,-1.9,M,42.1,M,,0000*74
$GPGSV,3,1,12,01,34,274,38,03,02,222,21,08,68,201,36,10,44,060,34*74
$GPGSV,3,2,12,14,20,319,43,21,60,277,29,22,29,221,36,23,12,052,15*72
$GPGSV,3,3,12,24,04,033,19,27,40,157,26,28,12,333,44,32,35,113,36*7D
$GPGLL,5410.5680,N,01154.8406,E,161141.000,A,A*5B
$GPRMC,161142.000,A,5410.5682,N,01154.8404,E,0.93,322.69,240521,,,A*69
$GPVTG,322.69,T,,M,0.93,N,1.7,K,A*0D
$GPGGA,161142.000,5410.5682,N,01154.8404,E,1,10,0.9,-2.0,M,42.1,M,,0000*7D
$GPGSV,3,1,12,01,34,274,32,03,02,222,20,08,68,201,35,10,44,060,34*7C
$GPGSV,3,2,12,14,20,319,41,21,60,277,36,22,29,221,36,23,12,052,17*7C
$GPGSV,3,3,12,24,04,033,21,27,40,157,24,28,12,333,44,32,35,113,37*75
$GPGLL,5410.5682,N,01154.8404,E,161142.000,A,A*58
$GPRMC,161143.000,A,5410.5683,N,01154.8403,E,0.59,322.69,240521,,,A*68
$GPVTG,322.69,T,,M,0.59,N,1.1,K,A*0D
$GPGGA,161143.000,5410.5683,N,01154.8403,E,1,10,0.9,-2.3,M,42.1,M,,0000*79
$GPGSV,3,1,12,01,34,274,33,03,02,222,21,08,68,201,38,10,44,060,29*7D
$GPGSV,3,2,12,14,20,319,43,21,60,277,32,22,29,221,35,23,12,052,19*77
$GPGSV,3,3,12,24,04,033,21,27,40,157,24,28,12,333,43,32,35,113,32*77
$GPGLL,5410.5683,N,01154.8403,E,161143.000,A,A*5F
$GPRMC,161144.000,A,5410.5685,N,01154.8401,E,0.87,322.56,240521,,,A*64
$GPVTG,322.56,T,,M,0.87,N,1.6,K,A*05
$GPGGA,161144.000,5410.5685,N,01154.8401,E,1,10,0.9,-2.2,M,42.1,M,,0000*7B
$GPGSV,3,1,12,01,34,274,38,03,02,222,20,08,68,201,33,10,44,060,37*73
$GPGSV,3,2,12,14,20,319,39,21,60,277,38,22,29,221,36,23,12,052,19*73
$GPGSV,3,3,12,24,04,033,21,27,40,157,34,28,12,333,42,32,35,113,40*72
$GPGLL,5410.5685,N,01154.8401,E,161144.000,A,A*5C
$GPRMC,161145.000,A,5410.5686,N,01154.8398,E,0.67,322.56,240521,,,A*6F
$GPVTG,322.56,T,,M,0.67,N,1.2,K,A*0F
$GPGGA,161145.000,5410.5686,N,01154.8398,E,1,10,0.9,-2.4,M,42.1,M,,0000*78
$GPGSV,3,1,12,01,34,275,32,03,02,222,19,08,68,201,38,10,44,060,34*7A
$GPGSV,3,2,12,14,20,319,43,21,60,277,35,22,29,221,33,23,12,052,20*7C
$GPGSV,3,3,12,24,04,033,20,27,40,157,26,28,12,333,42,32,35,113,35*72
$GPGLL,5410.5686,N,01154.8398,E,161145.000,A,A*59
$GPRMC,161146.000,A,5410.5687,N,01154.8396,E,0.70,325.65,240521,,,A*62
$GPVTG,325.65,T,,M,0.70,N,1.3,K,A*0F
$GPGGA,161146.000,5410.5687,N,01154.8396,E,1,10,0.9,-2.7,M,42.1,M,,0000*77
$GPGSV,3,1,12,01,34,275,39,03,02,222,18,08,68,201,34,10,44,060,39*71
$GPGSV,3,2,12,14,20,319,36,21,60,277,34,22,29,221,37,23,12,052,20*7B
$GPGSV,3,3,12,24,04,033,18,27,40,157,32,28,12,333,43,32,35,113,37*7F
$GPGLL,5410.5687,N,01154.8396,E,161146.000,A,A*55
$GPRMC,161147.000,A,5410.5689,N,01154.8393,E,0.83,322.61,240521,,,A*67
$GPVTG,322.61,T,,M,0.83,N,1.5,K,A*06
$GPGGA,161147.000,5410.5689,N,01154.8393,E,1,10,0.9,-2.5,M,42.1,M,,0000*7F
$GPGSV,3,1,12,01,34,275,37,03,03,222,17,08,68,201,36,10,44,060,37*7D
$GPGSV,3,2,12,14,20,319,41,21,60,277,37,22,29,221,32,23,12,052,23*7E
$GPGSV,3,3,12,24,04,033,17,27,40,157,31,28,12,333,42,32,35,113,37*72
$GPGLL,5410.5689,N,01154.8393,E,161147.000,A,A*5F
$GPRMC,161148.000,A,5410.5690,N,01154.8390,E,0.70,321.76,240521,,,A*6A
$GPVTG,321.76,T,,M,0.70,N,1.3,K,A*09
$GPGGA,161148.000,5410.5690,N,01154.8390,E,1,10,0.9,-2.6,M,42.1,M,,0000*78
$GPGSV,3,1,12,01,34,275,42,03,03,222,17,08,68,201,38,10,44,060,43*72
$GPGSV,3,2,12,14,20,319,39,21,60,277,35,22,29,221,37,23,12,052,23*76
$GPGSV,3,3,12,24,04,033,18,27,40,157,31,28,12,333,45,32,35,113,41*7B
$GPGLL,5410.5690,N,01154.8390,E,161148.000,A,A*5B
$GPRMC,161149.000,A,5410.5693,N,01154.8388,E,0.72,325.64,240521,,,A*64
$GPVTG,325.64,T,,M,0.72,N,1.3,K,A*0C
$GPGGA,161149.000,5410.5693,N,01154.8388,E,1,10,0.9,-2.4,M,42.1,M,,0000*71
$GPGSV,3,1,12,01,34,275,28,03,03,222,16,08,68,201,33,10,44,060,38*78
$GPGSV,3,2,12,14,20,319,35,21,60,277,34,22,29,221,31,23,12,052,25*7B
$GPGSV,3,3,12,24,04,033,27,27,40,157,30,28,12,333,44,32,35,113,39*78
$GPGLL,5410.5693,N,01154.8388,E,161149.000,A,A*50
$GPRMC,161150.000,A,5410.5695,N,01154.8386,E,0.74,325.64,240521,,,A*62
$GPVTG,325.64,T,,M,0.74,N,1.4,K,A*0D
$GPGGA,161150.000,5410.5695,N,01154.8386,E,1,10,0.9,-2.2,M,42.1,M,,0000*77
$GPGSV,3,1,12,01,34,275,40,03,03,222,21,08,68,201,37,10,44,060,40*79
$GPGSV,3,2,12,14,20,319,34,21,60,277,33,22,29,221,25,23,12,052,25*78
$GPGSV,3,3,12,24,04,033,27,27,40,157,29,28,12,333,44,32,35,113,40*7E
$GPGLL,5410.5695,N,01154.8386,E,161150.000,A,A*50
$GPRMC,161151.000,A,5410.5697,N,01154.8383,E,0.70,325.64,240521,,,A*60
$GPVTG,325.64,T,,M,0.70,N,1.3,K,A*0E
$GPGGA,161151.000,5410.5697,N,01154.8383,E,1,10,0.9,-1.8,M,42.1,M,,0000*78
$GPGSV,3,1,12,01,34,275,42,03,03,222,22,08,68,201,38,10,44,060,40*77
$GPGSV,3,2,12,14,20,319,36,21,60,277,36,22,29,221,26,23,12,052,25*7C
$GPGSV,3,3,12,24,04,033,26,27,40,157,30,28,12,333,44,32,35,113,40*77
$GPGLL,5410.5697,N,01154.8383,E,161151.000,A,A*56
$GPRMC,161152.000,A,5410.5699,N,01154.8381,E,0.82,329.42,240521,,,A*6A
$GPVTG,329.42,T,,M,0.82,N,1.5,K,A*0D
$GPGGA,161152.000,5410.5699,N,01154.8381,E,1,10,0.9,-1.5,M,42.1,M,,0000*7A
$GPGSV,3,1,12,01,34,275,39,03,03,222,24,08,68,200,36,10,44,060,39*7C
$GPGSV,3,2,12,14,20,319,33,21,60,277,31,22,29,221,26,23,12,052,23*78
$GPGSV,3,3,12,24,04,033,25,27,40,157,25,28,12,333,41,32,35,113,39*7B
$GPGLL,5410.5699,N,01154.8381,E,161152.000,A,A*59
$GPRMC,161153.000,A,5410.5701,N,01154.8379,E,0.71,329.42,240521,,,A*60
$GPVTG,329.42,T,,M,0.71,N,1.3,K,A*07
$GPGGA,161153.000,5410.5701,N,01154.8379,E,1,10,0.9,-1.3,M,42.1,M,,0000*7A
$GPGSV,3,1,12,01,34,275,35,03,03,222,23,08,68,200,37,10,44,060,37*78
$GPGSV,3,2,12,14,20,319,37,21,60,277,30,22,29,221,31,23,12,052,25*7D
$GPGSV,3,3,12,24,04,033,25,27,40,157,25,28,12,333,44,32,35,113,37*70
$GPGLL,5410.5701,N,01154.8379,E,161153.000,A,A*5F
$WIMWV,291.7,R,8.6,N,A*20
$WIMWV,296.3,R,8.6,N,A*23
$WIMWV,298.5,R,8.6,N,A*2b
$WIMWV,297.6,R,8.6,N,A*27
$WIMWV,297.5,R,8.2,N,A*20
$WIMWV,293.5,R,8.6,N,A*20
$WIMWV,290.6,R,8.2,N,A*24
$WIMWV,290.5,R,8.6,N,A*23
$WIMWV,286.5,R,8.2,N,A*20
$WIMWV,284.5,R,8.6,N,A*26
$WIMWV,286.1,R,8.6,N,A*20
$WIMWV,290.8,R,8.2,N,A*2a
$WIMWV,288.6,R,8.6,N,A*29
$WIMWV,288.2,R,8.2,N,A*29
$WIMWV,285.4,R,8.6,N,A*26
$WIMWV,284.0,R,8.6,N,A*23
$WIMWV,285.0,R,8.6,N,A*22
$WIMWV,287.7,R,9.0,N,A*20
$WIMWV,291.9,R,9.0,N,A*29
$WIMWV,297.1,R,9.4,N,A*23
$WIMWV,301.4,R,9.0,N,A*2c
$WIMWV,304.4,R,9.4,N,A*2d
$WIMWV,304.4,R,9.0,N,A*29
$WIMWV,298.7,R,9.4,N,A*2a
$WIMWV,288.1,R,9.4,N,A*2d
$WIMWV,288.7,R,9.4,N,A*2b
$WIMWV,302.0,R,9.0,N,A*2b
$WIMWV,313.5,R,9.4,N,A*2a
$WIMWV,311.1,R,9.0,N,A*28
$WIMWV,301.9,R,9.4,N,A*25
$WIMWV,293.4,R,9.0,N,A*26
$WIMWV,287.1,R,9.0,N,A*26
$WIMWV,286.1,R,9.0,N,A*27
$WIMWV,289.8,R,9.4,N,A*25
$WIMWV,290.3,R,9.0,N,A*22
$WIMWV,291.9,R,9.4,N,A*2d
$WIMWV,289.3,R,9.4,N,A*2e
$WIMWV,288.9,R,9.4,N,A*25
$WIMWV,287.4,R,9.0,N,A*23
$WIMWV,287.3,R,9.4,N,A*20
$WIMWV,285.2,R,9.4,N,A*23
$WIMWV,283.4,R,9.0,N,A*27
$WIMWV,284.0,R,9.4,N,A*20
$WIMWV,285.9,R,9.0,N,A*2c
$WIMWV,287.5,R,9.4,N,A*26
$WIMWV,291.8,R,9.4,N,A*2c
$WIMWV,287.7,R,9.4,N,A*24
$WIMWV,287.4,R,9.4,N,A*27
$WIMWV,289.8,R,9.0,N,A*21
$WIMWV,294.9,R,9.4,N,A*28
$WIMWV,294.8,R,9.4,N,A*29
$WIMWV,293.0,R,9.4,N,A*26
$WIMWV,289.6,R,9.4,N,A*2b
$WIMWV,290.0,R,9.4,N,A*25
$WIMWV,292.6,R,9.4,N,A*21
$WIMWV,296.6,R,9.4,N,A*25
$WIMWV,299.6,R,9.4,N,A*2a
$WIMWV,296.3,R,9.4,N,A*20
$WIMWV,295.7,R,9.4,N,A*27
$WIMWV,290.3,R,9.4,N,A*26
$WIMWV,290.2,R,9.8,N,A*2b
$WIMWV,290.5,R,9.4,N,A*20
$WIMWV,292.8,R,9.4,N,A*2f
$WIMWV,288.8,R,9.4,N,A*24
$WIMWV,287.0,R,9.4,N,A*23
$WIMWV,284.5,R,9.4,N,A*25
$WIMWV,286.3,R,9.4,N,A*21
$WIMWV,288.1,R,9.4,N,A*2d
$WIMWV,291.3,R,9.8,N,A*2b
$WIMWV,293.0,R,9.4,N,A*26
$WIMWV,290.9,R,9.8,N,A*20
$WIMWV,284.6,R,9.4,N,A*26
$WIMWV,283.2,R,9.8,N,A*29
$WIMWV,285.7,R,9.8,N,A*2a
$WIMWV,283.0,R,9.8,N,A*2b
$WIMWV,280.5,R,9.4,N,A*21
$WIMWV,278.7,R,9.4,N,A*24
$WIMWV,274.8,R,9.4,N,A*27
$WIMWV,278.3,R,9.4,N,A*20
$WIMWV,279.4,R,9.4,N,A*26
$WIMWV,281.5,R,9.4,N,A*20
$WIMWV,285.2,R,9.8,N,A*2f
$WIMWV,285.3,R,9.4,N,A*22
$WIMWV,288.1,R,9.8,N,A*21
$WIMWV,292.2,R,9.4,N,A*25
$WIMWV,287.0,R,9.8,N,A*2f
$WIMWV,282.6,R,9.4,N,A*20
$WIMWV,281.3,R,9.4,N,A*26
$WIMWV,284.8,R,9.4,N,A*28
$WIMWV,291.3,R,9.4,N,A*27
$WIMWV,298.1,R,9.4,N,A*2c
$WIMWV,299.1,R,9.0,N,A*29
$WIMWV,299.4,R,9.4,N,A*28
$WIMWV,298.4,R,9.0,N,A*2d
$WIMWV,296.8,R,9.0,N,A*2f
$WIMWV,294.9,R,9.0,N,A*2c
$WIMWV,293.3,R,9.0,N,A*21
$WIMWV,291.5,R,8.6,N,A*22
$WIMWV,287.4,R,8.6,N,A*24
$WIMWV,283.6,R,9.0,N,A*25
$WIMWV,286.7,R,8.6,N,A*26
$WIMWV,289.2,R,8.6,N,A*2c
$WIMWV,289.5,R,8.6,N,A*2b
$WIMWV,289.3,R,8.6,N,A*2d
$WIMWV,287.2,R,8.2,N,A*26
$WIMWV,282.3,R,8.6,N,A*26
$WIMWV,283.2,R,8.2,N,A*22
$WIMWV,277.6,R,8.6,N,A*29
$WIMWV,280.3,R,8.2,N,A*20
$WIMWV,280.1,R,8.2,N,A*22
$WIMWV,279.0,R,8.6,N,A*21
$WIMWV,283.7,R,8.2,N,A*27
$WIMWV,286.0,R,8.6,N,A*21
$WIMWV,288.8,R,8.2,N,A*23
$WIMWV,287.7,R,8.6,N,A*27
$WIMWV,286.2,R,8.2,N,A*27
$WIMWV,283.8,R,8.6,N,A*2c
$WIMWV,283.1,R,8.6,N,A*25
$WIMWV,282.6,R,8.2,N,A*27
$WIMWV,286.6,R,8.6,N,A*27
$WIMWV,286.6,R,8.6,N,A*27
$WIMWV,288.8,R,8.2,N,A*23
$WIMWV,289.0,R,8.6,N,A*2e
$WIMWV,285.9,R,8.6,N,A*2b
$WIMWV,285.5,R,8.6,N,A*27
$WIMWV,282.6,R,8.6,N,A*23
$WIMWV,282.1,R,8.6,N,A*24
$WIMWV,283.4,R,8.6,N,A*20
$WIMWV,288.1,R,8.6,N,A*2e
$WIMWV,289.4,R,8.2,N,A*2e
$WIMWV,290.3,R,8.6,N,A*25
$WIMWV,290.3,R,8.6,N,A*25
$WIMWV,288.9,R,8.2,N,A*22
$WIMWV,285.3,R,8.6,N,A*21
$WIMWV,284.1,R,8.2,N,A*26
$WIMWV,285.1,R,8.6,N,A*23
$WIMWV,287.2,R,8.2,N,A*26
$WIMWV,287.6,R,8.6,N,A*26
$WIMWV,289.8,R,8.2,N,A*22
$WIMWV,289.5,R,8.2,N,A*2f
$WIMWV,290.3,R,8.6,N,A*25
$WIMWV,286.1,R,8.2,N,A*24
$WIMWV,288.3,R,8.2,N,A*28
$WIMWV,289.0,R,8.6,N,A*2e
$WIMWV,289.5,R,8.2,N,A*2f
$WIMWV,288.8,R,8.2,N,A*23
$WIMWV,289.4,R,8.2,N,A*2e
$WIMWV,290.9,R,7.8,N,A*2e
$WIMWV,290.3,R,8.2,N,A*21
$WIMWV,289.7,R,7.8,N,A*28
$WIMWV,290.7,R,8.2,N,A*25
$WIMWV,290.6,R,8.2,N,A*24
$WIMWV,283.1,R,7.8,N,A*24
$WIMWV,283.0,R,8.6,N,A*24
$WIMWV,282.0,R,8.2,N,A*21
$WIMWV,285.8,R,8.2,N,A*2e
$WIMWV,288.1,R,8.2,N,A*2a
$WIMWV,285.6,R,8.6,N,A*24
$WIMWV,286.2,R,8.2,N,A*27
$WIMWV,281.8,R,8.6,N,A*2e
$WIMWV,282.3,R,8.2,N,A*22
$WIMWV,284.1,R,8.6,N,A*22
$WIMWV,287.6,R,8.6,N,A*26
$WIMWV,291.2,R,8.2,N,A*21
$WIMWV,290.0,R,8.6,N,A*26
$WIMWV,285.8,R,8.2,N,A*2e
$WIMWV,283.2,R,8.6,N,A*26
$WIMWV,282.8,R,8.2,N,A*29
$WIMWV,284.6,R,8.2,N,A*21
$WIMWV,289.9,R,8.2,N,A*23
$WIMWV,293.9,R,8.2,N,A*28
$WIMWV,293.6,R,7.8,N,A*22
$WIMWV,290.3,R,8.2,N,A*21
$WIMWV,278.4,R,7.8,N,A*25
$WIMWV,273.9,R,8.2,N,A*26
$WIMWV,271.7,R,8.2,N,A*2a
$WIMWV,276.9,R,7.8,N,A*26
$WIMWV,282.9,R,8.2,N,A*28
$WIMWV,287.8,R,8.2,N,A*2c
$WIMWV,290.0,R,8.2,N,A*22
$WIMWV,288.0,R,7.8,N,A*2e
$WIMWV,289.5,R,8.2,N,A*2f
$WIMWV,291.0,R,7.8,N,A*26
$WIMWV,288.8,R,8.2,N,A*23
$WIMWV,285.0,R,8.2,N,A*26
$WIMWV,281.2,R,7.8,N,A*25
$WIMWV,284.0,R,8.2,N,A*27
$WIMWV,288.6,R,8.2,N,A*2d
$WIMWV,288.2,R,7.8,N,A*2c
$WIMWV,291.7,R,7.8,N,A*21
$WIMWV,290.6,R,7.8,N,A*21
$WIMWV,293.6,R,7.8,N,A*22
$WIMWV,288.3,R,7.8,N,A*2d
$WIMWV,288.0,R,7.4,N,A*22
$WIMWV,283.7,R,7.8,N,A*22
$WIMWV,285.1,R,7.4,N,A*2e
$WIMWV,283.5,R,7.8,N,A*20
$WIMWV,284.1,R,7.8,N,A*23
$WIMWV,285.5,R,7.4,N,A*2a
$WIMWV,286.4,R,7.8,N,A*24
$WIMWV,284.0,R,7.8,N,A*22
$WIMWV,282.3,R,7.8,N,A*27
$WIMWV,282.5,R,7.8,N,A*21
$WIMWV,281.2,R,8.2,N,A*20
$WIMWV,279.8,R,7.8,N,A*28
$WIMWV,278.8,R,8.2,N,A*2c
$WIMWV,281.3,R,7.8,N,A*24
$WIMWV,284.1,R,7.8,N,A*23
$WIMWV,288.2,R,8.2,N,A*29
$WIMWV,291.4,R,7.8,N,A*22
$WIMWV,292.4,R,7.8,N,A*21
$WIMWV,290.5,R,7.8,N,A*22
$WIMWV,292.5,R,7.4,N,A*2c
$WIMWV,295.2,R,7.4,N,A*2c
$WIMWV,298.0,R,7.4,N,A*23
$WIMWV,297.9,R,7.4,N,A*25
$WIMWV,295.4,R,7.4,N,A*2a
$WIMWV,286.2,R,7.4,N,A*2e
$WIMWV,282.3,R,7.4,N,A*2b
$WIMWV,283.2,R,7.0,N,A*2f
$WIMWV,283.0,R,7.4,N,A*29
$WIMWV,285.5,R,7.4,N,A*2a
$WIMWV,290.2,R,7.4,N,A*29
$WIMWV,290.4,R,7.4,N,A*2f
$WIMWV,289.1,R,7.4,N,A*22
$WIMWV,281.4,R,7.8,N,A*23
$WIMWV,275.3,R,7.8,N,A*2f
$WIMWV,272.5,R,7.4,N,A*22
$WIMWV,276.2,R,7.8,N,A*2d
$WIMWV,285.1,R,7.8,N,A*22
$WIMWV,290.7,R,7.8,N,A*20
$WIMWV,291.9,R,7.8,N,A*2f
$WIMWV,287.1,R,7.8,N,A*20
$WIMWV,282.9,R,8.2,N,A*28
$WIMWV,281.3,R,7.8,N,A*24
$WIMWV,283.3,R,7.8,N,A*26
$WIMWV,286.0,R,8.2,N,A*25
$WIMWV,291.5,R,8.2,N,A*26
$WIMWV,295.8,R,8.2,N,A*2f
$WIMWV,289.4,R,7.8,N,A*2b
$WIMWV,287.4,R,8.2,N,A*20
$WIMWV,288.8,R,8.2,N,A*23
$WIMWV,283.7,R,8.2,N,A*27
$WIMWV,280.0,R,8.2,N,A*23
$WIMWV,280.8,R,8.2,N,A*2b
$WIMWV,280.2,R,8.2,N,A*21
$WIMWV,283.7,R,7.8,N,A*22
$WIMWV,286.6,R,8.2,N,A*23
$WIMWV,286.6,R,8.2,N,A*23
$WIMWV,283.7,R,8.2,N,A*27
$WIMWV,283.4,R,8.2,N,A*24
$WIMWV,281.5,R,8.2,N,A*27
$WIMWV,282.8,R,8.2,N,A*29
$WIMWV,283.0,R,7.8,N,A*25
$WIMWV,285.4,R,8.2,N,A*22
$WIMWV,286.1,R,8.2,N,A*24
$WIMWV,287.2,R,7.8,N,A*23
$WIMWV,285.8,R,7.8,N,A*2b
$WIMWV,284.6,R,8.2,N,A*21
$WIMWV,285.0,R,7.8,N,A*23
$WIMWV,286.8,R,7.8,N,A*28
$WIMWV,288.5,R,7.8,N,A*2b
$WIMWV,290.2,R,7.8,N,A*25
$WIMWV,291.2,R,7.8,N,A*24
$WIMWV,291.7,R,7.8,N,A*21
$WIMWV,290.3,R,7.8,N,A*24
$WIMWV,292.5,R,7.8,N,A*20
$WIMWV,291.1,R,7.4,N,A*2b
$WIMWV,293.9,R,7.8,N,A*2d
$WIMWV,291.6,R,7.4,N,A*2c
$WIMWV,291.4,R,7.4,N,A*2e
$WIMWV,288.8,R,7.4,N,A*2a
$WIMWV,287.2,R,7.4,N,A*2f
$WIMWV,284.9,R,7.4,N,A*27
$WIMWV,284.9,R,7.4,N,A*27
$WIMWV,285.5,R,7.4,N,A*2a
$WIMWV,286.6,R,7.4,N,A*2a
$WIMWV,285.9,R,7.8,N,A*2a
$WIMWV,289.5,R,7.8,N,A*2a
$WIMWV,289.2,R,7.8,N,A*2d
$WIMWV,288.1,R,7.8,N,A*2f
$WIMWV,284.0,R,7.8,N,A*22
$WIMWV,285.1,R,8.2,N,A*27
$WIMWV,281.5,R,7.8,N,A*22
$WIMWV,283.9,R,8.2,N,A*29
$WIMWV,282.8,R,7.8,N,A*2c
$WIMWV,283.8,R,7.8,N,A*2d
$WIMWV,287.2,R,8.2,N,A*26
$WIMWV,287.6,R,7.8,N,A*27
$WIMWV,287.2,R,8.2,N,A*26
$WIMWV,285.9,R,7.8,N,A*2a
$WIMWV,286.5,R,8.2,N,A*20
$WIMWV,288.4,R,8.2,N,A*2f
$WIMWV,288.8,R,8.2,N,A*23
$WIMWV,287.2,R,8.6,N,A*22
$WIMWV,285.3,R,8.2,N,A*25
$WIMWV,284.9,R,8.2,N,A*2e
$WIMWV,284.4,R,8.6,N,A*27
$WIMWV,279.4,R,8.2,N,A*21
$WIMWV,280.5,R,8.6,N,A*22
$WIMWV,282.0,R,8.2,N,A*21
$WIMWV,279.8,R,8.6,N,A*29
$WIMWV,282.1,R,8.2,N,A*20
$WIMWV,278.6,R,8.2,N,A*22
$WIMWV,277.5,R,8.6,N,A*2a
$WIMWV,278.8,R,8.2,N,A*2c
$WIMWV,280.4,R,8.2,N,A*27
$WIMWV,283.5,R,8.6,N,A*21
$WIMWV,285.4,R,8.2,N,A*22
$WIMWV,285.8,R,8.6,N,A*2a
$WIMWV,284.5,R,8.2,N,A*22
$WIMWV,285.0,R,8.6,N,A*22
$WIMWV,287.2,R,8.6,N,A*22
$WIMWV,287.9,R,8.6,N,A*29
$WIMWV,289.2,R,8.6,N,A*2c
$WIMWV,287.4,R,8.2,N,A*20
$WIMWV,284.8,R,8.6,N,A*2b
$WIMWV,286.2,R,8.2,N,A*27
$WIMWV,285.2,R,8.6,N,A*20
$WIMWV,282.9,R,8.2,N,A*28
$WIMWV,279.9,R,8.2,N,A*2c
$WIMWV,279.4,R,8.2,N,A*21
$WIMWV,279.9,R,7.8,N,A*29
$WIMWV,278.4,R,8.2,N,A*20
$WIMWV,278.6,R,8.2,N,A*22
$WIMWV,279.8,R,7.8,N,A*28
$WIMWV,280.9,R,8.2,N,A*2a
$WIMWV,284.0,R,7.8,N,A*22
$WIMWV,286.8,R,8.2,N,A*2d
$WIMWV,287.4,R,7.8,N,A*25
$WIMWV,288.6,R,8.2,N,A*2d
$WIMWV,286.6,R,7.8,N,A*26
$WIMWV,286.5,R,8.2,N,A*20
$WIMWV,289.2,R,7.8,N,A*2d
$WIMWV,289.8,R,7.8,N,A*27
$WIMWV,287.7,R,7.8,N,A*26
$WIMWV,282.7,R,7.8,N,A*23
$WIMWV,276.8,R,7.8,N,A*27
$WIMWV,271.3,R,7.8,N,A*2b
$WIMWV,271.4,R,7.4,N,A*20
$WIMWV,269.4,R,7.8,N,A*25
$WIMWV,272.1,R,7.8,N,A*2a
$WIMWV,275.7,R,7.8,N,A*2b
$WIMWV,277.7,R,7.8,N,A*29
$WIMWV,279.3,R,7.8,N,A*23
$WIMWV,280.5,R,7.8,N,A*23
$WIMWV,280.9,R,7.8,N,A*2f
$WIMWV,278.5,R,8.2,N,A*21
$WIMWV,275.9,R,7.8,N,A*25
$WIMWV,277.2,R,8.2,N,A*29
$WIMWV,280.5,R,8.2,N,A*26
$WIMWV,283.1,R,8.2,N,A*21
$WIMWV,281.7,R,7.8,N,A*20
$WIMWV,282.1,R,8.2,N,A*20
$WIMWV,281.5,R,8.2,N,A*27
$WIMWV,277.2,R,7.8,N,A*2c
$WIMWV,273.3,R,7.8,N,A*29
$WIMWV,273.6,R,8.2,N,A*29
$WIMWV,272.0,R,7.8,N,A*2b
$WIMWV,275.3,R,8.2,N,A*2a
$WIMWV,280.4,R,7.8,N,A*22
$WIMWV,281.4,R,7.8,N,A*23
$WIMWV,283.6,R,7.8,N,A*23
$WIMWV,276.5,R,8.2,N,A*2f
$WIMWV,272.6,R,7.8,N,A*2d
$WIMWV,270.4,R,7.8,N,A*2d
$WIMWV,271.3,R,7.8,N,A*2b
$WIMWV,274.1,R,7.4,N,A*20
$WIMWV,277.6,R,7.8,N,A*28
$WIMWV,279.4,R,7.4,N,A*28
$WIMWV,280.6,R,7.4,N,A*2c
$WIMWV,280.6,R,7.4,N,A*2c
$WIMWV,277.5,R,7.0,N,A*23
$WIMWV,279.6,R,7.0,N,A*2e
$WIMWV,278.6,R,7.4,N,A*2b
$WIMWV,282.8,R,7.0,N,A*24
$WIMWV,280.1,R,6.5,N,A*2b
$WIMWV,278.9,R,7.0,N,A*20
$WIMWV,279.2,R,7.4,N,A*2e
$WIMWV,278.7,R,7.0,N,A*2e
$WIMWV,281.6,R,7.0,N,A*29
$WIMWV,284.1,R,7.4,N,A*2f
$WIMWV,286.8,R,7.4,N,A*24
$WIMWV,287.4,R,7.0,N,A*2d
$WIMWV,283.7,R,7.4,N,A*2e
$WIMWV,280.5,R,7.4,N,A*2f
$WIMWV,278.6,R,7.4,N,A*2b
$WIMWV,278.7,R,7.4,N,A*2a
$WIMWV,281.5,R,7.4,N,A*2e
$WIMWV,284.9,R,7.0,N,A*23
$WIMWV,288.7,R,7.4,N,A*25
$WIMWV,291.4,R,7.4,N,A*2e
$WIMWV,288.1,R,7.0,N,A*27
$WIMWV,285.9,R,7.0,N,A*22
$WIMWV,281.6,R,7.4,N,A*2d
$WIMWV,278.8,R,7.0,N,A*21
$WIMWV,278.1,R,7.4,N,A*2c
$WIMWV,277.9,R,7.0,N,A*2f
$WIMWV,279.3,R,7.0,N,A*2b
$WIMWV,277.2,R,7.0,N,A*24
$WIMWV,277.6,R,7.4,N,A*24
$WIMWV,279.3,R,7.0,N,A*2b
$WIMWV,278.9,R,7.4,N,A*24
$WIMWV,277.9,R,7.4,N,A*2b
$WIMWV,277.2,R,7.4,N,A*20
$WIMWV,279.4,R,7.8,N,A*24
$WIMWV,281.8,R,7.4,N,A*23
$WIMWV,283.7,R,7.8,N,A*22
$WIMWV,286.9,R,7.8,N,A*29
$GPRMC,161154.000,A,5410.5703,N,01154.8377,E,0.76,329.53,240521,,,A*6C
$GPVTG,329.53,T,,M,0.76,N,1.4,K,A*07
$GPGGA,161154.000,5410.5703,N,01154.8377,E,1,10,0.9,-1.3,M,42.1,M,,0000*71
$GPGSV,3,1,12,01,34,275,42,03,03,222,25,08,68,200,37,10,43,060,40*79
$GPGSV,3,2,12,14,20,319,37,21,60,277,36,22,29,221,35,23,12,052,25*7F
$GPGSV,3,3,12,24,04,033,25,27,40,157,25,28,12,333,43,32,35,113,39*79
$GPGLL,5410.5703,N,01154.8377,E,161154.000,A,A*54
$WIMWV,285.7,R,7.8,N,A*24
$WIMWV,283.7,R,7.8,N,A*22
$WIMWV,281.4,R,7.8,N,A*23
$WIMWV,277.4,R,7.4,N,A*26
$WIMWV,276.5,R,7.8,N,A*2a
$WIMWV,278.5,R,7.8,N,A*24
$WIMWV,281.6,R,7.8,N,A*21
$WIMWV,284.1,R,7.8,N,A*23
$WIMWV,284.0,R,7.8,N,A*22
$WIMWV,284.5,R,7.8,N,A*27
$GPRMC,161155.000,A,5410.5705,N,01154.8375,E,0.74,329.53,240521,,,A*6B
$GPVTG,329.53,T,,M,0.74,N,1.4,K,A*05
$GPGGA,161155.000,5410.5705,N,01154.8375,E,1,10,0.9,-1.0,M,42.1,M,,0000*77
$GPGSV,3,1,12,01,34,275,30,03,03,222,25,08,68,200,36,10,43,060,38*72
$GPGSV,3,2,12,14,20,319,32,21,60,277,36,22,29,221,31,23,12,052,28*73
$GPGSV,3,3,12,24,04,033,26,27,40,157,24,28,12,333,45,32,35,113,39*7D
$GPGLL,5410.5705,N,01154.8375,E,161155.000,A,A*51
$WIMWV,280.5,R,7.4,N,A*2f
$WIMWV,278.6,R,7.8,N,A*27
$WIMWV,277.9,R,7.8,N,A*27
$WIMWV,276.6,R,7.8,N,A*29
$WIMWV,277.1,R,7.4,N,A*23
$WIMWV,279.4,R,7.8,N,A*24
$WIMWV,282.0,R,7.4,N,A*28
$WIMWV,283.3,R,7.8,N,A*26
$WIMWV,283.7,R,7.4,N,A*2e
$WIMWV,284.7,R,7.8,N,A*25
$GPRMC,161156.000,A,5410.5707,N,01154.8373,E,0.66,329.29,240521,,,A*62
$GPVTG,329.29,T,,M,0.66,N,1.2,K,A*0D
$GPGGA,161156.000,5410.5707,N,01154.8373,E,1,10,0.9,-0.8,M,42.1,M,,0000*79
$GPGSV,3,1,12,01,34,275,42,03,03,222,26,08,68,200,39,10,43,060,41*75
$GPGSV,3,2,12,14,20,319,34,21,60,277,34,22,29,221,32,23,12,052,26*7A
$GPGSV,3,3,12,24,04,033,25,27,40,157,29,28,12,333,44,32,35,113,41*7D
$GPGLL,5410.5707,N,01154.8373,E,161156.000,A,A*56
$WIMWV,284.0,R,7.4,N,A*2e
$WIMWV,284.5,R,7.4,N,A*2b
$WIMWV,284.5,R,7.4,N,A*2b
$WIMWV,283.7,R,7.8,N,A*22
$WIMWV,285.1,R,7.4,N,A*2e
$WIMWV,286.3,R,7.4,N,A*2f
$WIMWV,284.3,R,7.4,N,A*2d
$WIMWV,287.2,R,7.4,N,A*2f
$WIMWV,284.3,R,7.4,N,A*2d
$WIMWV,283.6,R,7.8,N,A*23
$GPRMC,161157.000,A,5410.5708,N,01154.8371,E,0.67,329.29,240521,,,A*6F
$GPVTG,329.29,T,,M,0.67,N,1.3,K,A*0D
$GPGGA,161157.000,5410.5708,N,01154.8371,E,1,10,0.9,-1.0,M,42.1,M,,0000*7C
$GPGSV,3,1,12,01,34,275,32,03,03,222,25,08,68,200,35,10,43,060,37*7C
$GPGSV,3,2,12,14,20,319,36,21,60,277,35,22,29,221,35,23,12,052,27*7F
$GPGSV,3,3,12,24,04,033,25,27,40,157,32,28,12,333,46,32,35,113,39*7A
$GPGLL,5410.5708,N,01154.8371,E,161157.000,A,A*5A
$WIMWV,283.4,R,7.0,N,A*29
$WIMWV,283.9,R,7.4,N,A*20
$WIMWV,284.5,R,7.4,N,A*2b
$WIMWV,285.3,R,7.4,N,A*2c
$WIMWV,283.5,R,7.4,N,A*2c
$WIMWV,282.0,R,7.0,N,A*2c
$WIMWV,280.9,R,7.4,N,A*23
$WIMWV,281.1,R,7.0,N,A*2e
$WIMWV,280.5,R,7.4,N,A*2f
$WIMWV,280.8,R,7.0,N,A*26
$GPRMC,161158.000,A,5410.5710,N,01154.8369,E,0.66,319.82,240521,,,A*63
$GPVTG,319.82,T,,M,0.66,N,1.2,K,A*0F
$GPGGA,161158.000,5410.5710,N,01154.8369,E,1,10,0.9,-0.7,M,42.1,M,,0000*75
$GPGSV,3,1,12,01,34,275,44,03,03,222,25,08,68,200,40,10,43,060,41*7E
$GPGSV,3,2,12,14,20,319,33,21,60,277,33,22,29,221,34,23,12,052,28*72
$GPGSV,3,3,12,24,04,033,25,27,40,157,31,28,12,333,45,32,35,113,39*7A
$GPGLL,5410.5710,N,01154.8369,E,161158.000,A,A*55
$WIMWV,281.1,R,7.4,N,A*2a
$WIMWV,279.4,R,7.4,N,A*28
$WIMWV,280.2,R,7.0,N,A*2c
$WIMWV,279.7,R,7.4,N,A*2b
$WIMWV,280.6,R,7.4,N,A*2c
$WIMWV,281.9,R,7.0,N,A*26
$WIMWV,283.4,R,7.4,N,A*2d
$WIMWV,284.6,R,7.4,N,A*28
$WIMWV,283.7,R,7.4,N,A*2e
$GPRMC,161159.000,A,5410.5712,N,01154.8367,E,0.78,326.13,240521,,,A*65
$WIMWV,285.1,R,7.4,N,A*2e
$GPVTG,326.13,T,,M,0.78,N,1.4,K,A*02
$GPGGA,161159.000,5410.5712,N,01154.8367,E,1,09,0.9,-0.6,M,42.1,M,,0000*71
$GPGSV,3,1,12,01,34,275,39,03,03,222,25,08,68,200,38,10,43,060,38*75
$GPGSV,3,2,12,14,20,319,35,21,60,277,,22,29,221,25,23,12,052,15*7A
$GPGSV,3,3,12,24,04,033,26,27,40,157,27,28,12,333,44,32,35,113,40*71
$GPGLL,5410.5712,N,01154.8367,E,161159.000,A,A*58
$WIMWV,282.5,R,7.8,N,A*21
$WIMWV,281.0,R,7.4,N,A*2b
$WIMWV,280.1,R,7.8,N,A*27
$WIMWV,280.8,R,7.8,N,A*2e
$WIMWV,279.4,R,7.4,N,A*28
$WIMWV,276.1,R,7.8,N,A*2e
$WIMWV,277.7,R,7.4,N,A*25
$WIMWV,275.5,R,7.4,N,A*25
$WIMWV,276.2,R,7.8,N,A*2d
$WIMWV,274.1,R,7.4,N,A*20
$GPRMC,161200.000,A,5410.5713,N,01154.8365,E,0.69,318.31,240521,,,A*64
$GPVTG,318.31,T,,M,0.69,N,1.3,K,A*08
$GPGGA,161200.000,5410.5713,N,01154.8365,E,1,10,0.9,-0.5,M,42.1,M,,0000*76
$GPGSV,3,1,12,01,34,275,42,03,03,222,27,08,68,200,38,10,43,060,41*75
$GPGSV,3,2,12,14,20,319,27,21,60,277,31,22,29,221,31,23,12,052,27*7F
$GPGSV,3,3,12,24,04,033,26,27,40,157,28,28,12,333,41,32,35,113,34*78
$GPGLL,5410.5713,N,01154.8365,E,161200.000,A,A*54
$WIMWV,276.8,R,7.8,N,A*27
$WIMWV,277.9,R,7.4,N,A*2b
$WIMWV,277.9,R,7.4,N,A*2b
$WIMWV,277.2,R,7.8,N,A*2c
$WIMWV,278.1,R,7.4,N,A*2c
$WIMWV,279.8,R,7.4,N,A*24
$WIMWV,281.3,R,7.4,N,A*28
$WIMWV,283.4,R,7.4,N,A*2d
$WIMWV,284.4,R,7.4,N,A*2a
$WIMWV,285.2,R,7.4,N,A*2d
$GPRMC,161201.000,A,5410.5715,N,01154.8362,E,0.79,320.16,240521,,,A*6B
$GPVTG,320.16,T,,M,0.79,N,1.5,K,A*01
$GPGGA,161201.000,5410.5715,N,01154.8362,E,1,10,0.9,-0.4,M,42.1,M,,0000*77
$GPGSV,3,1,12,01,34,275,40,03,03,222,28,08,68,200,37,10,43,060,42*74
$GPGSV,3,2,12,14,20,319,36,21,60,277,33,22,29,221,32,23,12,052,28*71
$GPGSV,3,3,12,24,04,033,27,27,40,157,36,28,12,333,42,32,35,113,39*78
$GPGLL,5410.5715,N,01154.8362,E,161201.000,A,A*54
$WIMWV,285.9,R,7.4,N,A*26
$WIMWV,286.1,R,7.4,N,A*2d
$WIMWV,285.9,R,7.4,N,A*26
$WIMWV,285.6,R,7.0,N,A*2d
$WIMWV,279.6,R,7.4,N,A*2a
$WIMWV,279.5,R,7.4,N,A*29
$WIMWV,277.2,R,7.0,N,A*24
$WIMWV,275.3,R,7.4,N,A*23
$WIMWV,276.2,R,7.4,N,A*21
$GPRMC,161202.000,A,5410.5717,N,01154.8361,E,0.64,325.46,240521,,,A*65
$GPVTG,325.46,T,,M,0.64,N,1.2,K,A*0A
$GPGGA,161202.000,5410.5717,N,01154.8361,E,1,10,0.9,-0.3,M,42.1,M,,0000*72
$GPGSV,3,1,12,01,34,275,43,03,03,222,27,08,68,200,40,10,43,060,42*78
$GPGSV,3,2,12,14,20,319,36,21,60,277,38,22,29,221,26,23,12,052,26*71
$GPGSV,3,3,12,24,04,033,28,27,40,157,33,28,12,333,42,32,35,113,39*72
$GPGLL,5410.5717,N,01154.8361,E,161202.000,A,A*56
$WIMWV,277.5,R,7.0,N,A*23
$WIMWV,281.0,R,7.4,N,A*2b
$WIMWV,283.2,R,7.0,N,A*2f
$WIMWV,285.0,R,7.0,N,A*2b
$WIMWV,284.0,R,7.0,N,A*2a
$WIMWV,282.3,R,7.0,N,A*2f
$WIMWV,283.9,R,7.0,N,A*24
$WIMWV,283.7,R,7.0,N,A*2a
$WIMWV,281.2,R,7.0,N,A*2d
$WIMWV,282.8,R,7.0,N,A*24
$WIMWV,283.1,R,7.0,N,A*2c
$GPRMC,161203.000,A,5410.5718,N,01154.8359,E,0.68,325.46,240521,,,A*6C
$GPVTG,325.46,T,,M,0.68,N,1.3,K,A*07
$GPGGA,161203.000,5410.5718,N,01154.8359,E,1,10,0.9,-0.2,M,42.1,M,,0000*76
$GPGSV,3,1,12,01,34,275,36,03,03,222,27,08,68,200,40,10,43,060,41*79
$GPGSV,3,2,12,14,20,319,40,21,60,277,35,22,29,221,34,23,12,052,30*79
$GPGSV,3,3,12,24,04,033,26,27,40,157,32,28,12,333,43,32,35,113,35*70
$GPGLL,5410.5718,N,01154.8359,E,161203.000,A,A*53
$WIMWV,285.5,R,7.0,N,A*2e
$WIMWV,278.4,R,7.0,N,A*2d
$WIMWV,276.2,R,7.0,N,A*25
$WIMWV,268.2,R,7.0,N,A*2a
$WIMWV,268.7,R,7.0,N,A*2f
$WIMWV,270.5,R,7.0,N,A*24
$WIMWV,275.3,R,7.0,N,A*27
$WIMWV,284.8,R,6.6,N,A*25
$WIMWV,286.2,R,7.0,N,A*2a
$GPRMC,161204.000,A,5410.5720,N,01154.8356,E,0.79,326.02,240521,,,A*6C
$GPVTG,326.02,T,,M,0.79,N,1.5,K,A*02
$GPGGA,161204.000,5410.5720,N,01154.8356,E,1,10,0.9,0.0,M,42.1,M,,0000*5A
$GPGSV,3,1,12,01,34,275,42,03,03,222,25,08,68,200,38,10,43,060,41*77
$GPGSV,3,2,12,14,20,319,39,21,60,277,36,22,29,221,33,23,12,052,24*76
$GPGSV,3,3,12,24,04,033,31,27,40,157,31,28,12,333,45,32,35,113,42*73
$GPGLL,5410.5720,N,01154.8356,E,161204.000,A,A*50
$WIMWV,284.5,R,7.0,N,A*2f
$WIMWV,281.3,R,7.0,N,A*2c
$WIMWV,279.5,R,7.0,N,A*2d
$WIMWV,277.3,R,7.0,N,A*25
$WIMWV,277.5,R,7.0,N,A*23
$WIMWV,275.0,R,7.0,N,A*24
$WIMWV,270.6,R,7.0,N,A*27
$WIMWV,276.1,R,7.4,N,A*22
$WIMWV,273.8,R,7.0,N,A*2a
$WIMWV,278.2,R,7.0,N,A*2b
$GPRMC,161205.000,A,5410.5721,N,01154.8355,E,0.62,322.75,240521,,,A*61
$GPVTG,322.75,T,,M,0.62,N,1.1,K,A*08
$GPGGA,161205.000,5410.5721,N,01154.8355,E,1,10,0.9,0.0,M,42.1,M,,0000*59
$GPGSV,3,1,12,01,34,275,42,03,03,222,26,08,68,200,36,10,43,060,40*7B
$GPGSV,3,2,12,14,20,319,30,21,60,277,40,22,29,221,36,23,12,052,26*79
$GPGSV,3,3,12,24,04,033,29,27,40,157,32,28,12,333,44,32,35,113,34*79
$GPGLL,5410.5721,N,01154.8355,E,161205.000,A,A*53
$WIMWV,278.5,R,7.0,N,A*2c
$WIMWV,277.4,R,7.0,N,A*22
$WIMWV,281.6,R,6.5,N,A*2d
$WIMWV,276.3,R,7.0,N,A*24
$WIMWV,278.0,R,7.0,N,A*29
$WIMWV,276.5,R,7.0,N,A*22
$WIMWV,275.4,R,7.0,N,A*20
$WIMWV,277.6,R,7.0,N,A*20
$WIMWV,283.0,R,7.0,N,A*2d
$WIMWV,288.3,R,6.5,N,A*21
$GPRMC,161206.000,A,5410.5722,N,01154.8352,E,0.79,318.79,240521,,,A*69
$GPVTG,318.79,T,,M,0.79,N,1.5,K,A*03
$GPGGA,161206.000,5410.5722,N,01154.8352,E,1,10,0.9,-0.2,M,42.1,M,,0000*71
$GPGSV,3,1,12,01,34,275,40,03,03,222,25,08,68,200,36,10,43,060,36*7B
$GPGSV,3,2,12,14,20,319,36,21,60,277,39,22,30,221,33,23,12,052,27*7D
$WIMWV,287.2,R,7.0,N,A*2b
$GPGSV,3,3,12,24,04,033,28,27,40,157,32,28,12,333,43,32,35,113,37*7C
$GPGLL,5410.5722,N,01154.8352,E,161206.000,A,A*54
$WIMWV,289.8,R,7.0,N,A*2f
$WIMWV,284.6,R,6.5,N,A*28
$WIMWV,281.0,R,7.0,N,A*2f
$WIMWV,280.8,R,7.0,N,A*26
$WIMWV,283.2,R,6.5,N,A*2b
$WIMWV,286.3,R,6.5,N,A*2f
$WIMWV,286.5,R,7.0,N,A*2d
$WIMWV,287.4,R,6.6,N,A*2a
$WIMWV,288.1,R,6.5,N,A*23
$GPRMC,161207.000,A,5410.5724,N,01154.8350,E,0.63,322.39,240521,,,A*6A
$GPVTG,322.39,T,,M,0.63,N,1.2,K,A*02
$GPGGA,161207.000,5410.5724,N,01154.8350,E,1,10,0.9,-0.2,M,42.1,M,,0000*74
$GPGSV,3,1,12,01,34,275,41,03,03,222,25,08,68,200,36,10,43,060,37*7B
$GPGSV,3,2,12,14,20,319,31,21,60,277,36,22,30,221,29,23,11,052,27*7D
$GPGSV,3,3,12,24,04,033,28,27,40,157,32,28,12,333,42,32,35,113,38*72
$GPGLL,5410.5724,N,01154.8350,E,161207.000,A,A*51
$WIMWV,287.4,R,7.0,N,A*2d
$WIMWV,285.6,R,6.5,N,A*29
$WIMWV,284.4,R,7.0,N,A*2e
$WIMWV,281.4,R,6.5,N,A*2f
$WIMWV,281.6,R,7.0,N,A*29
$WIMWV,282.5,R,7.0,N,A*29
$WIMWV,284.3,R,7.0,N,A*29
$WIMWV,283.0,R,6.5,N,A*29
$WIMWV,283.0,R,7.0,N,A*2d
$WIMWV,282.4,R,6.6,N,A*2f
$GPRMC,161208.000,A,5410.5726,N,01154.8349,E,0.76,329.20,240521,,,A*68
$GPVTG,329.20,T,,M,0.76,N,1.4,K,A*03
$GPGGA,161208.000,5410.5726,N,01154.8349,E,1,10,0.9,0.0,M,42.1,M,,0000*5E
$GPGSV,3,1,12,01,34,275,45,03,03,222,24,08,68,200,38,10,43,060,39*7E
$GPGSV,3,2,12,14,20,319,35,21,60,277,36,22,30,221,32,23,11,052,26*72
$GPGSV,3,3,12,24,04,033,28,27,40,157,32,28,12,333,43,32,35,113,40*7C
$GPGLL,5410.5726,N,01154.8349,E,161208.000,A,A*54
$WIMWV,280.5,R,6.5,N,A*2f
$WIMWV,279.7,R,6.5,N,A*2b
$WIMWV,280.1,R,7.0,N,A*2f
$WIMWV,281.7,R,6.2,N,A*2b
$WIMWV,282.4,R,6.5,N,A*2c
$WIMWV,281.8,R,7.0,N,A*27
$WIMWV,280.3,R,6.5,N,A*29
$WIMWV,278.3,R,6.6,N,A*2d
$WIMWV,279.4,R,6.5,N,A*28
$WIMWV,280.1,R,6.5,N,A*2b
$GPRMC,161209.000,A,5410.5727,N,01154.8347,E,0.58,329.20,240521,,,A*6A
$GPVTG,329.20,T,,M,0.58,N,1.1,K,A*0A
$GPGGA,161209.000,5410.5727,N,01154.8347,E,1,10,0.9,0.1,M,42.1,M,,0000*51
$GPGSV,3,1,12,01,34,275,27,03,03,222,26,08,68,200,38,10,43,060,39*78
$GPGSV,3,2,12,14,20,319,35,21,60,277,34,22,30,221,30,23,11,052,27*73
$GPGSV,3,3,12,24,04,033,26,27,40,157,33,28,12,333,43,32,35,113,35*71
$WIMWV,282.9,R,6.5,N,A*21
$GPGLL,5410.5727,N,01154.8347,E,161209.000,A,A*5A
$WIMWV,280.0,R,6.2,N,A*2d
$WIMWV,281.8,R,6.6,N,A*20
$WIMWV,278.8,R,6.5,N,A*25
$WIMWV,276.5,R,6.5,N,A*26
$WIMWV,275.6,R,6.5,N,A*26
$WIMWV,274.4,R,6.2,N,A*22
$WIMWV,273.6,R,6.6,N,A*23
$WIMWV,272.9,R,6.6,N,A*2d
$WIMWV,274.5,R,6.5,N,A*24
$GPRMC,161210.000,A,5410.5729,N,01154.8345,E,0.76,324.00,240521,,,A*6D
$GPVTG,324.00,T,,M,0.76,N,1.4,K,A*0C
$GPGGA,161210.000,5410.5729,N,01154.8345,E,1,10,0.9,0.2,M,42.1,M,,0000*56
$GPGSV,3,1,12,01,34,275,42,03,03,222,26,08,68,200,38,10,43,060,40*75
$GPGSV,3,2,12,14,20,319,39,21,60,277,36,22,30,221,30,23,11,052,26*7C
$GPGSV,3,3,12,24,04,033,28,27,40,157,35,28,12,333,43,32,35,113,38*74
$GPGLL,5410.5729,N,01154.8345,E,161210.000,A,A*5E
$WIMWV,276.6,R,6.6,N,A*26
$WIMWV,280.5,R,6.6,N,A*2c
$WIMWV,281.3,R,6.6,N,A*2b
$WIMWV,281.8,R,6.6,N,A*20
$WIMWV,278.6,R,6.6,N,A*28
$WIMWV,276.2,R,6.5,N,A*21
$WIMWV,273.2,R,6.6,N,A*27
$WIMWV,273.6,R,6.6,N,A*23
$WIMWV,276.0,R,6.6,N,A*20
$WIMWV,280.1,R,6.5,N,A*2b
$GPRMC,161211.000,A,5410.5730,N,01154.8343,E,0.64,325.41,240521,,,A*65
$GPVTG,325.41,T,,M,0.64,N,1.2,K,A*0D
$GPGGA,161211.000,5410.5730,N,01154.8343,E,1,10,0.9,0.2,M,42.1,M,,0000*59
$GPGSV,3,1,12,01,34,275,41,03,03,222,25,08,68,200,40,10,43,060,43*79
$GPGSV,3,2,12,14,20,319,24,21,60,277,35,22,30,221,35,23,11,052,26*76
$GPGSV,3,3,12,24,04,033,27,27,39,157,32,28,12,333,44,32,35,113,39*74
$GPGLL,5410.5730,N,01154.8343,E,161211.000,A,A*51
$WIMWV,282.8,R,6.5,N,A*20
$WIMWV,282.0,R,7.0,N,A*2c
$WIMWV,282.6,R,6.5,N,A*2e
$WIMWV,279.8,R,7.0,N,A*20
$WIMWV,276.5,R,6.5,N,A*26
$WIMWV,269.2,R,7.0,N,A*2b
$WIMWV,273.9,R,7.0,N,A*2b
$WIMWV,273.3,R,7.0,N,A*21
$WIMWV,273.2,R,7.0,N,A*20
$WIMWV,277.1,R,7.0,N,A*27
$GPRMC,161212.000,A,5410.5731,N,01154.8341,E,0.73,323.91,240521,,,A*68
$GPVTG,323.91,T,,M,0.73,N,1.3,K,A*01
$GPGGA,161212.000,5410.5731,N,01154.8341,E,1,10,0.9,0.1,M,42.1,M,,0000*5A
$GPGSV,3,1,12,01,34,275,41,03,03,222,24,08,68,200,42,10,43,060,29*76
$GPGSV,3,2,12,14,20,319,32,21,60,277,33,22,30,221,38,23,11,052,28*74
$GPGSV,3,3,12,24,04,033,26,27,39,157,33,28,12,332,44,32,35,113,41*7A
$GPGLL,5410.5731,N,01154.8341,E,161212.000,A,A*51
$WIMWV,276.7,R,7.4,N,A*24
$WIMWV,279.1,R,7.0,N,A*29
$WIMWV,281.9,R,7.0,N,A*26
$WIMWV,280.8,R,7.0,N,A*26
$WIMWV,282.1,R,7.4,N,A*29
$WIMWV,281.6,R,7.0,N,A*29
$WIMWV,280.3,R,7.0,N,A*2d
$WIMWV,276.5,R,7.0,N,A*22
$WIMWV,275.5,R,7.4,N,A*25
$WIMWV,274.6,R,7.0,N,A*23
$GPRMC,161213.000,A,5410.5731,N,01154.8338,E,0.61,322.94,240521,,,A*60
$GPVTG,322.94,T,,M,0.61,N,1.1,K,A*04
$GPGGA,161213.000,5410.5731,N,01154.8338,E,1,10,0.9,-0.3,M,42.1,M,,0000*7A
$GPGSV,3,1,12,01,34,275,44,03,03,222,27,08,68,200,39,10,43,060,37*73
$GPGSV,3,2,12,14,20,319,32,21,60,277,33,22,30,221,40,23,11,052,28*7B
$GPGSV,3,3,12,24,04,033,26,27,39,157,38,28,12,332,43,32,35,113,41*76
$GPGLL,5410.5731,N,01154.8338,E,161213.000,A,A*5E
$WIMWV,275.1,R,7.4,N,A*21
$WIMWV,279.0,R,7.0,N,A*28
$WIMWV,279.4,R,7.4,N,A*28
$WIMWV,278.5,R,7.0,N,A*2c
$WIMWV,279.9,R,7.4,N,A*25
$WIMWV,277.9,R,7.0,N,A*2f
$WIMWV,277.8,R,7.4,N,A*2a
$WIMWV,274.7,R,7.0,N,A*22
$WIMWV,274.2,R,7.0,N,A*27
$WIMWV,274.6,R,7.0,N,A*23
$GPRMC,161214.000,A,5410.5733,N,01154.8337,E,0.75,322.94,240521,,,A*6F
$GPVTG,322.94,T,,M,0.75,N,1.4,K,A*04
$GPGGA,161214.000,5410.5733,N,01154.8337,E,1,10,0.9,-0.3,M,42.1,M,,0000*70
$GPGSV,3,1,12,01,34,275,38,03,03,222,26,08,68,200,37,10,43,060,25*74
$GPGSV,3,2,12,14,20,319,37,21,60,277,37,22,30,221,33,23,11,052,33*74
$GPGSV,3,3,12,24,04,033,32,27,39,157,33,28,12,332,42,32,35,113,27*79
$GPGLL,5410.5733,N,01154.8337,E,161214.000,A,A*54
$WIMWV,274.6,R,6.5,N,A*27
$WIMWV,276.5,R,7.0,N,A*22
$WIMWV,279.1,R,6.6,N,A*2e
$WIMWV,281.5,R,7.0,N,A*2a
$WIMWV,281.5,R,6.5,N,A*2e
$WIMWV,279.9,R,6.5,N,A*25
$WIMWV,281.0,R,7.0,N,A*2f
$WIMWV,278.3,R,6.5,N,A*2e
$WIMWV,275.2,R,6.5,N,A*22
$WIMWV,273.6,R,6.6,N,A*23
$GPRMC,161215.000,A,5410.5734,N,01154.8335,E,0.64,322.94,240521,,,A*6B
$GPVTG,322.94,T,,M,0.64,N,1.2,K,A*02
$GPGGA,161215.000,5410.5734,N,01154.8335,E,1,10,0.9,-0.3,M,42.1,M,,0000*74
$GPGSV,3,1,12,01,34,275,40,03,03,222,31,08,68,200,37,10,43,060,31*78
$GPGSV,3,2,12,14,20,319,35,21,60,277,35,22,30,221,36,23,11,052,27*74
$GPGSV,3,3,12,24,04,033,24,27,39,157,36,28,12,332,42,32,35,113,37*7A
$GPGLL,5410.5734,N,01154.8335,E,161215.000,A,A*50
$WIMWV,274.6,R,6.5,N,A*27
$WIMWV,269.8,R,6.6,N,A*26
$WIMWV,268.1,R,7.0,N,A*29
$WIMWV,269.0,R,6.5,N,A*2d
$WIMWV,271.1,R,7.0,N,A*21
$WIMWV,274.3,R,6.5,N,A*22
$WIMWV,276.3,R,7.0,N,A*24
$WIMWV,276.6,R,7.0,N,A*21
$WIMWV,277.7,R,6.5,N,A*25
$WIMWV,278.4,R,7.0,N,A*2d
$GPRMC,161216.000,A,5410.5735,N,01154.8333,E,0.70,322.94,240521,,,A*6A
$GPVTG,322.94,T,,M,0.70,N,1.3,K,A*06
$GPGGA,161216.000,5410.5735,N,01154.8333,E,1,10,0.9,-0.5,M,42.1,M,,0000*76
$GPGSV,3,1,12,01,34,275,41,03,03,222,25,08,68,200,39,10,43,060,32*71
$GPGSV,3,2,12,14,20,319,26,21,60,277,31,22,30,221,37,23,11,052,27*73
$GPGSV,3,3,12,24,04,033,26,27,39,157,39,28,12,332,39,32,35,112,37*7A
$GPGLL,5410.5735,N,01154.8333,E,161216.000,A,A*54
$WIMWV,279.7,R,7.0,N,A*2f
$WIMWV,281.6,R,6.5,N,A*2d
$WIMWV,282.3,R,7.0,N,A*2f
$WIMWV,277.9,R,6.5,N,A*2b
$WIMWV,278.9,R,7.0,N,A*20
$WIMWV,273.6,R,6.5,N,A*20
$WIMWV,270.4,R,7.0,N,A*25
$WIMWV,269.2,R,7.0,N,A*2b
$WIMWV,269.5,R,6.5,N,A*28
$WIMWV,271.3,R,7.0,N,A*23
$GPRMC,161217.000,A,5410.5737,N,01154.8330,E,0.79,322.94,240521,,,A*63
$GPVTG,322.94,T,,M,0.79,N,1.5,K,A*09
$GPGGA,161217.000,5410.5737,N,01154.8330,E,1,10,0.9,-0.5,M,42.1,M,,0000*76
$GPGSV,3,1,12,01,34,275,41,03,03,222,26,08,68,200,36,10,43,060,32*7D
$GPGSV,3,2,12,14,20,319,32,21,60,277,31,22,30,221,23,23,11,052,16*71
$GPGSV,3,3,12,24,04,033,25,27,39,157,37,28,12,332,37,32,35,112,41*78
$GPGLL,5410.5737,N,01154.8330,E,161217.000,A,A*54
$WIMWV,275.7,R,6.6,N,A*24
$WIMWV,279.5,R,7.0,N,A*2d
$WIMWV,282.2,R,6.6,N,A*29
$WIMWV,284.7,R,6.6,N,A*2a
$WIMWV,287.2,R,6.5,N,A*2f
$WIMWV,285.8,R,7.0,N,A*23
$WIMWV,283.1,R,6.6,N,A*2b
$WIMWV,280.2,R,6.5,N,A*28
$WIMWV,277.8,R,7.0,N,A*2e
$WIMWV,277.9,R,6.6,N,A*28
$GPRMC,161218.000,A,5410.5738,N,01154.8327,E,0.53,322.94,240521,,,A*6D
$GPVTG,322.94,T,,M,0.53,N,1.0,K,A*04
$GPGGA,161218.000,5410.5738,N,01154.8327,E,1,10,0.9,-0.5,M,42.1,M,,0000*70
$GPGSV,3,1,12,01,34,275,39,03,03,222,35,08,68,200,32,10,43,060,34*72
$GPGSV,3,2,12,14,20,319,26,21,60,277,30,22,30,221,34,23,11,052,19*7C
$GPGSV,3,3,12,24,04,033,26,27,39,157,36,28,12,332,37,32,35,112,43*78
$GPGLL,5410.5738,N,01154.8327,E,161218.000,A,A*52
$WIMWV,279.0,R,7.0,N,A*28
$WIMWV,279.3,R,6.6,N,A*2c
$WIMWV,280.3,R,6.5,N,A*29
$WIMWV,280.1,R,7.0,N,A*2f
$WIMWV,279.5,R,6.6,N,A*2a
$WIMWV,280.2,R,6.5,N,A*28
$WIMWV,282.4,R,6.6,N,A*2f
$WIMWV,285.5,R,6.2,N,A*2d
$WIMWV,288.7,R,6.5,N,A*25
$WIMWV,291.4,R,6.6,N,A*2d
$GPRMC,161219.000,A,5410.5739,N,01154.8324,E,0.81,322.72,240521,,,A*69
$GPVTG,322.72,T,,M,0.81,N,1.5,K,A*06
$GPGGA,161219.000,5410.5739,N,01154.8324,E,1,10,0.9,-0.5,M,42.1,M,,0000*73
$GPGSV,3,1,12,01,34,275,39,03,03,222,28,08,68,200,36,10,43,060,33*7D
$GPGSV,3,2,12,14,20,319,41,21,60,277,29,22,30,221,36,23,11,052,20*7D
$GPGSV,3,3,12,24,04,033,32,27,39,157,38,28,12,332,34,32,35,112,42*71
$GPGLL,5410.5739,N,01154.8324,E,161219.000,A,A*51
$WIMWV,291.2,R,6.2,N,A*2f
$WIMWV,291.3,R,6.6,N,A*2a
$WIMWV,287.9,R,6.5,N,A*24
$WIMWV,287.9,R,6.1,N,A*20
$WIMWV,279.4,R,6.5,N,A*28
$WIMWV,279.3,R,6.6,N,A*2c
$WIMWV,277.3,R,6.6,N,A*22
$WIMWV,272.6,R,6.6,N,A*22
$WIMWV,271.2,R,6.2,N,A*21
$WIMWV,269.2,R,6.6,N,A*2c
$GPRMC,161220.000,A,5410.5740,N,01154.8321,E,0.40,322.72,240521,,,A*65
$GPVTG,322.72,T,,M,0.40,N,0.7,K,A*08
$GPGGA,161220.000,5410.5740,N,01154.8321,E,1,10,0.9,-0.6,M,42.1,M,,0000*71
$GPGSV,3,1,12,01,34,275,38,03,03,222,26,08,68,200,36,10,43,060,32*73
$GPGSV,3,2,12,14,20,319,27,21,60,277,28,22,30,221,31,23,11,052,18*70
$GPGSV,3,3,12,24,04,033,28,27,39,157,39,28,12,332,31,32,35,112,39*72
$GPGLL,5410.5740,N,01154.8321,E,161220.000,A,A*50
$WIMWV,266.1,R,6.6,N,A*20
$WIMWV,266.3,R,6.6,N,A*22
$WIMWV,270.6,R,6.2,N,A*24
$WIMWV,273.3,R,6.6,N,A*26
$WIMWV,279.5,R,6.2,N,A*2e
$WIMWV,279.1,R,6.5,N,A*2d
$WIMWV,281.3,R,6.1,N,A*2c
$WIMWV,280.0,R,6.5,N,A*2a
$WIMWV,278.8,R,6.1,N,A*21
$WIMWV,277.5,R,6.2,N,A*20
$GPRMC,161221.000,A,5410.5739,N,01154.8319,E,0.68,322.72,240521,,,A*6B
$GPVTG,322.72,T,,M,0.68,N,1.3,K,A*07
$GPGGA,161221.000,5410.5739,N,01154.8319,E,1,10,0.9,-1.6,M,42.1,M,,0000*74
$GPGSV,3,1,12,01,34,275,35,03,03,222,26,08,68,200,46,10,43,060,37*7C
$GPGSV,3,2,12,14,20,319,38,21,60,277,38,22,30,221,27,23,11,052,19*79
$GPGSV,3,3,12,24,04,033,27,27,39,157,42,28,12,332,39,32,35,112,45*72
$GPGLL,5410.5739,N,01154.8319,E,161221.000,A,A*54
$WIMWV,280.1,R,6.5,N,A*2b
$WIMWV,283.9,R,6.5,N,A*20
$WIMWV,286.5,R,6.6,N,A*2a
$WIMWV,284.9,R,6.5,N,A*27
$WIMWV,282.8,R,6.6,N,A*23
$WIMWV,277.2,R,6.6,N,A*23
$WIMWV,274.1,R,6.6,N,A*23
$WIMWV,271.6,R,6.5,N,A*22
$WIMWV,270.5,R,6.2,N,A*27
$WIMWV,269.9,R,6.1,N,A*20
$GPRMC,161222.000,A,5410.5738,N,01154.8317,E,0.54,322.72,240521,,,A*68
$GPVTG,322.72,T,,M,0.54,N,1.0,K,A*0B
$GPGGA,161222.000,5410.5738,N,01154.8317,E,1,10,0.9,-2.6,M,42.1,M,,0000*7B
$GPGSV,3,1,12,01,34,275,32,03,03,222,32,08,68,200,45,10,43,060,40*7D
$GPGSV,3,2,12,14,20,319,41,21,60,277,42,22,30,221,26,23,11,052,21*70
$GPGSV,3,3,12,24,04,033,26,27,39,157,39,28,12,332,41,32,35,112,47*72
$GPGLL,5410.5738,N,01154.8317,E,161222.000,A,A*58
$WIMWV,268.6,R,6.5,N,A*2a
$WIMWV,271.8,R,6.1,N,A*28
$WIMWV,272.4,R,6.1,N,A*27
$WIMWV,273.6,R,6.6,N,A*23
$WIMWV,272.9,R,6.1,N,A*2a
$WIMWV,272.2,R,6.2,N,A*22
$WIMWV,271.7,R,6.2,N,A*24
$WIMWV,274.3,R,6.2,N,A*25
$WIMWV,278.5,R,6.2,N,A*2f
$WIMWV,282.4,R,6.2,N,A*2b
$GPRMC,161223.000,A,5410.5738,N,01154.8316,E,0.82,320.97,240521,,,A*6A
$GPVTG,320.97,T,,M,0.82,N,1.5,K,A*0C
$GPGGA,161223.000,5410.5738,N,01154.8316,E,1,10,0.9,-3.5,M,42.1,M,,0000*79
$GPGSV,3,1,12,01,34,275,37,03,03,222,31,08,68,200,47,10,43,060,40*79
$GPGSV,3,2,12,14,20,319,38,21,60,277,40,22,30,221,38,23,11,052,21*73
$GPGSV,3,3,12,24,04,033,30,27,39,157,35,28,12,332,39,32,35,112,46*77
$GPGLL,5410.5738,N,01154.8316,E,161223.000,A,A*58
$WIMWV,287.2,R,6.5,N,A*2f
$WIMWV,289.5,R,6.1,N,A*22
$WIMWV,289.6,R,6.6,N,A*26
$WIMWV,284.8,R,6.6,N,A*25
$WIMWV,275.1,R,6.5,N,A*21
$WIMWV,271.5,R,6.5,N,A*21
$WIMWV,266.7,R,6.5,N,A*25
$WIMWV,263.3,R,6.1,N,A*20
$WIMWV,264.5,R,6.5,N,A*25
$WIMWV,268.5,R,6.5,N,A*29
$GPRMC,161224.000,A,5410.5740,N,01154.8315,E,0.63,317.90,240521,,,A*6D
$GPVTG,317.90,T,,M,0.63,N,1.2,K,A*07
$GPGGA,161224.000,5410.5740,N,01154.8315,E,1,10,0.9,-3.6,M,42.1,M,,0000*71
$GPGSV,3,1,12,01,34,275,35,03,03,222,34,08,68,200,47,10,43,060,41*7F
$GPGSV,3,2,12,14,20,319,43,21,60,277,43,22,30,221,35,23,11,052,23*73
$GPGSV,3,3,12,24,04,033,22,27,39,157,40,28,12,332,42,32,35,112,46*7A
$GPGLL,5410.5740,N,01154.8315,E,161224.000,A,A*53
$WIMWV,275.3,R,6.5,N,A*23
$WIMWV,272.3,R,6.5,N,A*24
$WIMWV,273.6,R,6.2,N,A*27
$WIMWV,269.6,R,6.6,N,A*28
$WIMWV,268.0,R,6.1,N,A*28
$WIMWV,271.3,R,6.6,N,A*24
$WIMWV,276.0,R,6.5,N,A*23
$WIMWV,280.9,R,6.1,N,A*27
$WIMWV,284.0,R,6.5,N,A*2e
$WIMWV,286.4,R,7.0,N,A*2c
$GPRMC,161225.000,A,5410.5741,N,01154.8313,E,0.70,328.21,240521,,,A*6F
$GPVTG,328.21,T,,M,0.70,N,1.3,K,A*02
$GPGGA,161225.000,5410.5741,N,01154.8313,E,1,10,0.9,-4.2,M,42.1,M,,0000*74
$GPGSV,3,1,12,01,34,275,33,03,03,222,27,08,68,200,46,10,43,060,37*7B
$GPGSV,3,2,12,14,20,319,37,21,60,277,41,22,30,221,29,23,11,052,24*78
$GPGSV,3,3,12,24,04,033,25,27,39,157,39,28,12,332,34,32,35,112,44*70
$GPGLL,5410.5741,N,01154.8313,E,161225.000,A,A*55
$WIMWV,285.3,R,7.0,N,A*28
$WIMWV,278.6,R,7.0,N,A*2f
$WIMWV,279.2,R,7.4,N,A*2e
$WIMWV,283.5,R,7.4,N,A*2c
$WIMWV,288.4,R,7.8,N,A*2a
$WIMWV,289.6,R,7.4,N,A*25
$WIMWV,285.9,R,7.4,N,A*26
$WIMWV,275.1,R,7.4,N,A*21
$WIMWV,261.4,R,7.0,N,A*25
$WIMWV,254.4,R,7.0,N,A*23
$GPRMC,161226.000,A,5410.5742,N,01154.8312,E,0.73,322.34,240521,,,A*63
$GPVTG,322.34,T,,M,0.73,N,1.4,K,A*08
$GPGGA,161226.000,5410.5742,N,01154.8312,E,1,10,0.9,-4.1,M,42.1,M,,0000*76
$GPGSV,3,1,12,01,34,275,36,03,03,222,29,08,68,200,46,10,43,060,39*7E
$GPGSV,3,2,12,14,20,319,39,21,60,277,41,22,30,221,34,23,11,052,23*7D
$GPGSV,3,3,12,24,04,033,25,27,39,157,40,28,12,332,42,32,35,112,43*78
$GPGLL,5410.5742,N,01154.8312,E,161226.000,A,A*54
$WIMWV,259.4,R,7.4,N,A*2a
$WIMWV,270.4,R,7.0,N,A*25
$WIMWV,279.3,R,7.4,N,A*2f
$WIMWV,282.3,R,7.0,N,A*2f
$WIMWV,278.7,R,7.4,N,A*2a
$WIMWV,272.0,R,7.4,N,A*27
$WIMWV,269.3,R,7.4,N,A*2e
$WIMWV,273.0,R,7.4,N,A*26
$WIMWV,277.7,R,7.4,N,A*25
$WIMWV,282.8,R,7.4,N,A*20
$GPRMC,161227.000,A,5410.5743,N,01154.8311,E,0.69,326.71,240521,,,A*6E
$GPVTG,326.71,T,,M,0.69,N,1.3,K,A*01
$GPGGA,161227.000,5410.5743,N,01154.8311,E,1,10,0.9,-4.4,M,42.1,M,,0000*70
$GPGSV,3,1,12,01,34,275,36,03,03,222,27,08,68,200,46,10,43,060,38*71
$GPGSV,3,2,12,14,20,319,37,21,60,277,40,22,30,221,33,23,11,052,25*73
$GPGSV,3,3,12,24,04,033,30,27,39,157,41,28,12,332,39,32,35,112,43*71
$GPGLL,5410.5743,N,01154.8311,E,161227.000,A,A*57
$WIMWV,289.4,R,7.4,N,A*27
$WIMWV,287.1,R,7.4,N,A*2c
$WIMWV,284.1,R,7.4,N,A*2f
$WIMWV,280.3,R,7.4,N,A*29
$WIMWV,274.9,R,7.4,N,A*28
$WIMWV,267.7,R,7.0,N,A*20
$WIMWV,267.0,R,7.4,N,A*23
$WIMWV,265.4,R,7.0,N,A*21
$WIMWV,267.0,R,7.0,N,A*27
$WIMWV,272.2,R,7.0,N,A*21
$GPRMC,161228.000,A,5410.5745,N,01154.8310,E,0.58,322.80,240521,,,A*6E
$GPVTG,322.80,T,,M,0.58,N,1.1,K,A*0B
$GPGGA,161228.000,5410.5745,N,01154.8310,E,1,10,0.9,-4.2,M,42.1,M,,0000*7E
$GPGSV,3,1,12,01,34,275,39,03,03,222,28,08,68,200,48,10,43,060,37*70
$GPGSV,3,2,12,14,20,319,43,21,60,277,42,22,30,221,35,23,11,052,25*74
$GPGSV,3,3,12,24,04,033,29,27,39,157,40,28,12,332,41,32,35,112,46*72
$GPGLL,5410.5745,N,01154.8310,E,161228.000,A,A*5F
$WIMWV,273.7,R,7.0,N,A*25
$WIMWV,275.8,R,7.0,N,A*2c
$WIMWV,274.7,R,7.0,N,A*22
$WIMWV,272.5,R,7.0,N,A*26
$WIMWV,274.2,R,7.0,N,A*27
$WIMWV,278.1,R,7.0,N,A*28
$WIMWV,282.3,R,7.0,N,A*2f
$WIMWV,284.4,R,7.4,N,A*2a
$WIMWV,284.0,R,7.0,N,A*2a
$WIMWV,282.5,R,7.0,N,A*29
$GPRMC,161229.000,A,5410.5747,N,01154.8308,E,0.77,324.47,240521,,,A*64
$GPVTG,324.47,T,,M,0.77,N,1.4,K,A*0E
$GPGGA,161229.000,5410.5747,N,01154.8308,E,1,10,0.9,-4.3,M,42.1,M,,0000*75
$GPGSV,3,1,12,01,34,275,36,03,03,222,27,08,68,200,45,10,43,060,37*7D
$GPGSV,3,2,12,14,20,319,39,21,60,277,40,22,30,221,25,23,11,052,22*7D
$GPGSV,3,3,12,24,04,033,28,27,39,157,39,28,12,332,39,32,35,112,45*71
$GPGLL,5410.5747,N,01154.8308,E,161229.000,A,A*55
$WIMWV,278.7,R,7.0,N,A*2e
$WIMWV,276.9,R,7.0,N,A*2e
$WIMWV,279.9,R,7.0,N,A*21
$WIMWV,279.3,R,7.0,N,A*2b
$WIMWV,278.1,R,7.0,N,A*28
$WIMWV,278.4,R,7.4,N,A*29
$WIMWV,281.2,R,7.0,N,A*2d
$WIMWV,281.4,R,7.0,N,A*2b
$WIMWV,276.5,R,7.4,N,A*26
$WIMWV,277.3,R,7.0,N,A*25
$GPRMC,161230.000,A,5410.5748,N,01154.8307,E,0.53,324.47,240521,,,A*6A
$GPVTG,324.47,T,,M,0.53,N,1.0,K,A*0C
$GPGGA,161230.000,5410.5748,N,01154.8307,E,1,10,0.9,-4.4,M,42.1,M,,0000*7A
$GPGSV,3,1,12,01,34,275,31,03,03,222,27,08,68,200,48,10,43,060,39*79
$GPGSV,3,2,12,14,20,319,42,21,60,277,40,22,30,221,28,23,11,052,21*7F
$GPGSV,3,3,12,24,04,033,25,27,39,157,38,28,12,332,41,32,35,112,44*73
$GPGLL,5410.5748,N,01154.8307,E,161230.000,A,A*5D
$WIMWV,275.0,R,7.0,N,A*24
$WIMWV,275.0,R,7.0,N,A*24
$WIMWV,275.4,R,7.0,N,A*20
$WIMWV,277.5,R,7.0,N,A*23
$WIMWV,280.1,R,7.0,N,A*2f
$WIMWV,280.5,R,7.0,N,A*2b
$WIMWV,279.5,R,6.5,N,A*29
$WIMWV,277.2,R,7.0,N,A*24
$WIMWV,276.5,R,6.5,N,A*26
$WIMWV,277.5,R,7.0,N,A*23
$GPRMC,161231.000,A,5410.5750,N,01154.8305,E,0.76,326.26,240521,,,A*62
$GPVTG,326.26,T,,M,0.76,N,1.4,K,A*0A
$GPGGA,161231.000,5410.5750,N,01154.8305,E,1,10,0.9,-4.4,M,42.1,M,,0000*70
$GPGSV,3,1,12,01,34,275,37,03,03,222,29,08,68,200,47,10,43,060,37*70
$GPGSV,3,2,12,14,20,319,40,21,60,277,40,22,30,221,35,23,11,052,30*71
$GPGSV,3,3,12,24,04,033,,27,39,157,40,28,12,332,42,32,35,112,48*74
$GPGLL,5410.5750,N,01154.8305,E,161231.000,A,A*57
$WIMWV,280.0,R,6.5,N,A*2a
$WIMWV,284.7,R,6.1,N,A*2d
$WIMWV,288.5,R,6.5,N,A*27
$WIMWV,288.7,R,6.2,N,A*22
$WIMWV,285.3,R,6.6,N,A*2f
$WIMWV,280.0,R,6.6,N,A*29
$WIMWV,278.0,R,6.1,N,A*29
$WIMWV,275.2,R,6.5,N,A*22
$WIMWV,275.4,R,6.1,N,A*20
$WIMWV,276.1,R,6.5,N,A*22
$GPRMC,161232.000,A,5410.5751,N,01154.8303,E,0.61,318.87,240521,,,A*66
$GPVTG,318.87,T,,M,0.61,N,1.1,K,A*0F
$GPGGA,161232.000,5410.5751,N,01154.8303,E,1,10,0.9,-4.3,M,42.1,M,,0000*73
$GPGSV,3,1,12,01,34,275,35,03,03,222,33,08,68,200,46,10,43,060,41*79
$GPGSV,3,2,12,14,20,319,42,21,60,277,40,22,30,221,38,23,11,052,33*7D
$GPGSV,3,3,12,24,04,033,,27,39,157,36,28,12,332,41,32,35,112,47*79
$GPGLL,5410.5751,N,01154.8303,E,161232.000,A,A*53
$WIMWV,277.7,R,6.2,N,A*22
$WIMWV,279.9,R,6.1,N,A*21
$WIMWV,281.6,R,6.1,N,A*29
$WIMWV,282.6,R,6.2,N,A*29
$WIMWV,283.0,R,6.2,N,A*2e
$WIMWV,285.3,R,6.5,N,A*2c
$WIMWV,290.7,R,6.1,N,A*28
$WIMWV,295.4,R,6.1,N,A*2e
$WIMWV,295.6,R,6.5,N,A*28
$WIMWV,292.1,R,6.1,N,A*2c
$GPRMC,161233.000,A,5410.5752,N,01154.8302,E,0.63,325.42,240521,,,A*60
$GPVTG,325.42,T,,M,0.63,N,1.2,K,A*09
$GPGGA,161233.000,5410.5752,N,01154.8302,E,1,10,0.9,-4.5,M,42.1,M,,0000*76
$GPGSV,3,1,12,01,34,275,36,03,03,222,33,08,68,200,47,10,43,060,39*74
$GPGSV,3,2,12,14,20,319,40,21,60,277,41,22,30,221,30,23,11,052,33*76
$GPGSV,3,3,12,24,04,033,,27,39,157,38,28,12,332,40,32,35,112,45*74
$GPGLL,5410.5752,N,01154.8302,E,161233.000,A,A*50
$WIMWV,287.1,R,6.5,N,A*2c
$WIMWV,283.2,R,6.1,N,A*2f
$WIMWV,277.5,R,6.5,N,A*27
$WIMWV,271.7,R,6.2,N,A*24
$WIMWV,268.0,R,6.5,N,A*2c
$WIMWV,267.1,R,6.5,N,A*22
$WIMWV,267.0,R,6.6,N,A*20
$WIMWV,271.3,R,6.5,N,A*27
$WIMWV,273.6,R,6.5,N,A*20
$WIMWV,281.2,R,6.2,N,A*2e
$GPRMC,161234.000,A,5410.5754,N,01154.8300,E,0.70,317.07,240521,,,A*61
$GPVTG,317.07,T,,M,0.70,N,1.3,K,A*0A
$GPGGA,161234.000,5410.5754,N,01154.8300,E,1,10,0.9,-4.3,M,42.1,M,,0000*73
$GPGSV,3,1,12,01,34,275,37,03,03,222,35,08,68,200,47,10,43,060,41*7C
$GPGSV,3,2,12,14,20,319,41,21,60,277,42,22,30,221,30,23,11,052,33*74
$GPGSV,3,3,12,24,04,033,,27,39,157,35,28,12,332,42,32,35,112,47*79
$GPGLL,5410.5754,N,01154.8300,E,161234.000,A,A*53
$WIMWV,279.6,R,6.5,N,A*2a
$WIMWV,281.3,R,6.5,N,A*28
$WIMWV,280.8,R,6.2,N,A*25
$WIMWV,278.4,R,6.5,N,A*29
$WIMWV,276.9,R,6.5,N,A*2a
$WIMWV,276.6,R,6.5,N,A*25
$WIMWV,276.9,R,7.0,N,A*2e
$WIMWV,275.0,R,7.0,N,A*24
$WIMWV,270.1,R,7.0,N,A*20
$WIMWV,266.0,R,7.0,N,A*26
$GPRMC,161235.000,A,5410.5755,N,01154.8298,E,0.69,320.60,240521,,,A*6C
$GPVTG,320.60,T,,M,0.69,N,1.3,K,A*07
$GPGGA,161235.000,5410.5755,N,01154.8298,E,1,10,0.9,-4.4,M,42.1,M,,0000*74
$GPGSV,3,1,12,01,34,275,35,03,03,222,34,08,68,200,47,10,43,060,39*70
$GPGSV,3,2,12,14,20,319,41,21,60,277,41,22,30,221,29,23,11,052,32*7E
$GPGSV,3,3,12,24,04,033,,27,39,157,38,28,12,332,40,32,35,112,46*77
$GPGLL,5410.5755,N,01154.8298,E,161235.000,A,A*53
$WIMWV,271.8,R,7.4,N,A*2c
$WIMWV,276.1,R,7.0,N,A*26
$WIMWV,280.7,R,7.4,N,A*2d
$WIMWV,280.0,R,7.4,N,A*2a
$WIMWV,271.0,R,7.0,N,A*20
$WIMWV,268.6,R,7.4,N,A*2a
$WIMWV,266.1,R,7.4,N,A*23
$WIMWV,267.5,R,7.4,N,A*26
$WIMWV,272.9,R,7.0,N,A*2a
$WIMWV,278.5,R,7.4,N,A*28
$GPRMC,161236.000,A,5410.5757,N,01154.8296,E,0.81,326.78,240521,,,A*6A
$GPVTG,326.78,T,,M,0.81,N,1.5,K,A*08
$GPGGA,161236.000,5410.5757,N,01154.8296,E,1,10,0.9,-4.3,M,42.1,M,,0000*7C
$GPGSV,3,1,12,01,34,275,37,03,03,222,33,08,68,200,46,10,43,060,37*7A
$GPGSV,3,2,12,14,20,319,43,21,60,277,38,22,30,221,36,23,11,052,31*7F
$GPGSV,3,3,12,24,04,033,,27,39,157,38,28,12,332,40,32,35,112,46*77
$GPGLL,5410.5757,N,01154.8296,E,161236.000,A,A*5C
$WIMWV,281.2,R,7.8,N,A*25
$WIMWV,280.4,R,7.4,N,A*2e
$WIMWV,279.4,R,7.4,N,A*28
$WIMWV,277.3,R,8.2,N,A*28
$GPRMC,161237.000,A,5410.5759,N,01154.8295,E,0.64,323.17,240521,,,A*61
$GPVTG,323.17,T,,M,0.64,N,1.2,K,A*08
$GPGGA,161237.000,5410.5759,N,01154.8295,E,1,10,0.9,-4.1,M,42.1,M,,0000*72
$GPGSV,3,1,12,01,34,275,32,03,03,222,32,08,68,200,46,10,43,060,33*7A
$GPGSV,3,2,12,14,20,319,42,21,60,277,40,22,30,221,37,23,11,052,31*70
$GPGSV,3,3,12,24,04,033,,27,39,157,38,28,12,332,39,32,35,112,45*7A
$GPGLL,5410.5759,N,01154.8295,E,161237.000,A,A*50
$WIMWV,277.3,R,8.2,N,A*28
$WIMWV,281.0,R,7.8,N,A*27
$WIMWV,280.5,R,8.2,N,A*26
$WIMWV,277.7,R,8.2,N,A*2c
$WIMWV,275.6,R,8.2,N,A*2f
$WIMWV,275.6,R,7.8,N,A*2a
$GPRMC,161238.000,A,5410.5760,N,01154.8293,E,0.68,322.95,240521,,,A*65
$GPVTG,322.95,T,,M,0.68,N,1.3,K,A*0E
$GPGGA,161238.000,5410.5760,N,01154.8293,E,1,10,0.9,-4.1,M,42.1,M,,0000*71
$GPGSV,3,1,12,01,34,275,38,03,03,222,32,08,68,200,47,10,43,060,42*77
$GPGSV,3,2,12,14,20,319,40,21,60,277,42,22,30,221,34,23,11,052,30*72
$GPGSV,3,3,12,24,04,033,,27,39,157,36,28,12,332,40,32,35,112,47*78
$GPGLL,5410.5760,N,01154.8293,E,161238.000,A,A*53
$WIMWV,278.5,R,8.2,N,A*21
$WIMWV,281.8,R,8.2,N,A*2a
$WIMWV,285.8,R,7.8,N,A*2b
$WIMWV,288.1,R,8.2,N,A*2a
$WIMWV,290.2,R,8.2,N,A*20
$WIMWV,290.3,R,8.2,N,A*21
$WIMWV,291.5,R,7.8,N,A*23
$WIMWV,290.3,R,7.8,N,A*24
$WIMWV,289.7,R,8.2,N,A*2d
$WIMWV,289.4,R,7.4,N,A*27
$GPRMC,161239.000,A,5410.5761,N,01154.8291,E,0.69,323.03,240521,,,A*68
$GPVTG,323.03,T,,M,0.69,N,1.3,K,A*01
$GPGGA,161239.000,5410.5761,N,01154.8291,E,1,10,0.9,-4.1,M,42.1,M,,0000*73
$GPGSV,3,1,12,01,34,275,34,03,03,222,31,08,68,200,46,10,43,060,36*7A
$GPGSV,3,2,12,14,20,319,41,21,60,277,38,22,30,221,34,23,11,052,30*7E
$GPGSV,3,3,12,24,04,033,,27,39,157,38,28,12,332,41,32,35,112,43*73
$GPGLL,5410.5761,N,01154.8291,E,161239.000,A,A*51
$WIMWV,288.2,R,7.8,N,A*2c
$WIMWV,281.9,R,7.8,N,A*2e
$WIMWV,284.7,R,7.4,N,A*29
$WIMWV,277.3,R,7.8,N,A*2d
$WIMWV,277.3,R,7.4,N,A*21
