$GPRMC,100241.000,A,5406.4806,N,01206.1077,E,4.72,331.89,260521,,,A*62
$GPVTG,331.89,T,,M,4.72,N,8.7,K,A*03
$GPGGA,100241.000,5406.4806,N,01206.1077,E,1,11,0.9,-3.8,M,41.9,M,,0000*70
$GPGSV,3,1,12,02,18,042,19,04,11,328,24,05,15,094,26,09,02,359,27*7F
$GPGSV,3,2,12,12,11,114,27,16,05,292,31,18,25,181,38,20,14,113,19*71
$GPGSV,3,3,12,25,47,122,38,26,32,293,38,29,85,090,41,31,52,256,42*7A
$GPGLL,5406.4806,N,01206.1077,E,100241.000,A,A*56
$WIMWV,70.3,R,4.1,N,A*12
$WIMWV,72.9,R,4.1,N,A*1a
$WIMWV,76.3,R,4.1,N,A*14
$WIMWV,78.5,R,4.1,N,A*1c
$WIMWV,80.8,R,4.1,N,A*16
$WIMWV,81.4,R,3.7,N,A*1a
$WIMWV,79.3,R,4.1,N,A*1b
$WIMWV,75.1,R,4.1,N,A*15
$WIMWV,72.4,R,4.1,N,A*17
$WIMWV,70.0,R,4.1,N,A*11
$GPRMC,100242.000,A,5406.4817,N,01206.1066,E,4.67,330.74,260521,,,A*66
$GPVTG,330.74,T,,M,4.67,N,8.6,K,A*05
$GPGGA,100242.000,5406.4817,N,01206.1066,E,1,11,0.9,-3.8,M,41.9,M,,0000*73
$GPGSV,3,1,12,02,18,042,21,04,11,328,23,05,15,094,27,09,02,359,27*72
$GPGSV,3,2,12,12,11,114,28,16,05,292,31,18,25,181,36,20,14,113,17*7E
$GPGSV,3,3,12,25,47,122,38,26,32,293,39,29,85,090,41,31,52,256,42*7B
$GPGLL,5406.4817,N,01206.1066,E,100242.000,A,A*55
$WIMWV,69.6,R,4.1,N,A*1f
$WIMWV,71.0,R,4.1,N,A*10
$WIMWV,72.8,R,4.5,N,A*1f
$WIMWV,73.0,R,4.1,N,A*12
$WIMWV,72.6,R,4.1,N,A*15
$WIMWV,69.7,R,4.5,N,A*1a
$WIMWV,64.3,R,4.1,N,A*17
$WIMWV,59.7,R,4.5,N,A*19
$WIMWV,57.5,R,4.1,N,A*11
$WIMWV,58.6,R,4.1,N,A*1d
$GPRMC,100243.000,A,5406.4828,N,01206.1055,E,4.69,330.20,260521,,,A*64
$GPVTG,330.20,T,,M,4.69,N,8.7,K,A*0B
$GPGGA,100243.000,5406.4828,N,01206.1055,E,1,11,0.8,-3.9,M,41.9,M,,0000*7E
$GPGSV,3,1,12,02,18,042,22,04,11,328,23,05,15,094,27,09,02,359,27*71
$GPGSV,3,2,12,12,11,114,28,16,05,292,31,18,25,181,35,20,14,113,17*7D
$GPGSV,3,3,12,25,47,122,38,26,32,293,38,29,85,090,40,31,52,256,42*7B
$GPGLL,5406.4828,N,01206.1055,E,100243.000,A,A*58
$WIMWV,62.4,R,4.5,N,A*12
$WIMWV,66.7,R,4.1,N,A*11
$WIMWV,70.2,R,4.1,N,A*13
$WIMWV,72.6,R,4.5,N,A*11
$WIMWV,73.9,R,4.1,N,A*1b
$WIMWV,74.6,R,4.1,N,A*13
$WIMWV,75.0,R,4.5,N,A*10
$WIMWV,75.6,R,4.1,N,A*12
$WIMWV,76.6,R,4.1,N,A*11
$WIMWV,75.9,R,4.1,N,A*1d
$GPRMC,100244.000,A,5406.4839,N,01206.1044,E,4.77,330.08,260521,,,A*66
$GPVTG,330.08,T,,M,4.77,N,8.8,K,A*01
$GPGGA,100244.000,5406.4839,N,01206.1044,E,1,11,0.8,-4.0,M,41.9,M,,0000*77
$GPGSV,3,1,12,02,18,042,23,04,11,328,23,05,15,094,28,09,02,359,27*7F
$GPGSV,3,2,12,12,11,114,28,16,05,292,31,18,25,181,36,20,14,113,16*7F
$GPGSV,3,3,12,25,47,122,39,26,32,293,38,29,85,090,40,31,52,256,41*79
$GPGLL,5406.4839,N,01206.1044,E,100244.000,A,A*5F
$WIMWV,76.1,R,4.1,N,A*16
$WIMWV,76.8,R,4.1,N,A*1f
$WIMWV,77.7,R,4.1,N,A*11
$WIMWV,78.7,R,4.1,N,A*1e
$WIMWV,79.0,R,4.1,N,A*18
$WIMWV,78.1,R,4.1,N,A*18
$WIMWV,77.6,R,3.7,N,A*11
$WIMWV,76.5,R,4.1,N,A*12
$WIMWV,75.6,R,4.1,N,A*12
$WIMWV,74.1,R,4.1,N,A*14
$GPRMC,100245.000,A,5406.4850,N,01206.1033,E,4.72,330.04,260521,,,A*61
$GPVTG,330.04,T,,M,4.72,N,8.7,K,A*07
$GPGGA,100245.000,5406.4850,N,01206.1033,E,1,11,0.9,-4.0,M,41.9,M,,0000*78
$GPGSV,3,1,12,02,18,042,21,04,11,328,25,05,15,094,28,09,02,359,27*7B
$GPGSV,3,2,12,12,11,114,28,16,05,292,32,18,25,181,36,20,14,113,16*7C
$GPGSV,3,3,12,25,47,122,39,26,32,293,37,29,85,090,40,31,52,256,41*76
$GPGLL,5406.4850,N,01206.1033,E,100245.000,A,A*51
$WIMWV,70.9,R,3.7,N,A*19
$WIMWV,69.0,R,4.1,N,A*19
$WIMWV,67.8,R,3.7,N,A*1e
$WIMWV,68.9,R,4.1,N,A*11
$WIMWV,74.0,R,4.1,N,A*15
$WIMWV,77.6,R,4.1,N,A*10
$WIMWV,80.1,R,4.1,N,A*1f
$WIMWV,80.5,R,4.5,N,A*1f
$WIMWV,81.0,R,4.1,N,A*1f
$WIMWV,77.6,R,4.1,N,A*10
$GPRMC,100246.000,A,5406.4861,N,01206.1022,E,4.69,330.26,260521,,,A*6A
$GPVTG,330.26,T,,M,4.69,N,8.7,K,A*0D
$GPGGA,100246.000,5406.4861,N,01206.1022,E,1,10,0.9,-4.0,M,41.9,M,,0000*78
$GPGSV,3,1,12,02,18,042,19,04,11,328,23,05,15,094,26,09,02,359,27*78
$GPGSV,3,2,12,12,11,114,27,16,05,292,32,18,25,181,38,20,14,113,17*7C
$GPGSV,3,3,12,25,47,122,39,26,32,293,35,29,85,090,40,31,52,256,42*77
$GPGLL,5406.4861,N,01206.1022,E,100246.000,A,A*50
$WIMWV,70.9,R,4.5,N,A*1c
$WIMWV,63.0,R,4.1,N,A*13
$WIMWV,59.2,R,4.1,N,A*18
$WIMWV,61.2,R,4.5,N,A*17
$WIMWV,65.3,R,4.1,N,A*16
$WIMWV,69.2,R,4.1,N,A*1b
$WIMWV,70.1,R,4.1,N,A*10
$WIMWV,69.0,R,4.5,N,A*1d
$WIMWV,66.3,R,4.1,N,A*15
$WIMWV,66.2,R,4.1,N,A*14
$GPRMC,100247.000,A,5406.4872,N,01206.1011,E,4.66,330.11,260521,,,A*62
$GPVTG,330.11,T,,M,4.66,N,8.6,K,A*07
$GPGGA,100247.000,5406.4872,N,01206.1011,E,1,10,0.9,-4.0,M,41.9,M,,0000*7B
$GPGSV,3,1,12,02,18,042,18,04,11,328,,05,15,094,25,09,02,359,27*7B
$GPGSV,3,2,12,12,11,114,26,16,05,292,32,18,25,181,38,20,14,113,20*79
$GPGSV,3,3,12,25,47,122,39,26,32,293,35,29,85,090,40,31,52,256,42*77
$GPGLL,5406.4872,N,01206.1011,E,100247.000,A,A*53
$WIMWV,67.3,R,4.1,N,A*14
$WIMWV,70.2,R,4.1,N,A*13
$WIMWV,73.6,R,4.1,N,A*14
$WIMWV,77.7,R,4.5,N,A*15
$WIMWV,80.4,R,4.1,N,A*1a
$WIMWV,81.2,R,4.1,N,A*1d
$WIMWV,79.2,R,4.5,N,A*1e
$WIMWV,76.7,R,4.5,N,A*14
$WIMWV,75.0,R,4.1,N,A*14
$WIMWV,73.9,R,4.5,N,A*1f
$GPRMC,100248.000,A,5406.4883,N,01206.1000,E,4.71,330.67,260521,,,A*64
$GPVTG,330.67,T,,M,4.71,N,8.7,K,A*01
$GPGGA,100248.000,5406.4883,N,01206.1000,E,1,11,0.9,-4.0,M,41.9,M,,0000*7B
$GPGSV,3,1,12,02,18,042,19,04,11,328,23,05,15,094,25,09,02,359,27*7B
$GPGSV,3,2,12,12,11,114,26,16,05,292,33,18,25,181,35,20,14,113,21*74
$GPGSV,3,3,12,25,47,122,39,26,32,293,36,29,85,090,40,31,52,256,42*74
$GPGLL,5406.4883,N,01206.1000,E,100248.000,A,A*52
$WIMWV,75.0,R,4.1,N,A*14
$WIMWV,74.9,R,4.1,N,A*1c
$WIMWV,74.1,R,4.5,N,A*10
$WIMWV,74.5,R,4.1,N,A*10
$WIMWV,73.5,R,4.1,N,A*17
$WIMWV,73.1,R,4.5,N,A*17
$WIMWV,72.1,R,4.1,N,A*12
$WIMWV,71.8,R,4.1,N,A*18
$WIMWV,73.8,R,4.5,N,A*1e
$WIMWV,72.3,R,4.1,N,A*10
$GPRMC,100249.000,A,5406.4895,N,01206.0990,E,4.65,330.78,260521,,,A*68
$GPVTG,330.78,T,,M,4.65,N,8.6,K,A*0B
$GPGGA,100249.000,5406.4895,N,01206.0990,E,1,11,0.9,-4.0,M,41.9,M,,0000*7C
$GPGSV,3,1,12,02,18,042,22,04,11,328,22,05,15,094,24,09,02,359,27*73
$GPGSV,3,2,12,12,11,114,25,16,05,292,33,18,25,181,36,20,14,113,22*77
$GPGSV,3,3,12,25,47,122,38,26,32,293,35,29,85,090,39,31,52,256,42*78
$GPGLL,5406.4895,N,01206.0990,E,100249.000,A,A*55
$WIMWV,69.1,R,4.1,N,A*18
$WIMWV,67.8,R,4.1,N,A*1f
$WIMWV,68.4,R,4.1,N,A*1c
$WIMWV,70.9,R,4.5,N,A*1c
$WIMWV,75.3,R,4.1,N,A*17
$WIMWV,77.3,R,4.1,N,A*15
$WIMWV,78.2,R,4.5,N,A*1f
$WIMWV,77.4,R,4.1,N,A*12
$WIMWV,75.0,R,4.1,N,A*14
$WIMWV,71.0,R,4.1,N,A*10
$GPRMC,100250.000,A,5406.4906,N,01206.0980,E,4.71,331.16,260521,,,A*66
$GPVTG,331.16,T,,M,4.71,N,8.7,K,A*06
$GPGGA,100250.000,5406.4906,N,01206.0980,E,1,10,0.9,-4.0,M,41.9,M,,0000*7F
$GPGSV,3,1,12,02,18,042,23,04,11,328,19,05,15,094,24,09,02,359,27*7A
$GPGSV,3,2,12,12,11,114,23,16,05,292,33,18,25,181,36,20,14,113,23*70
$GPGSV,3,3,12,25,47,122,38,26,32,293,36,29,85,090,40,31,52,256,42*75
$GPGLL,5406.4906,N,01206.0980,E,100250.000,A,A*57
$WIMWV,64.0,R,4.1,N,A*14
$WIMWV,57.0,R,4.5,N,A*10
$WIMWV,55.8,R,4.1,N,A*1e
$WIMWV,60.4,R,4.5,N,A*10
$WIMWV,67.7,R,4.1,N,A*10
$WIMWV,72.7,R,4.1,N,A*14
$WIMWV,72.0,R,4.1,N,A*13
$WIMWV,67.2,R,4.1,N,A*15
$WIMWV,63.8,R,4.5,N,A*1f
$WIMWV,66.3,R,4.1,N,A*15
$GPRMC,100251.000,A,5406.4918,N,01206.0969,E,4.81,332.49,260521,,,A*69
$GPVTG,332.49,T,,M,4.81,N,8.9,K,A*0E
$GPGGA,100251.000,5406.4918,N,01206.0969,E,1,10,0.9,-4.0,M,41.9,M,,0000*76
$GPGSV,3,1,12,02,18,042,25,04,11,328,,05,15,094,23,09,02,359,27*73
$GPGSV,3,2,12,12,11,114,21,16,05,292,33,18,25,181,34,20,14,113,24*77
$GPGSV,3,3,12,25,47,122,38,26,32,293,36,29,85,090,40,31,52,256,43*74
$GPGLL,5406.4918,N,01206.0969,E,100251.000,A,A*5E
$WIMWV,72.0,R,4.1,N,A*13
$WIMWV,77.9,R,4.1,N,A*1f
$WIMWV,81.7,R,4.1,N,A*18
$WIMWV,81.8,R,3.7,N,A*16
$WIMWV,79.1,R,4.1,N,A*19
$WIMWV,76.0,R,4.1,N,A*17
$WIMWV,71.5,R,3.7,N,A*14
$WIMWV,66.3,R,4.1,N,A*15
$WIMWV,61.3,R,4.1,N,A*12
$WIMWV,58.2,R,4.1,N,A*19
$GPRMC,100252.000,A,5406.4929,N,01206.0959,E,4.70,332.34,260521,,,A*6F
$GPVTG,332.34,T,,M,4.70,N,8.7,K,A*04
$GPGGA,100252.000,5406.4929,N,01206.0959,E,1,10,0.9,-3.9,M,41.9,M,,0000*7A
$GPGSV,3,1,12,02,18,042,27,04,11,328,,05,15,094,21,09,02,359,27*73
$GPGSV,3,2,12,12,11,114,18,16,05,292,32,18,25,181,37,20,14,113,25*7E
$GPGSV,3,3,12,25,47,122,40,26,32,293,36,29,85,090,40,31,52,256,42*7A
$GPGLL,5406.4929,N,01206.0959,E,100252.000,A,A*5C
$WIMWV,58.3,R,4.1,N,A*18
$WIMWV,61.5,R,3.7,N,A*15
$WIMWV,66.2,R,4.1,N,A*14
$WIMWV,70.1,R,4.1,N,A*10
$WIMWV,73.9,R,4.1,N,A*1b
$WIMWV,76.6,R,4.1,N,A*11
$WIMWV,76.7,R,4.1,N,A*10
$WIMWV,76.4,R,4.1,N,A*13
$WIMWV,72.5,R,4.5,N,A*12
$WIMWV,65.6,R,4.1,N,A*13
$GPRMC,100253.000,A,5406.4941,N,01206.0949,E,4.69,331.90,260521,,,A*64
$GPVTG,331.90,T,,M,4.69,N,8.7,K,A*01
$GPGGA,100253.000,5406.4941,N,01206.0949,E,1,10,0.9,-3.9,M,41.9,M,,0000*74
$GPGSV,3,1,12,02,18,042,27,04,11,328,,05,15,094,22,09,02,359,24*73
$GPGSV,3,2,12,12,11,114,19,16,05,292,32,18,25,181,34,20,14,113,26*7F
$GPGSV,3,3,12,25,47,122,40,26,32,293,30,29,85,090,37,31,52,256,39*70
$GPGLL,5406.4941,N,01206.0949,E,100253.000,A,A*52
$WIMWV,58.3,R,4.1,N,A*18
$WIMWV,54.5,R,4.1,N,A*12
$WIMWV,57.5,R,4.1,N,A*11
$WIMWV,66.5,R,4.1,N,A*13
$WIMWV,77.3,R,4.1,N,A*15
$WIMWV,86.4,R,4.1,N,A*1c
$WIMWV,90.7,R,3.7,N,A*19
$WIMWV,90.1,R,4.1,N,A*1e
$WIMWV,85.0,R,4.1,N,A*1b
$WIMWV,76.0,R,4.1,N,A*17
$GPRMC,100254.000,A,5406.4952,N,01206.0938,E,4.68,331.87,260521,,,A*60
$GPVTG,331.87,T,,M,4.68,N,8.7,K,A*06
$GPGGA,100254.000,5406.4952,N,01206.0938,E,1,10,0.9,-3.8,M,41.9,M,,0000*76
$GPGSV,3,1,12,02,18,042,25,04,11,328,,05,15,094,20,09,02,359,21*76
$GPGSV,3,2,12,12,11,114,21,16,05,292,35,18,25,181,28,20,14,113,27*7F
$GPGSV,3,3,12,25,47,122,39,26,32,293,24,29,85,090,36,31,52,256,41*75
$GPGLL,5406.4952,N,01206.0938,E,100254.000,A,A*51
$WIMWV,65.2,R,3.7,N,A*16
$WIMWV,56.8,R,4.1,N,A*1d
$WIMWV,50.3,R,4.1,N,A*10
$WIMWV,47.5,R,3.7,N,A*11
$WIMWV,48.9,R,4.1,N,A*13
$WIMWV,58.3,R,3.7,N,A*19
$WIMWV,68.8,R,4.1,N,A*10
$WIMWV,78.1,R,4.1,N,A*18
$WIMWV,82.1,R,3.7,N,A*1c
$WIMWV,80.9,R,4.1,N,A*17
$GPRMC,100255.000,A,5406.4963,N,01206.0927,E,4.68,332.73,260521,,,A*65
$GPVTG,332.73,T,,M,4.68,N,8.7,K,A*0E
$GPGGA,100255.000,5406.4963,N,01206.0927,E,1,10,0.9,-3.7,M,41.9,M,,0000*74
$GPGSV,3,1,12,02,18,042,25,04,11,328,,05,15,094,20,09,02,359,19*7D
$GPGSV,3,2,12,12,11,114,24,16,05,292,35,18,25,181,30,20,14,113,28*7C
$GPGSV,3,3,12,25,47,122,38,26,32,293,24,29,85,090,34,31,52,256,40*77
$GPGLL,5406.4963,N,01206.0927,E,100255.000,A,A*5C
$WIMWV,75.5,R,4.1,N,A*11
$WIMWV,68.8,R,3.7,N,A*11
$WIMWV,62.3,R,4.1,N,A*11
$WIMWV,58.5,R,4.1,N,A*1e
$WIMWV,57.5,R,3.7,N,A*10
$WIMWV,58.8,R,4.1,N,A*13
$WIMWV,60.9,R,3.7,N,A*18
$WIMWV,66.1,R,4.1,N,A*17
$WIMWV,70.9,R,4.1,N,A*18
$WIMWV,73.3,R,4.1,N,A*11
$GPRMC,100256.000,A,5406.4974,N,01206.0917,E,4.58,332.47,260521,,,A*67
$GPVTG,332.47,T,,M,4.58,N,8.5,K,A*08
$GPGGA,100256.000,5406.4974,N,01206.0917,E,1,10,0.9,-3.7,M,41.9,M,,0000*72
$GPGSV,3,1,12,02,18,042,25,04,11,328,,05,15,094,20,09,02,359,18*7C
$GPGSV,3,2,12,12,11,114,27,16,05,292,36,18,25,181,33,20,14,113,29*7E
$GPGSV,3,3,12,25,47,122,40,26,32,293,25,29,85,090,34,31,52,256,41*78
$GPGLL,5406.4974,N,01206.0917,E,100256.000,A,A*5A
$WIMWV,71.8,R,4.1,N,A*18
$WIMWV,69.8,R,4.1,N,A*11
$WIMWV,68.5,R,4.1,N,A*1d
$WIMWV,71.3,R,3.7,N,A*12
$WIMWV,76.7,R,4.1,N,A*10
$WIMWV,82.0,R,4.1,N,A*1c
$WIMWV,84.7,R,4.1,N,A*1d
$WIMWV,81.6,R,4.1,N,A*19
$WIMWV,75.9,R,4.1,N,A*1d
$WIMWV,68.5,R,4.1,N,A*1d
$GPRMC,100257.000,A,5406.4985,N,01206.0906,E,4.55,332.64,260521,,,A*64
$GPVTG,332.64,T,,M,4.55,N,8.4,K,A*05
$GPGGA,100257.000,5406.4985,N,01206.0906,E,1,10,0.9,-3.6,M,41.9,M,,0000*7C
$GPGSV,3,1,12,02,18,042,26,04,11,328,,05,15,094,20,09,02,359,16*71
$GPGSV,3,2,12,12,11,114,27,16,05,292,36,18,25,181,36,20,14,113,29*7B
$GPGSV,3,3,12,25,47,122,40,26,32,293,27,29,85,090,34,31,52,256,41*7A
$GPGLL,5406.4985,N,01206.0906,E,100257.000,A,A*55
$WIMWV,60.5,R,3.7,N,A*14
$WIMWV,54.2,R,4.1,N,A*15
$WIMWV,52.3,R,4.1,N,A*12
$WIMWV,54.6,R,3.7,N,A*10
$WIMWV,61.2,R,4.1,N,A*13
$WIMWV,68.2,R,3.7,N,A*1b
$WIMWV,72.5,R,4.1,N,A*16
$WIMWV,71.3,R,3.7,N,A*12
$WIMWV,69.5,R,4.1,N,A*1c
$WIMWV,66.3,R,4.1,N,A*15
$GPRMC,100258.000,A,5406.4996,N,01206.0895,E,4.50,332.31,260521,,,A*67
$GPVTG,332.31,T,,M,4.50,N,8.3,K,A*07
$GPGGA,100258.000,5406.4996,N,01206.0895,E,1,10,0.9,-3.5,M,41.9,M,,0000*79
$GPGSV,3,1,12,02,18,042,26,04,11,328,,05,15,094,20,09,02,359,17*70
$GPGSV,3,2,12,12,11,114,27,16,05,292,36,18,25,181,34,20,14,113,30*71
$GPGSV,3,3,12,25,47,122,40,26,32,293,28,29,85,090,33,31,52,256,41*72
$GPGLL,5406.4996,N,01206.0895,E,100258.000,A,A*53
$WIMWV,64.5,R,3.7,N,A*10
$WIMWV,61.7,R,4.1,N,A*16
$WIMWV,62.2,R,4.1,N,A*10
$WIMWV,64.4,R,3.7,N,A*11
$WIMWV,69.4,R,4.1,N,A*1d
$WIMWV,73.5,R,4.1,N,A*17
$WIMWV,76.0,R,4.1,N,A*17
$WIMWV,74.2,R,4.1,N,A*17
$WIMWV,69.4,R,4.5,N,A*19
$WIMWV,63.3,R,4.1,N,A*10
$GPRMC,100259.000,A,5406.5007,N,01206.0884,E,4.55,332.73,260521,,,A*65
$GPVTG,332.73,T,,M,4.55,N,8.4,K,A*03
$GPGGA,100259.000,5406.5007,N,01206.0884,E,1,10,0.9,-3.4,M,41.9,M,,0000*79
$GPGSV,3,1,12,02,18,042,27,04,11,328,,05,15,094,21,09,02,359,16*71
$GPGSV,3,2,12,12,11,114,28,16,05,292,37,18,25,181,32,20,14,113,30*79
$GPGSV,3,3,12,25,47,122,41,26,32,293,29,29,85,090,36,31,52,256,42*74
$GPGLL,5406.5007,N,01206.0884,E,100259.000,A,A*52
$WIMWV,60.3,R,4.5,N,A*17
$WIMWV,59.0,R,4.5,N,A*1e
$WIMWV,59.7,R,4.5,N,A*19
$WIMWV,62.2,R,4.1,N,A*10
$WIMWV,66.0,R,4.5,N,A*12
$WIMWV,71.4,R,4.5,N,A*10
$WIMWV,74.0,R,4.5,N,A*11
$WIMWV,74.5,R,4.5,N,A*14
$WIMWV,73.6,R,4.5,N,A*10
$WIMWV,71.2,R,4.9,N,A*1a
$GPRMC,100300.000,A,5406.5018,N,01206.0874,E,4.53,333.31,260521,,,A*68
$GPVTG,333.31,T,,M,4.53,N,8.4,K,A*02
$GPGGA,100300.000,5406.5018,N,01206.0874,E,1,10,0.9,-3.3,M,41.9,M,,0000*72
$GPGSV,3,1,12,02,18,042,26,04,11,328,,05,15,094,20,09,02,359,16*71
$GPGSV,3,2,12,12,11,114,28,16,05,292,37,18,25,181,32,20,14,113,30*79
$GPGSV,3,3,12,25,47,122,40,26,32,293,28,29,85,090,35,31,52,256,40*75
$GPGLL,5406.5018,N,01206.0874,E,100300.000,A,A*5E
$WIMWV,67.5,R,4.5,N,A*16
$WIMWV,64.3,R,4.9,N,A*1f
$WIMWV,61.1,R,4.5,N,A*14
$WIMWV,62.2,R,4.9,N,A*18
$WIMWV,63.1,R,4.9,N,A*1a
$WIMWV,64.8,R,4.9,N,A*14
$WIMWV,64.1,R,4.9,N,A*1d
$WIMWV,60.8,R,5.3,N,A*1b
$WIMWV,60.0,R,4.9,N,A*18
$WIMWV,59.4,R,4.9,N,A*16
$GPRMC,100301.000,A,5406.5028,N,01206.0864,E,4.47,333.02,260521,,,A*6E
$GPVTG,333.02,T,,M,4.47,N,8.3,K,A*00
$GPGGA,100301.000,5406.5028,N,01206.0864,E,1,10,0.9,-3.2,M,41.9,M,,0000*70
$GPGSV,3,1,12,02,18,042,26,04,11,328,,05,15,094,19,09,02,359,17*7A
$GPGSV,3,2,12,12,11,114,28,16,06,292,36,18,25,181,33,20,14,113,29*72
$GPGSV,3,3,12,25,47,122,38,26,32,293,28,29,85,090,35,31,52,256,39*74
$GPGLL,5406.5028,N,01206.0864,E,100301.000,A,A*5D
$WIMWV,59.7,R,4.9,N,A*15
$WIMWV,60.8,R,4.9,N,A*10
$WIMWV,64.6,R,4.9,N,A*1a
$WIMWV,67.7,R,5.3,N,A*13
$WIMWV,69.8,R,4.9,N,A*19
$WIMWV,69.2,R,4.9,N,A*13
$WIMWV,69.2,R,4.9,N,A*13
$WIMWV,68.4,R,5.3,N,A*1f
$WIMWV,68.1,R,4.9,N,A*11
$WIMWV,70.0,R,5.3,N,A*12
$GPRMC,100302.000,A,5406.5039,N,01206.0854,E,4.51,332.50,260521,,,A*6F
$GPVTG,332.50,T,,M,4.51,N,8.4,K,A*06
$GPGGA,100302.000,5406.5039,N,01206.0854,E,1,10,0.9,-3.2,M,41.9,M,,0000*70
$GPGSV,3,1,12,02,18,042,26,04,11,328,,05,15,094,20,09,02,359,16*71
$GPGSV,3,2,12,12,11,114,27,16,06,292,36,18,25,181,33,20,14,113,29*7D
$GPGSV,3,3,12,25,47,122,39,26,32,293,29,29,85,090,35,31,52,256,40*7A
$GPGLL,5406.5039,N,01206.0854,E,100302.000,A,A*5D
$WIMWV,69.4,R,4.9,N,A*15
$WIMWV,65.6,R,5.3,N,A*10
$WIMWV,62.0,R,5.3,N,A*11
$WIMWV,59.5,R,4.9,N,A*17
$WIMWV,59.5,R,5.3,N,A*1c
$WIMWV,61.0,R,4.9,N,A*19
$WIMWV,62.6,R,5.3,N,A*17
$WIMWV,65.5,R,4.9,N,A*18
$WIMWV,66.7,R,5.3,N,A*12
$WIMWV,67.2,R,4.9,N,A*1d
$GPRMC,100303.000,A,5406.5050,N,01206.0844,E,4.57,332.91,260521,,,A*6B
$GPVTG,332.91,T,,M,4.57,N,8.5,K,A*0C
$GPGGA,100303.000,5406.5050,N,01206.0844,E,1,10,0.9,-3.1,M,41.9,M,,0000*7C
$GPGSV,3,1,12,02,18,042,26,04,11,328,,05,15,094,17,09,02,359,18*7B
$GPGSV,3,2,12,12,11,114,28,16,06,292,37,18,25,181,29,20,14,113,29*78
$GPGSV,3,3,12,25,47,122,40,26,32,293,33,29,85,090,35,31,52,256,42*7D
$GPGLL,5406.5050,N,01206.0844,E,100303.000,A,A*52
$WIMWV,67.0,R,5.3,N,A*14
$WIMWV,66.4,R,4.9,N,A*1a
$WIMWV,65.9,R,4.9,N,A*14
$WIMWV,64.5,R,4.9,N,A*19
$WIMWV,66.5,R,5.3,N,A*10
$WIMWV,68.5,R,4.9,N,A*15
$WIMWV,69.3,R,4.9,N,A*12
$WIMWV,67.3,R,4.9,N,A*1c
$WIMWV,64.8,R,5.3,N,A*1f
$WIMWV,63.3,R,4.9,N,A*18
$GPRMC,100304.000,A,5406.5061,N,01206.0834,E,4.56,332.75,260521,,,A*62
$GPVTG,332.75,T,,M,4.56,N,8.4,K,A*06
$GPGGA,100304.000,5406.5061,N,01206.0834,E,1,10,0.9,-3.1,M,41.9,M,,0000*7E
$GPGSV,3,1,12,02,18,042,25,04,11,328,,05,15,094,16,09,02,359,18*79
$GPGSV,3,2,12,12,11,114,27,16,06,292,37,18,25,181,30,20,14,113,29*7F
$GPGSV,3,3,12,25,47,122,39,26,32,293,28,29,85,090,35,31,52,256,41*7A
$GPGLL,5406.5061,N,01206.0834,E,100304.000,A,A*50
$WIMWV,64.1,R,4.9,N,A*1d
$WIMWV,65.8,R,4.9,N,A*15
$WIMWV,66.6,R,5.3,N,A*13
$WIMWV,65.7,R,4.9,N,A*1a
$WIMWV,63.9,R,4.9,N,A*12
$WIMWV,61.9,R,4.9,N,A*10
$WIMWV,61.7,R,4.9,N,A*1e
$WIMWV,61.3,R,4.5,N,A*16
$WIMWV,62.1,R,4.9,N,A*1b
$WIMWV,62.7,R,4.9,N,A*1d
$GPRMC,100305.000,A,5406.5073,N,01206.0824,E,4.60,332.67,260521,,,A*67
$GPVTG,332.67,T,,M,4.60,N,8.5,K,A*01
$GPGGA,100305.000,5406.5073,N,01206.0824,E,1,10,0.9,-3.0,M,41.9,M,,0000*7C
$GPGSV,3,1,12,02,18,042,26,04,11,328,,05,15,094,17,09,02,359,18*7B
$GPGSV,3,2,12,12,11,114,26,16,06,292,37,18,25,181,30,20,14,113,29*7E
$GPGSV,3,3,12,25,47,122,39,26,32,293,27,29,85,090,37,31,52,256,40*76
$GPGLL,5406.5073,N,01206.0824,E,100305.000,A,A*53
$WIMWV,62.7,R,4.9,N,A*1d
$WIMWV,62.8,R,4.9,N,A*12
$WIMWV,61.9,R,4.9,N,A*10
$WIMWV,60.8,R,4.5,N,A*1c
$WIMWV,60.6,R,4.9,N,A*1e
$WIMWV,62.2,R,4.9,N,A*18
$WIMWV,64.2,R,4.9,N,A*1e
$WIMWV,66.3,R,4.5,N,A*11
$WIMWV,66.9,R,4.9,N,A*17
$WIMWV,65.9,R,4.5,N,A*18
$GPRMC,100306.000,A,5406.5084,N,01206.0814,E,4.64,333.20,260521,,,A*69
$GPVTG,333.20,T,,M,4.64,N,8.6,K,A*04
$GPGGA,100306.000,5406.5084,N,01206.0814,E,1,10,0.9,-3.0,M,41.9,M,,0000*74
$GPGSV,3,1,12,02,18,042,26,04,11,328,,05,15,094,18,09,02,359,19*75
$GPGSV,3,2,12,12,11,114,26,16,06,292,37,18,25,181,31,20,14,113,29*7F
$GPGSV,3,3,12,25,47,122,39,26,32,293,28,29,85,090,36,31,52,256,40*78
$GPGLL,5406.5084,N,01206.0814,E,100306.000,A,A*5B
$WIMWV,63.7,R,4.9,N,A*1c
$WIMWV,61.7,R,4.5,N,A*12
$WIMWV,60.4,R,4.9,N,A*1c
$WIMWV,60.0,R,4.9,N,A*18
$WIMWV,58.2,R,4.9,N,A*11
$WIMWV,58.5,R,4.5,N,A*1a
$WIMWV,62.0,R,5.3,N,A*11
$WIMWV,65.8,R,4.9,N,A*15
$WIMWV,67.8,R,4.9,N,A*17
$WIMWV,68.0,R,4.9,N,A*10
$GPRMC,100307.000,A,5406.5095,N,01206.0804,E,4.62,333.30,260521,,,A*6E
$GPVTG,333.30,T,,M,4.62,N,8.6,K,A*03
$GPGGA,100307.000,5406.5095,N,01206.0804,E,1,10,0.9,-3.0,M,41.9,M,,0000*74
$GPGSV,3,1,12,02,18,042,25,04,11,328,,05,15,094,17,09,02,359,19*79
$GPGSV,3,2,12,12,11,114,26,16,06,292,36,18,25,181,31,20,14,113,28*7F
$GPGSV,3,3,12,25,47,122,39,26,32,293,28,29,85,090,35,31,52,256,41*7A
$GPGLL,5406.5095,N,01206.0804,E,100307.000,A,A*5B
$WIMWV,67.0,R,5.3,N,A*14
$WIMWV,64.3,R,4.9,N,A*1f
$WIMWV,62.3,R,5.3,N,A*12
$WIMWV,59.7,R,4.9,N,A*15
$WIMWV,58.4,R,5.3,N,A*1c
$WIMWV,59.7,R,4.9,N,A*15
$WIMWV,61.9,R,5.3,N,A*1b
$WIMWV,62.8,R,4.9,N,A*12
$WIMWV,62.5,R,5.3,N,A*14
$WIMWV,60.6,R,4.9,N,A*1e
$GPRMC,100308.000,A,5406.5106,N,01206.0794,E,4.65,332.95,260521,,,A*65
$GPVTG,332.95,T,,M,4.65,N,8.6,K,A*0A
$GPGGA,100308.000,5406.5106,N,01206.0794,E,1,10,0.9,-3.0,M,41.9,M,,0000*76
$GPGSV,3,1,12,02,18,042,25,04,11,328,,05,15,094,14,09,02,359,18*7B
$GPGSV,3,2,12,12,11,114,25,16,06,292,37,18,25,181,34,20,14,113,28*78
$GPGSV,3,3,12,25,47,122,40,26,32,293,19,29,85,090,35,31,52,256,40*77
$GPGLL,5406.5106,N,01206.0794,E,100308.000,A,A*59
$WIMWV,57.9,R,5.3,N,A*1e
$WIMWV,58.3,R,4.9,N,A*10
$WIMWV,59.0,R,5.3,N,A*19
$WIMWV,60.0,R,5.3,N,A*13
$WIMWV,61.2,R,4.9,N,A*1b
$WIMWV,61.8,R,5.3,N,A*1a
$WIMWV,62.8,R,5.3,N,A*19
$WIMWV,63.5,R,4.9,N,A*1e
$WIMWV,64.9,R,5.3,N,A*1e
$WIMWV,64.5,R,5.3,N,A*12
$GPRMC,100309.000,A,5406.5118,N,01206.0784,E,4.60,332.43,260521,,,A*64
$GPVTG,332.43,T,,M,4.60,N,8.5,K,A*07
$GPGGA,100309.000,5406.5118,N,01206.0784,E,1,10,0.9,-3.0,M,41.9,M,,0000*79
$GPGSV,3,1,12,02,18,042,25,04,11,328,,05,15,094,12,09,02,359,18*7D
$GPGSV,3,2,12,12,11,114,24,16,06,292,37,18,25,181,31,20,14,113,28*7C
$GPGSV,3,3,12,25,47,122,39,26,32,293,21,29,85,090,36,31,52,256,42*73
$GPGLL,5406.5118,N,01206.0784,E,100309.000,A,A*56
$WIMWV,63.5,R,4.9,N,A*1e
$WIMWV,62.8,R,5.3,N,A*19
$WIMWV,62.9,R,5.3,N,A*18
$WIMWV,63.2,R,5.3,N,A*12
$WIMWV,62.7,R,4.9,N,A*1d
$WIMWV,62.6,R,5.3,N,A*17
$WIMWV,60.8,R,5.3,N,A*1b
$WIMWV,60.1,R,4.9,N,A*19
$WIMWV,59.8,R,5.3,N,A*11
$WIMWV,59.0,R,5.3,N,A*19
$GPRMC,100310.000,A,5406.5129,N,01206.0774,E,4.67,332.60,260521,,,A*67
$GPVTG,332.60,T,,M,4.67,N,8.6,K,A*02
$GPGGA,100310.000,5406.5129,N,01206.0774,E,1,10,0.9,-3.1,M,41.9,M,,0000*7D
$GPGSV,3,1,12,02,18,042,23,04,11,328,,05,15,094,12,09,02,359,18*7B
$GPGSV,3,2,12,12,11,114,22,16,06,292,36,18,25,181,31,20,14,113,28*7B
$GPGSV,3,3,12,25,47,122,40,26,32,293,29,29,85,090,37,31,52,256,40*76
$GPGLL,5406.5129,N,01206.0774,E,100310.000,A,A*53
$WIMWV,58.4,R,5.3,N,A*1c
$WIMWV,57.7,R,4.9,N,A*1b
$WIMWV,59.8,R,5.3,N,A*11
$WIMWV,63.0,R,5.3,N,A*10
$WIMWV,64.1,R,4.9,N,A*1d
$WIMWV,63.7,R,5.3,N,A*17
$WIMWV,64.3,R,4.9,N,A*1f
$WIMWV,64.8,R,5.3,N,A*1f
$WIMWV,65.4,R,4.9,N,A*19
$WIMWV,65.1,R,4.9,N,A*1c
$GPRMC,100311.000,A,5406.5141,N,01206.0764,E,4.70,331.94,260521,,,A*67
$GPVTG,331.94,T,,M,4.70,N,8.7,K,A*0D
$GPGGA,100311.000,5406.5141,N,01206.0764,E,1,09,0.9,-3.0,M,41.9,M,,0000*7A
$GPGSV,3,1,12,02,18,042,22,04,11,328,,05,15,094,13,09,02,359,19*7A
$GPGSV,3,2,12,12,11,114,,16,06,292,36,18,25,181,31,20,14,113,27*74
$GPGSV,3,3,12,25,47,122,40,26,32,293,28,29,85,090,38,31,52,256,41*79
$GPGLL,5406.5141,N,01206.0764,E,100311.000,A,A*5D
$WIMWV,66.1,R,5.3,N,A*14
$WIMWV,66.1,R,4.9,N,A*1f
$WIMWV,64.1,R,4.9,N,A*1d
$WIMWV,63.5,R,4.9,N,A*1e
$WIMWV,65.1,R,4.9,N,A*1c
$WIMWV,67.9,R,4.9,N,A*16
$WIMWV,70.1,R,4.9,N,A*18
$WIMWV,72.4,R,4.5,N,A*13
$WIMWV,72.4,R,4.9,N,A*1f
$WIMWV,71.8,R,4.5,N,A*1c
$GPRMC,100312.000,A,5406.5153,N,01206.0754,E,4.72,331.22,260521,,,A*6B
$GPVTG,331.22,T,,M,4.72,N,8.7,K,A*02
$GPGGA,100312.000,5406.5153,N,01206.0754,E,1,09,0.9,-2.8,M,41.9,M,,0000*70
$GPGSV,3,1,12,02,18,042,20,04,11,328,,05,15,094,10,09,02,359,18*7A
$GPGSV,3,2,12,12,11,114,,16,06,292,34,18,25,181,35,20,14,113,26*73
$GPGSV,3,3,12,25,47,122,39,26,32,293,25,29,85,090,40,31,52,256,41*75
$GPGLL,5406.5153,N,01206.0754,E,100312.000,A,A*5E
$WIMWV,69.7,R,4.9,N,A*16
$WIMWV,70.1,R,4.5,N,A*14
$WIMWV,72.7,R,4.9,N,A*1c
$WIMWV,76.3,R,4.5,N,A*10
$WIMWV,78.6,R,4.5,N,A*1b
$WIMWV,79.4,R,4.5,N,A*18
$WIMWV,78.7,R,4.5,N,A*1a
$WIMWV,77.5,R,4.5,N,A*17
$WIMWV,75.7,R,4.5,N,A*17
$WIMWV,74.9,R,4.5,N,A*18
$GPRMC,100313.000,A,5406.5165,N,01206.0743,E,4.69,330.62,260521,,,A*66
$GPVTG,330.62,T,,M,4.69,N,8.7,K,A*0D
$GPGGA,100313.000,5406.5165,N,01206.0743,E,1,08,0.9,-2.7,M,41.9,M,,0000*7C
$GPGSV,3,1,12,02,18,042,18,04,11,328,,05,15,094,09,09,02,359,18*79
$GPGSV,3,2,12,12,11,114,,16,06,292,34,18,25,181,34,20,14,113,24*70
$GPGSV,3,3,12,25,47,122,39,26,32,293,26,29,85,090,39,31,52,256,41*78
$GPGLL,5406.5165,N,01206.0743,E,100313.000,A,A*5C
$WIMWV,76.4,R,4.1,N,A*13
$WIMWV,77.9,R,4.5,N,A*1b
$WIMWV,81.5,R,4.1,N,A*1a
$WIMWV,84.0,R,4.1,N,A*1a
$WIMWV,83.9,R,4.5,N,A*10
$WIMWV,80.1,R,4.1,N,A*1f
$WIMWV,75.0,R,4.1,N,A*14
$WIMWV,67.7,R,4.1,N,A*10
$WIMWV,60.5,R,4.1,N,A*15
$WIMWV,52.5,R,4.1,N,A*14
$GPRMC,100314.000,A,5406.5177,N,01206.0732,E,4.65,330.02,260521,,,A*6E
$GPVTG,330.02,T,,M,4.65,N,8.6,K,A*06
$GPGGA,100314.000,5406.5177,N,01206.0732,E,1,08,0.9,-2.6,M,41.9,M,,0000*7F
$GPGSV,3,1,12,02,18,042,14,04,11,328,,05,15,094,08,09,02,359,20*7F
$GPGSV,3,2,12,12,11,114,,16,06,292,34,18,25,181,33,20,14,113,22*71
$GPGSV,3,3,12,25,47,122,39,26,32,293,26,29,85,090,39,31,52,256,40*79
$GPGLL,5406.5177,N,01206.0732,E,100314.000,A,A*5E
$WIMWV,48.1,R,4.1,N,A*1b
$WIMWV,46.7,R,4.1,N,A*13
$WIMWV,49.6,R,4.1,N,A*1d
$WIMWV,56.2,R,4.1,N,A*17
$WIMWV,65.1,R,4.1,N,A*14
$WIMWV,74.2,R,4.1,N,A*17
$WIMWV,81.7,R,4.1,N,A*18
$WIMWV,85.9,R,4.1,N,A*12
$WIMWV,86.5,R,4.1,N,A*1d
$WIMWV,84.5,R,3.7,N,A*1e
$GPRMC,100315.000,A,5406.5189,N,01206.0721,E,4.73,329.94,260521,,,A*6C
$GPVTG,329.94,T,,M,4.73,N,8.8,K,A*08
$GPGGA,100315.000,5406.5189,N,01206.0721,E,1,10,0.9,-2.7,M,41.9,M,,0000*75
$GPGSV,3,1,12,02,18,042,15,04,11,328,,05,15,094,21,09,02,359,21*74
$GPGSV,3,2,12,12,11,114,18,16,06,292,34,18,25,181,34,20,14,113,19*77
$GPGSV,3,3,12,25,47,122,40,26,32,293,24,29,85,090,37,31,52,256,40*7B
$GPGLL,5406.5189,N,01206.0721,E,100315.000,A,A*5C
$WIMWV,80.1,R,4.1,N,A*1f
$WIMWV,76.9,R,4.1,N,A*1e
$WIMWV,74.7,R,3.7,N,A*13
$WIMWV,74.6,R,4.1,N,A*13
$WIMWV,75.4,R,3.7,N,A*11
$WIMWV,75.8,R,3.7,N,A*1d
$WIMWV,75.3,R,4.1,N,A*17
$WIMWV,73.3,R,3.7,N,A*10
$WIMWV,71.4,R,3.7,N,A*15
$WIMWV,68.4,R,4.1,N,A*1c
$GPRMC,100316.000,A,5406.5200,N,01206.0710,E,4.73,329.61,260521,,,A*65
$GPVTG,329.61,T,,M,4.73,N,8.8,K,A*02
$GPGGA,100316.000,5406.5200,N,01206.0710,E,1,10,0.9,-2.6,M,41.9,M,,0000*77
$GPGSV,3,1,12,02,18,042,15,04,11,328,,05,15,094,26,09,02,359,22*70
$GPGSV,3,2,12,12,11,114,19,16,06,292,35,18,25,181,35,20,14,113,20*7C
$GPGSV,3,3,12,25,47,122,40,26,32,293,22,29,85,090,38,31,52,256,40*72
$GPGLL,5406.5200,N,01206.0710,E,100316.000,A,A*5F
$WIMWV,66.7,R,3.7,N,A*10
$WIMWV,67.6,R,3.7,N,A*10
$WIMWV,72.1,R,3.7,N,A*13
$WIMWV,76.7,R,3.7,N,A*11
$WIMWV,77.7,R,3.7,N,A*10
$WIMWV,76.7,R,3.7,N,A*11
$WIMWV,75.7,R,4.1,N,A*13
$WIMWV,75.5,R,3.7,N,A*10
$WIMWV,76.6,R,3.7,N,A*10
$WIMWV,76.9,R,3.7,N,A*1f
$GPRMC,100317.000,A,5406.5211,N,01206.0698,E,4.67,329.42,260521,,,A*61
$GPVTG,329.42,T,,M,4.67,N,8.6,K,A*08
$GPGGA,100317.000,5406.5211,N,01206.0698,E,1,10,0.9,-2.5,M,41.9,M,,0000*74
$GPGSV,3,1,12,02,18,042,15,04,11,328,,05,15,094,28,09,02,359,22*7E
$GPGSV,3,2,12,12,11,114,20,16,06,292,34,18,25,181,34,20,14,113,20*76
$GPGSV,3,3,12,25,47,122,40,26,32,293,21,29,85,090,38,31,52,256,39*7F
$GPGLL,5406.5211,N,01206.0698,E,100317.000,A,A*5F
$WIMWV,78.6,R,3.7,N,A*1e
$WIMWV,83.0,R,3.7,N,A*1c
$WIMWV,89.8,R,3.7,N,A*1e
$WIMWV,95.6,R,3.7,N,A*1d
$WIMWV,100.8,R,3.7,N,A*2e
$WIMWV,103.4,R,3.7,N,A*21
$WIMWV,103.5,R,3.7,N,A*20
$WIMWV,102.9,R,3.7,N,A*2d
$WIMWV,99.0,R,3.7,N,A*17
$WIMWV,95.4,R,3.3,N,A*1b
$GPRMC,100318.000,A,5406.5222,N,01206.0686,E,4.73,329.10,260521,,,A*63
$GPVTG,329.10,T,,M,4.73,N,8.8,K,A*04
$GPGGA,100318.000,5406.5222,N,01206.0686,E,1,10,0.9,-2.3,M,41.9,M,,0000*72
$GPGSV,3,1,12,02,18,042,14,04,11,328,,05,15,094,27,09,02,359,23*71
$GPGSV,3,2,12,12,11,114,21,16,06,292,34,18,25,181,36,20,14,113,19*7F
$GPGSV,3,3,12,25,47,122,39,26,32,293,21,29,85,090,38,31,52,256,41*7E
$GPGLL,5406.5222,N,01206.0686,E,100318.000,A,A*5F
$WIMWV,93.2,R,3.7,N,A*1f
$WIMWV,93.9,R,3.7,N,A*14
$WIMWV,96.5,R,3.3,N,A*19
$WIMWV,100.9,R,3.7,N,A*2f
$WIMWV,105.2,R,3.7,N,A*21
$WIMWV,107.4,R,3.3,N,A*21
$WIMWV,108.7,R,3.7,N,A*29
$WIMWV,107.0,R,3.3,N,A*25
$WIMWV,105.5,R,3.7,N,A*26
$WIMWV,103.2,R,3.3,N,A*23
$GPRMC,100319.000,A,5406.5233,N,01206.0675,E,4.79,329.41,260521,,,A*60
$GPVTG,329.41,T,,M,4.79,N,8.9,K,A*0B
$GPGGA,100319.000,5406.5233,N,01206.0675,E,1,10,0.9,-2.3,M,41.9,M,,0000*7F
$GPGSV,3,1,12,02,18,042,13,04,11,328,,05,15,094,28,09,02,359,23*79
$GPGSV,3,2,12,12,11,114,22,16,06,292,33,18,25,181,38,20,14,113,19*75
$GPGSV,3,3,12,25,47,122,40,26,32,293,23,29,85,090,38,31,52,256,41*72
$GPGLL,5406.5233,N,01206.0675,E,100319.000,A,A*52
$WIMWV,101.3,R,3.3,N,A*20
$WIMWV,99.0,R,3.7,N,A*17
$WIMWV,97.2,R,3.3,N,A*1f
$WIMWV,97.8,R,3.3,N,A*15
$WIMWV,99.8,R,3.7,N,A*1f
$WIMWV,102.2,R,3.3,N,A*22
$WIMWV,104.8,R,3.7,N,A*2a
$WIMWV,106.9,R,3.3,N,A*2d
$WIMWV,105.6,R,3.3,N,A*21
$WIMWV,102.7,R,3.3,N,A*27
$GPRMC,100320.000,A,5406.5245,N,01206.0663,E,4.73,328.80,260521,,,A*6A
$GPVTG,328.80,T,,M,4.73,N,8.8,K,A*0C
$GPGGA,100320.000,5406.5245,N,01206.0663,E,1,10,0.9,-2.2,M,41.9,M,,0000*72
$GPGSV,3,1,12,02,18,042,13,04,11,328,,05,15,094,29,09,02,359,22*79
$GPGSV,3,2,12,12,11,114,21,16,06,292,34,18,25,181,34,20,14,113,20*77
$GPGSV,3,3,12,25,47,122,41,26,32,293,24,29,85,090,38,31,52,256,41*74
$GPGLL,5406.5245,N,01206.0663,E,100320.000,A,A*5E
$WIMWV,98.1,R,3.3,N,A*13
$WIMWV,91.5,R,3.7,N,A*1a
$WIMWV,84.4,R,3.3,N,A*1b
$WIMWV,78.8,R,3.3,N,A*14
$WIMWV,77.9,R,3.3,N,A*1a
$WIMWV,81.2,R,3.3,N,A*18
$WIMWV,90.3,R,3.3,N,A*19
$WIMWV,101.9,R,3.3,N,A*2a
$WIMWV,110.6,R,3.3,N,A*25
$WIMWV,114.3,R,3.3,N,A*24
$GPRMC,100321.000,A,5406.5256,N,01206.0651,E,4.82,329.09,260521,,,A*66
$GPVTG,329.09,T,,M,4.82,N,8.9,K,A*03
$GPGGA,100321.000,5406.5256,N,01206.0651,E,1,10,0.9,-2.1,M,41.9,M,,0000*73
$GPGSV,3,1,12,02,18,042,14,04,11,328,,05,15,094,29,09,02,359,22*7E
$GPGSV,3,2,12,12,11,114,20,16,06,292,34,18,25,181,36,20,14,113,20*74
$GPGSV,3,3,12,25,47,122,40,26,32,293,23,29,85,090,40,31,52,256,41*7D
$GPGLL,5406.5256,N,01206.0651,E,100321.000,A,A*5C
$WIMWV,113.6,R,3.7,N,A*22
$WIMWV,110.8,R,2.9,N,A*20
$WIMWV,105.8,R,3.3,N,A*2f
$WIMWV,101.0,R,3.3,N,A*23
$WIMWV,98.3,R,3.7,N,A*15
$WIMWV,100.0,R,3.3,N,A*22
$WIMWV,104.7,R,3.3,N,A*21
$WIMWV,110.3,R,3.7,N,A*24
$WIMWV,114.0,R,3.3,N,A*27
$WIMWV,115.0,R,3.7,N,A*22
$GPRMC,100322.000,A,5406.5267,N,01206.0639,E,4.76,329.24,260521,,,A*6D
$GPVTG,329.24,T,,M,4.76,N,8.8,K,A*06
$GPGGA,100322.000,5406.5267,N,01206.0639,E,1,10,0.9,-2.0,M,41.9,M,,0000*7D
$GPGSV,3,1,12,02,18,042,15,04,11,328,,05,15,094,30,09,02,359,22*77
$GPGSV,3,2,12,12,11,114,20,16,06,292,34,18,25,181,39,20,14,113,21*7A
$GPGSV,3,3,12,25,47,122,40,26,32,293,24,29,85,090,39,31,52,256,40*75
$GPGLL,5406.5267,N,01206.0639,E,100322.000,A,A*53
$WIMWV,111.0,R,3.3,N,A*22
$WIMWV,104.5,R,3.3,N,A*23
$WIMWV,91.5,R,3.7,N,A*1a
$WIMWV,77.3,R,3.3,N,A*10
$WIMWV,63.3,R,3.3,N,A*15
$WIMWV,51.6,R,3.3,N,A*11
$WIMWV,45.0,R,3.7,N,A*16
$WIMWV,47.2,R,3.3,N,A*12
$WIMWV,53.6,R,3.7,N,A*17
$WIMWV,63.4,R,3.3,N,A*12
$GPRMC,100323.000,A,5406.5279,N,01206.0627,E,4.73,329.32,260521,,,A*6E
$GPVTG,329.32,T,,M,4.73,N,8.8,K,A*04
$GPGGA,100323.000,5406.5279,N,01206.0627,E,1,10,0.9,-1.8,M,41.9,M,,0000*77
$GPGSV,3,1,12,02,18,042,14,04,11,328,,05,15,094,30,09,02,359,22*76
$GPGSV,3,2,12,12,11,114,20,16,06,292,34,18,25,181,35,20,14,113,21*76
$GPGSV,3,3,12,25,47,122,40,26,32,293,24,29,85,090,39,31,52,256,41*74
$GPGLL,5406.5279,N,01206.0627,E,100323.000,A,A*52
$WIMWV,75.0,R,3.7,N,A*15
$WIMWV,85.0,R,3.3,N,A*1e
$WIMWV,90.4,R,3.7,N,A*1a
$WIMWV,88.0,R,3.3,N,A*13
$WIMWV,77.8,R,3.7,N,A*1f
$WIMWV,66.3,R,3.7,N,A*14
$WIMWV,57.0,R,3.7,N,A*15
$WIMWV,54.3,R,3.7,N,A*15
$WIMWV,61.6,R,4.1,N,A*17
$WIMWV,74.2,R,3.7,N,A*16
$GPRMC,100324.000,A,5406.5290,N,01206.0615,E,4.61,328.69,260521,,,A*63
$GPVTG,328.69,T,,M,4.61,N,8.5,K,A*05
$GPGGA,100324.000,5406.5290,N,01206.0615,E,1,10,0.9,-1.8,M,41.9,M,,0000*76
$GPGSV,3,1,12,02,18,042,14,04,11,328,,05,15,094,30,09,02,359,21*75
$GPGSV,3,2,12,12,11,114,21,16,06,292,34,18,25,181,35,20,14,113,19*7C
$GPGSV,3,3,12,25,47,122,40,26,32,293,23,29,85,090,37,31,52,256,41*7D
$GPGLL,5406.5290,N,01206.0615,E,100324.000,A,A*53
$WIMWV,87.0,R,4.1,N,A*19
$WIMWV,91.6,R,4.1,N,A*18
$WIMWV,87.9,R,4.1,N,A*10
$WIMWV,77.8,R,4.1,N,A*1e
$WIMWV,65.4,R,4.1,N,A*11
$WIMWV,56.9,R,4.5,N,A*18
$WIMWV,55.7,R,4.1,N,A*11
$WIMWV,62.1,R,4.1,N,A*13
$WIMWV,71.1,R,4.1,N,A*11
$WIMWV,79.7,R,4.1,N,A*1f
$WIMWV,82.6,R,4.5,N,A*1e
$WIMWV,81.7,R,4.1,N,A*18
$WIMWV,77.2,R,4.1,N,A*14
$WIMWV,70.7,R,4.1,N,A*16
$WIMWV,63.7,R,4.5,N,A*10
$WIMWV,61.3,R,4.1,N,A*12
$WIMWV,61.7,R,4.1,N,A*16
$WIMWV,66.5,R,4.5,N,A*17
$GPRMC,100325.000,A,5406.5301,N,01206.0604,E,4.74,329.02,260521,,,A*63
$GPVTG,329.02,T,,M,4.74,N,8.8,K,A*00
$GPGGA,100325.000,5406.5301,N,01206.0604,E,1,10,0.9,-1.8,M,41.9,M,,0000*7E
$GPGSV,3,1,12,02,18,042,15,04,11,328,,05,15,094,28,09,02,359,20*7C
$GPGSV,3,2,12,12,11,114,21,16,06,292,34,18,25,181,36,20,14,113,19*7F
$GPGSV,3,3,12,25,47,122,38,26,32,293,29,29,85,090,38,31,52,256,42*74
$GPGLL,5406.5301,N,01206.0604,E,100325.000,A,A*5B
$WIMWV,70.4,R,4.1,N,A*15
$WIMWV,74.6,R,4.1,N,A*13
$WIMWV,75.9,R,4.1,N,A*1d
$WIMWV,79.4,R,4.1,N,A*1c
$WIMWV,82.6,R,3.7,N,A*1b
$WIMWV,88.0,R,4.1,N,A*16
$WIMWV,92.9,R,4.1,N,A*14
$WIMWV,99.0,R,3.7,N,A*17
$WIMWV,106.5,R,4.1,N,A*24
$WIMWV,108.1,R,3.7,N,A*2f
$GPRMC,100326.000,A,5406.5312,N,01206.0592,E,4.67,329.09,260521,,,A*67
$GPVTG,329.09,T,,M,4.67,N,8.6,K,A*07
$GPGGA,100326.000,5406.5312,N,01206.0592,E,1,10,0.9,-1.7,M,41.9,M,,0000*7C
$GPGSV,3,1,12,02,18,042,20,04,11,328,,05,15,094,27,09,02,359,19*7F
$GPGSV,3,2,12,12,11,114,21,16,06,292,34,18,25,181,35,20,14,113,20*76
$GPGSV,3,3,12,25,47,122,37,26,32,293,34,29,85,090,40,31,52,256,43*79
$GPGLL,5406.5312,N,01206.0592,E,100326.000,A,A*56
$WIMWV,107.7,R,4.1,N,A*27
$WIMWV,104.1,R,3.7,N,A*23
$WIMWV,97.8,R,4.1,N,A*10
$WIMWV,91.3,R,3.7,N,A*1c
$WIMWV,87.0,R,4.1,N,A*19
$WIMWV,84.2,R,3.7,N,A*19
$WIMWV,82.7,R,4.1,N,A*1b
$WIMWV,82.3,R,3.7,N,A*1e
$WIMWV,83.2,R,4.1,N,A*1f
$WIMWV,86.6,R,3.7,N,A*1f
$GPRMC,100327.000,A,5406.5324,N,01206.0581,E,4.65,329.81,260521,,,A*63
$GPVTG,329.81,T,,M,4.65,N,8.6,K,A*05
$GPGGA,100327.000,5406.5324,N,01206.0581,E,1,10,0.9,-1.6,M,41.9,M,,0000*7B
$GPGSV,3,1,12,02,18,042,23,04,11,328,,05,15,094,28,09,02,359,17*7D
$GPGSV,3,2,12,12,11,114,21,16,06,292,32,18,25,181,35,20,14,113,22*72
$GPGSV,3,3,12,25,47,122,36,26,32,293,37,29,85,090,39,31,52,256,42*74
$GPGLL,5406.5324,N,01206.0581,E,100327.000,A,A*50
$WIMWV,91.3,R,3.7,N,A*1c
$WIMWV,98.5,R,3.7,N,A*13
$WIMWV,107.0,R,4.1,N,A*20
$WIMWV,109.9,R,3.7,N,A*26
$WIMWV,109.6,R,3.7,N,A*29
$WIMWV,104.1,R,3.7,N,A*23
$WIMWV,96.1,R,3.7,N,A*19
$WIMWV,88.9,R,3.7,N,A*1e
$WIMWV,87.3,R,3.7,N,A*1b
$WIMWV,89.6,R,3.7,N,A*10
$GPRMC,100328.000,A,5406.5335,N,01206.0570,E,4.62,330.28,260521,,,A*6E
$GPVTG,330.28,T,,M,4.62,N,8.6,K,A*09
$GPGGA,100328.000,5406.5335,N,01206.0570,E,1,10,0.9,-1.5,M,41.9,M,,0000*79
$GPGSV,3,1,12,02,18,042,23,04,11,328,,05,15,094,26,09,02,359,17*73
$GPGSV,3,2,12,12,11,114,21,16,06,292,33,18,25,181,37,20,14,113,22*71
$GPGSV,3,3,12,25,47,122,38,26,32,293,35,29,85,090,41,31,52,256,37*75
$GPGLL,5406.5335,N,01206.0570,E,100328.000,A,A*51
$WIMWV,95.3,R,4.1,N,A*19
$WIMWV,100.5,R,3.7,N,A*23
$WIMWV,103.4,R,3.7,N,A*21
$WIMWV,105.9,R,3.7,N,A*2a
$WIMWV,107.7,R,3.7,N,A*26
$WIMWV,107.7,R,4.1,N,A*27
$WIMWV,104.8,R,3.7,N,A*2a
$WIMWV,100.5,R,4.1,N,A*22
$WIMWV,94.9,R,3.7,N,A*13
$WIMWV,93.7,R,4.1,N,A*1b
$GPRMC,100329.000,A,5406.5346,N,01206.0559,E,4.57,330.46,260521,,,A*6E
$GPVTG,330.46,T,,M,4.57,N,8.5,K,A*04
$GPGGA,100329.000,5406.5346,N,01206.0559,E,1,10,0.9,-1.6,M,41.9,M,,0000*74
$GPGSV,3,1,12,02,18,042,23,04,11,328,,05,15,094,24,09,02,359,16*70
$GPGSV,3,2,12,12,11,114,19,16,06,292,27,18,25,181,39,20,14,113,29*7A
$GPGSV,3,3,12,25,47,122,35,26,32,293,26,29,85,090,35,31,52,256,29*76
$GPGLL,5406.5346,N,01206.0559,E,100329.000,A,A*5F
$WIMWV,93.7,R,3.7,N,A*1a
$WIMWV,94.6,R,4.1,N,A*1d
$WIMWV,96.2,R,4.1,N,A*1b
$WIMWV,96.0,R,4.1,N,A*19
$WIMWV,93.3,R,4.1,N,A*1f
$WIMWV,91.5,R,4.1,N,A*1b
$WIMWV,90.6,R,4.5,N,A*1d
$WIMWV,92.4,R,4.1,N,A*19
$WIMWV,96.0,R,4.1,N,A*19
$WIMWV,98.6,R,4.5,N,A*15
$GPRMC,100330.000,A,5406.5356,N,01206.0548,E,4.63,330.49,260521,,,A*6F
$GPVTG,330.49,T,,M,4.63,N,8.6,K,A*0F
$GPGGA,100330.000,5406.5356,N,01206.0548,E,1,10,0.9,-1.5,M,41.9,M,,0000*7E
$GPGSV,3,1,12,02,18,042,23,04,11,328,,05,15,094,23,09,02,359,*70
$GPGSV,3,2,12,12,11,114,19,16,06,292,28,18,25,181,36,20,14,113,28*7B
$GPGSV,3,3,12,25,47,122,32,26,32,293,25,29,85,090,35,31,52,256,39*73
$GPGLL,5406.5356,N,01206.0548,E,100330.000,A,A*56
$WIMWV,100.9,R,4.1,N,A*2e
$WIMWV,101.3,R,4.1,N,A*25
$WIMWV,100.4,R,4.5,N,A*27
$WIMWV,99.0,R,4.5,N,A*12
$WIMWV,98.1,R,4.1,N,A*16
$WIMWV,97.9,R,4.5,N,A*15
$WIMWV,97.6,R,4.1,N,A*1e
$WIMWV,98.2,R,4.5,N,A*11
$WIMWV,98.7,R,4.1,N,A*10
$WIMWV,99.5,R,4.5,N,A*17
$GPRMC,100331.000,A,5406.5367,N,01206.0538,E,4.61,330.85,260521,,,A*69
$GPVTG,330.85,T,,M,4.61,N,8.5,K,A*0E
$GPGGA,100331.000,5406.5367,N,01206.0538,E,1,11,0.9,-1.6,M,41.9,M,,0000*78
$GPGSV,3,1,12,02,18,042,22,04,11,328,21,05,15,094,20,09,02,359,*71
$GPGSV,3,2,12,12,11,114,20,16,06,292,30,18,25,181,36,20,14,113,27*77
$GPGSV,3,3,12,25,47,122,31,26,32,293,35,29,85,090,35,31,52,256,38*70
$GPGLL,5406.5367,N,01206.0538,E,100331.000,A,A*52
$WIMWV,99.0,R,4.5,N,A*12
$WIMWV,99.0,R,4.1,N,A*16
$WIMWV,96.1,R,4.5,N,A*1c
$WIMWV,92.6,R,4.5,N,A*1f
$WIMWV,89.6,R,4.5,N,A*15
$WIMWV,89.0,R,4.1,N,A*17
$WIMWV,88.6,R,4.5,N,A*14
$WIMWV,89.6,R,4.5,N,A*15
$WIMWV,90.1,R,4.1,N,A*1e
$WIMWV,91.5,R,4.5,N,A*1f
$GPRMC,100332.000,A,5406.5378,N,01206.0527,E,4.59,330.91,260521,,,A*64
$GPVTG,330.91,T,,M,4.59,N,8.5,K,A*00
$GPGGA,100332.000,5406.5378,N,01206.0527,E,1,11,0.9,-1.6,M,41.9,M,,0000*7B
$GPGSV,3,1,12,02,18,042,23,04,11,328,20,05,15,094,18,09,02,359,*7A
$GPGSV,3,2,12,12,11,114,22,16,06,292,30,18,25,181,36,20,14,113,27*75
$GPGSV,3,3,12,25,47,122,31,26,32,293,35,29,85,090,35,31,52,256,34*7C
$GPGLL,5406.5378,N,01206.0527,E,100332.000,A,A*51
$WIMWV,93.2,R,4.1,N,A*1e
$WIMWV,95.8,R,4.1,N,A*12
$WIMWV,96.7,R,4.5,N,A*1a
$WIMWV,95.7,R,4.1,N,A*1d
$WIMWV,94.1,R,4.5,N,A*1e
$WIMWV,92.1,R,4.1,N,A*1c
$WIMWV,91.3,R,4.5,N,A*19
$WIMWV,91.7,R,4.1,N,A*19
$WIMWV,92.7,R,4.1,N,A*1a
$WIMWV,93.8,R,4.5,N,A*10
$GPRMC,100333.000,A,5406.5389,N,01206.0516,E,4.68,331.43,260521,,,A*65
$GPVTG,331.43,T,,M,4.68,N,8.7,K,A*0E
$GPGGA,100333.000,5406.5389,N,01206.0516,E,1,11,0.9,-1.6,M,41.9,M,,0000*76
$GPGSV,3,1,12,02,18,042,25,04,11,328,19,05,15,094,15,09,02,359,*7B
$GPGSV,3,2,12,12,11,115,24,16,06,292,31,18,25,181,35,20,14,113,27*70
$GPGSV,3,3,12,25,47,122,32,26,32,293,37,29,85,090,35,31,52,256,35*7C
$GPGLL,5406.5389,N,01206.0516,E,100333.000,A,A*5C
$WIMWV,94.4,R,4.1,N,A*1f
$WIMWV,94.8,R,4.5,N,A*17
$WIMWV,96.5,R,4.1,N,A*1c
$WIMWV,97.9,R,4.1,N,A*11
$WIMWV,99.2,R,4.5,N,A*10
$WIMWV,99.0,R,4.1,N,A*16
$WIMWV,98.9,R,4.1,N,A*1e
$WIMWV,97.6,R,4.5,N,A*1a
$WIMWV,95.8,R,4.1,N,A*12
$GPRMC,100334.000,A,5406.5400,N,01206.0505,E,4.70,330.83,260521,,,A*62
$GPVTG,330.83,T,,M,4.70,N,8.7,K,A*0A
$GPGGA,100334.000,5406.5400,N,01206.0505,E,1,11,0.8,-1.6,M,41.9,M,,0000*74
$WIMWV,93.5,R,4.1,N,A*19
$GPGSV,3,1,12,02,18,042,32,04,11,328,19,05,15,094,19,09,02,359,*71
$GPGSV,3,2,12,12,11,115,24,16,06,292,32,18,25,181,33,20,14,113,28*7A
$GPGSV,3,3,12,25,47,122,32,26,32,293,34,29,85,090,35,31,52,256,38*72
$GPGLL,5406.5400,N,01206.0505,E,100334.000,A,A*5F
$WIMWV,92.1,R,4.1,N,A*1c
$WIMWV,93.2,R,4.1,N,A*1e
$WIMWV,95.8,R,4.1,N,A*12
$WIMWV,97.6,R,4.1,N,A*1e
$WIMWV,98.4,R,4.1,N,A*13
$WIMWV,96.8,R,4.1,N,A*11
$WIMWV,94.8,R,4.1,N,A*13
$WIMWV,92.5,R,4.1,N,A*18
$WIMWV,89.8,R,4.1,N,A*1f
$GPRMC,100335.000,A,5406.5411,N,01206.0493,E,4.63,330.23,260521,,,A*65
$GPVTG,330.23,T,,M,4.63,N,8.6,K,A*03
$GPGGA,100335.000,5406.5411,N,01206.0493,E,1,11,0.8,-1.5,M,41.9,M,,0000*78
$GPGSV,3,1,12,02,18,042,30,04,11,328,20,05,15,094,19,09,02,359,*79
$GPGSV,3,2,12,12,11,115,23,16,06,292,31,18,25,181,34,20,14,113,26*77
$GPGSV,3,3,12,25,47,122,33,26,32,293,33,29,85,090,34,31,52,256,35*78
$WIMWV,89.2,R,4.1,N,A*15
$GPGLL,5406.5411,N,01206.0493,E,100335.000,A,A*50
$WIMWV,89.7,R,4.1,N,A*10
$WIMWV,89.9,R,4.1,N,A*1e
$WIMWV,89.8,R,4.1,N,A*1f
$WIMWV,89.8,R,3.7,N,A*1e
$WIMWV,90.2,R,4.1,N,A*1d
$WIMWV,89.0,R,4.1,N,A*17
$WIMWV,88.2,R,4.1,N,A*14
$WIMWV,87.0,R,4.1,N,A*19
$WIMWV,85.4,R,4.1,N,A*1f
$WIMWV,84.5,R,3.7,N,A*1e
$GPRMC,100336.000,A,5406.5421,N,01206.0482,E,4.52,329.50,260521,,,A*6B
$GPVTG,329.50,T,,M,4.52,N,8.4,K,A*0F
$GPGGA,100336.000,5406.5421,N,01206.0482,E,1,11,0.8,-1.5,M,41.9,M,,0000*78
$GPGSV,3,1,12,02,18,042,23,04,11,328,19,05,15,094,22,09,02,359,*79
$GPGSV,3,2,12,12,11,115,21,16,06,292,30,18,25,181,36,20,14,113,25*75
$GPGSV,3,3,12,25,47,122,33,26,32,293,35,29,85,090,29,31,52,256,38*7F
$GPGLL,5406.5421,N,01206.0482,E,100336.000,A,A*50
$WIMWV,83.1,R,4.1,N,A*1c
$WIMWV,82.7,R,4.1,N,A*1b
$WIMWV,82.3,R,3.7,N,A*1e
$WIMWV,82.4,R,4.1,N,A*18
$WIMWV,82.2,R,4.1,N,A*1e
$GPRMC,100337.000,A,5406.5432,N,01206.0471,E,4.43,329.61,260521,,,A*66
$GPVTG,329.61,T,,M,4.43,N,8.2,K,A*0B
$GPGGA,100337.000,5406.5432,N,01206.0471,E,1,11,0.8,-1.5,M,41.9,M,,0000*77
$GPGSV,3,1,12,02,18,042,23,04,11,328,19,05,15,094,24,09,02,359,*7F
$GPGSV,3,2,12,12,11,115,20,16,06,292,30,18,25,181,36,20,14,113,25*74
$GPGSV,3,3,12,25,47,122,30,26,32,293,33,29,85,090,32,31,52,256,33*7B
$GPGLL,5406.5432,N,01206.0471,E,100337.000,A,A*5F
$WIMWV,83.2,R,3.7,N,A*1e
$WIMWV,83.2,R,3.3,N,A*1a
$WIMWV,76.7,R,3.7,N,A*11
$WIMWV,76.2,R,3.7,N,A*14
$GPRMC,100338.000,A,5406.5442,N,01206.0461,E,4.47,330.11,260521,,,A*64
$GPVTG,330.11,T,,M,4.47,N,8.3,K,A*01
$GPGGA,100338.000,5406.5442,N,01206.0461,E,1,11,0.8,-1.6,M,41.9,M,,0000*7D
$GPGSV,3,1,12,02,18,042,24,04,11,328,20,05,15,094,25,09,02,359,*73
$GPGSV,3,2,12,12,11,115,20,16,06,292,30,18,25,181,36,20,14,113,25*74
$GPGSV,3,3,12,25,47,122,32,26,32,293,35,29,85,090,32,31,52,256,36*7A
$WIMWV,78.1,R,3.3,N,A*1d
$GPGLL,5406.5442,N,01206.0461,E,100338.000,A,A*56
$WIMWV,77.5,R,3.7,N,A*12
$WIMWV,78.4,R,3.3,N,A*18
$WIMWV,79.2,R,3.3,N,A*1f
$WIMWV,79.4,R,3.7,N,A*1d
$WIMWV,80.0,R,3.3,N,A*1b
$WIMWV,80.0,R,3.3,N,A*1b
$WIMWV,80.8,R,3.3,N,A*13
$WIMWV,80.8,R,3.3,N,A*13
$WIMWV,80.8,R,3.3,N,A*13
$GPRMC,100339.000,A,5406.5453,N,01206.0451,E,4.37,330.52,260521,,,A*66
$GPVTG,330.52,T,,M,4.37,N,8.1,K,A*03
$GPGGA,100339.000,5406.5453,N,01206.0451,E,1,11,0.8,-1.7,M,41.9,M,,0000*7E
$GPGSV,3,1,12,02,18,042,23,04,11,328,20,05,15,094,25,09,02,359,*74
$GPGSV,3,2,12,12,11,115,20,16,06,292,30,18,26,181,32,20,14,113,24*72
$GPGSV,3,3,12,25,47,122,32,26,32,293,36,29,85,090,30,31,52,256,34*79
$GPGLL,5406.5453,N,01206.0451,E,100339.000,A,A*54
$WIMWV,81.1,R,3.7,N,A*1f
$WIMWV,80.9,R,3.3,N,A*12
$WIMWV,80.9,R,2.9,N,A*19
$WIMWV,80.6,R,3.3,N,A*1d
$WIMWV,81.0,R,3.3,N,A*1a
$WIMWV,80.7,R,3.3,N,A*1c
$WIMWV,80.5,R,3.3,N,A*1e
$WIMWV,81.2,R,3.3,N,A*18
$WIMWV,81.6,R,2.9,N,A*17
$WIMWV,81.8,R,3.3,N,A*12
$GPRMC,100340.000,A,5406.5463,N,01206.0441,E,4.28,331.36,260521,,,A*67
$GPVTG,331.36,T,,M,4.28,N,7.9,K,A*09
$GPGGA,100340.000,5406.5463,N,01206.0441,E,1,11,0.8,-1.8,M,41.9,M,,0000*7D
$WIMWV,82.3,R,2.9,N,A*11
$GPGSV,3,1,12,02,18,042,24,04,11,328,20,05,15,094,23,09,02,359,*75
$GPGSV,3,2,12,12,11,115,20,16,06,292,30,18,26,181,35,20,14,113,21*70
$GPGSV,3,3,12,25,47,122,32,26,32,293,33,29,85,090,33,31,52,256,38*73
$GPGLL,5406.5463,N,01206.0441,E,100340.000,A,A*58
$WIMWV,83.1,R,3.3,N,A*19
$WIMWV,83.0,R,2.9,N,A*13
$WIMWV,82.6,R,3.3,N,A*1f
$WIMWV,83.1,R,2.9,N,A*12
$WIMWV,85.7,R,3.3,N,A*19
$WIMWV,90.4,R,2.9,N,A*15
$WIMWV,95.4,R,3.3,N,A*1b
$WIMWV,98.3,R,2.9,N,A*1a
$WIMWV,97.6,R,2.9,N,A*10
$GPRMC,100341.000,A,5406.5473,N,01206.0432,E,4.24,331.75,260521,,,A*68
$GPVTG,331.75,T,,M,4.24,N,7.9,K,A*02
$GPGGA,100341.000,5406.5473,N,01206.0432,E,1,11,0.8,-1.8,M,41.9,M,,0000*79
$GPGSV,3,1,12,02,18,042,25,04,11,328,21,05,15,094,21,09,02,359,*77
$GPGSV,3,2,12,12,11,115,22,16,06,292,29,18,26,181,34,20,15,113,20*7B
$GPGSV,3,3,12,25,47,122,33,26,32,293,34,29,85,090,30,31,52,256,36*78
$GPGLL,5406.5473,N,01206.0432,E,100341.000,A,A*5C
$WIMWV,93.4,R,3.3,N,A*1d
$WIMWV,86.8,R,2.9,N,A*1e
$WIMWV,80.0,R,2.9,N,A*10
$WIMWV,75.6,R,3.3,N,A*17
$WIMWV,72.8,R,2.9,N,A*15
$WIMWV,71.7,R,3.3,N,A*12
$WIMWV,74.1,R,2.9,N,A*1a
$WIMWV,78.4,R,3.3,N,A*18
$WIMWV,84.3,R,2.9,N,A*17
$WIMWV,89.6,R,3.3,N,A*14
$GPRMC,100342.000,A,5406.5483,N,01206.0422,E,4.24,331.11,260521,,,A*67
$GPVTG,331.11,T,,M,4.24,N,7.9,K,A*00
$GPGGA,100342.000,5406.5483,N,01206.0422,E,1,11,0.8,-1.9,M,41.9,M,,0000*75
$GPGSV,3,1,12,02,18,042,26,04,11,328,20,05,15,094,20,09,02,359,*74
$GPGSV,3,2,12,12,11,115,22,16,06,292,29,18,26,181,35,20,15,113,22*78
$GPGSV,3,3,12,25,47,122,28,26,32,293,35,29,85,090,31,31,52,256,37*73
$GPGLL,5406.5483,N,01206.0422,E,100342.000,A,A*51
$WIMWV,92.1,R,2.9,N,A*12
$WIMWV,91.4,R,3.3,N,A*1f
$WIMWV,90.4,R,2.9,N,A*15
$WIMWV,91.2,R,3.3,N,A*19
$WIMWV,94.7,R,2.9,N,A*12
$WIMWV,98.3,R,3.3,N,A*11
$WIMWV,101.0,R,2.9,N,A*28
$WIMWV,103.2,R,3.3,N,A*23
$WIMWV,104.6,R,3.3,N,A*20
$WIMWV,104.7,R,2.9,N,A*2a
$GPRMC,100343.000,A,5406.5493,N,01206.0412,E,4.16,331.20,260521,,,A*67
$GPVTG,331.20,T,,M,4.16,N,7.7,K,A*0D
$GPGGA,100343.000,5406.5493,N,01206.0412,E,1,11,0.8,-1.9,M,41.9,M,,0000*76
$GPGSV,3,1,12,02,18,042,25,04,11,328,21,05,15,094,21,09,02,359,*77
$GPGSV,3,2,12,12,11,115,23,16,06,292,29,18,26,181,35,20,15,113,24*7F
$GPGSV,3,3,12,25,47,122,27,26,32,293,35,29,85,090,27,31,52,256,36*7A
$GPGLL,5406.5493,N,01206.0412,E,100343.000,A,A*52
$WIMWV,103.9,R,3.3,N,A*28
$WIMWV,104.2,R,2.9,N,A*2f
$WIMWV,104.2,R,2.9,N,A*2f
$WIMWV,106.2,R,3.3,N,A*26
$WIMWV,110.3,R,2.9,N,A*2b
$WIMWV,116.2,R,3.3,N,A*27
$WIMWV,123.6,R,2.9,N,A*2e
$WIMWV,129.7,R,3.3,N,A*2e
$WIMWV,132.5,R,2.9,N,A*2d
$WIMWV,130.3,R,3.3,N,A*22
$GPRMC,100344.000,A,5406.5504,N,01206.0404,E,4.30,332.69,260521,,,A*62
$GPVTG,332.69,T,,M,4.30,N,8.0,K,A*0F
$GPGGA,100344.000,5406.5504,N,01206.0404,E,1,11,0.8,-2.1,M,41.9,M,,0000*72
$GPGSV,3,1,12,02,18,042,24,04,11,328,21,05,15,094,22,09,02,359,*75
$GPGSV,3,2,12,12,11,115,26,16,06,292,29,18,26,181,35,20,15,113,26*78
$GPGSV,3,3,12,25,47,122,27,26,32,293,37,29,85,090,29,31,52,256,39*79
$GPGLL,5406.5504,N,01206.0404,E,100344.000,A,A*5D
$WIMWV,124.9,R,2.9,N,A*26
$WIMWV,116.2,R,3.3,N,A*27
$WIMWV,105.8,R,3.3,N,A*2f
$WIMWV,96.5,R,3.3,N,A*19
$WIMWV,91.7,R,3.3,N,A*1c
$WIMWV,91.9,R,3.3,N,A*12
$WIMWV,95.4,R,3.3,N,A*1b
$WIMWV,99.6,R,3.7,N,A*11
$WIMWV,103.7,R,3.3,N,A*26
$WIMWV,107.8,R,3.7,N,A*29
$GPRMC,100345.000,A,5406.5514,N,01206.0394,E,4.21,333.00,260521,,,A*62
$GPVTG,333.00,T,,M,4.21,N,7.8,K,A*06
$GPGGA,100345.000,5406.5514,N,01206.0394,E,1,11,0.8,-2.1,M,41.9,M,,0000*7C
$GPGSV,3,1,12,02,18,042,22,04,11,328,19,05,15,094,21,09,02,359,*7B
$GPGSV,3,2,12,12,11,115,25,16,06,292,28,18,26,181,33,20,15,113,26*7C
$GPGSV,3,3,12,25,47,122,26,26,32,293,33,29,85,090,30,31,52,256,32*7F
$GPGLL,5406.5514,N,01206.0394,E,100345.000,A,A*53
$WIMWV,109.2,R,3.7,N,A*2d
$WIMWV,109.2,R,3.3,N,A*29
$WIMWV,107.9,R,3.7,N,A*28
$WIMWV,106.7,R,3.7,N,A*27
$WIMWV,106.8,R,3.3,N,A*2c
$WIMWV,109.2,R,3.7,N,A*2d
$WIMWV,111.9,R,3.3,N,A*2b
$WIMWV,111.7,R,3.7,N,A*21
$WIMWV,107.9,R,3.7,N,A*28
$WIMWV,104.1,R,3.7,N,A*23
$GPRMC,100346.000,A,5406.5524,N,01206.0386,E,4.06,333.75,260521,,,A*66
$GPVTG,333.75,T,,M,4.06,N,7.5,K,A*0C
$GPGGA,100346.000,5406.5524,N,01206.0386,E,1,11,0.8,-2.0,M,41.9,M,,0000*7E
$GPGSV,3,1,12,02,18,042,23,04,11,328,19,05,15,094,20,09,02,359,*7B
$GPGSV,3,2,12,12,11,115,25,16,06,292,28,18,26,181,32,20,15,113,25*7E
$GPGSV,3,3,12,25,46,122,25,26,32,293,33,29,85,090,30,31,52,256,35*7A
$GPGLL,5406.5524,N,01206.0386,E,100346.000,A,A*50
$WIMWV,99.2,R,3.7,N,A*15
$WIMWV,96.6,R,3.7,N,A*1e
$WIMWV,96.0,R,3.7,N,A*18
$WIMWV,96.2,R,3.3,N,A*1e
$WIMWV,98.1,R,3.7,N,A*17
$WIMWV,99.2,R,3.7,N,A*15
$WIMWV,98.9,R,3.7,N,A*1f
$WIMWV,98.3,R,3.7,N,A*15
$WIMWV,98.3,R,3.3,N,A*11
$WIMWV,100.5,R,3.7,N,A*23
$GPRMC,100347.000,A,5406.5534,N,01206.0377,E,4.16,334.46,260521,,,A*6E
$GPVTG,334.46,T,,M,4.16,N,7.7,K,A*08
$GPGGA,100347.000,5406.5534,N,01206.0377,E,1,11,0.8,-2.1,M,41.9,M,,0000*71
$GPGSV,3,1,12,02,18,042,24,04,11,328,18,05,15,094,19,09,02,359,*77
$GPGSV,3,2,12,12,11,115,25,16,06,292,28,18,26,181,33,20,15,113,25*7F
$GPGSV,3,3,12,25,46,122,27,26,32,293,34,29,85,090,30,31,52,256,36*7C
$GPGLL,5406.5534,N,01206.0377,E,100347.000,A,A*5E
$WIMWV,102.3,R,3.7,N,A*27
$WIMWV,104.1,R,3.3,N,A*27
$WIMWV,106.3,R,3.7,N,A*23
$WIMWV,106.6,R,3.7,N,A*26
$WIMWV,104.8,R,3.3,N,A*2e
$WIMWV,100.9,R,3.7,N,A*2f
$WIMWV,95.0,R,3.7,N,A*1b
$WIMWV,89.4,R,3.7,N,A*12
$WIMWV,84.2,R,3.7,N,A*19
$WIMWV,81.3,R,3.7,N,A*1d
$GPRMC,100348.000,A,5406.5544,N,01206.0369,E,4.05,333.43,260521,,,A*69
$GPVTG,333.43,T,,M,4.05,N,7.5,K,A*0A
$GPGGA,100348.000,5406.5544,N,01206.0369,E,1,11,0.9,-2.1,M,41.9,M,,0000*77
$GPGSV,3,1,12,02,18,042,26,04,11,328,22,05,15,094,16,09,02,359,*73
$GPGSV,3,2,12,12,11,115,24,16,06,292,29,18,26,181,35,20,15,113,26*7A
$GPGSV,3,3,12,25,46,122,33,26,32,293,35,29,85,090,34,31,52,256,42*7F
$GPGLL,5406.5544,N,01206.0369,E,100348.000,A,A*59
$WIMWV,78.9,R,3.3,N,A*15
$WIMWV,78.6,R,3.7,N,A*1e
$WIMWV,79.8,R,3.3,N,A*15
$WIMWV,82.4,R,3.7,N,A*19
$WIMWV,87.1,R,3.3,N,A*1d
$WIMWV,94.1,R,3.7,N,A*1b
$WIMWV,102.2,R,3.3,N,A*22
$WIMWV,105.8,R,3.3,N,A*2f
$WIMWV,108.3,R,3.7,N,A*2d
$WIMWV,105.7,R,3.3,N,A*20
$GPRMC,100349.000,A,5406.5554,N,01206.0361,E,4.09,332.50,260521,,,A*6E
$GPVTG,332.50,T,,M,4.09,N,7.6,K,A*06
$GPGGA,100349.000,5406.5554,N,01206.0361,E,1,11,0.9,-1.8,M,41.9,M,,0000*75
$GPGSV,3,1,12,02,18,042,26,04,11,328,19,05,15,094,19,09,02,359,*74
$GPGSV,3,2,12,12,11,115,24,16,06,292,28,18,26,181,34,20,15,113,26*7A
$GPGSV,3,3,12,25,46,122,36,26,32,293,36,29,85,090,36,31,52,256,38*76
$GPGLL,5406.5554,N,01206.0361,E,100349.000,A,A*51
$WIMWV,101.9,R,3.3,N,A*2a
$WIMWV,96.8,R,3.7,N,A*10
$WIMWV,94.1,R,3.3,N,A*1f
$WIMWV,93.7,R,3.7,N,A*1a
$WIMWV,95.4,R,3.3,N,A*1b
$WIMWV,97.4,R,3.3,N,A*19
$WIMWV,97.9,R,3.7,N,A*10
$WIMWV,98.5,R,3.3,N,A*17
$WIMWV,97.2,R,3.7,N,A*1b
$WIMWV,98.6,R,3.3,N,A*14
$GPRMC,100350.000,A,5406.5565,N,01206.0353,E,4.08,333.26,260521,,,A*64
$GPVTG,333.26,T,,M,4.08,N,7.6,K,A*07
$GPGGA,100350.000,5406.5565,N,01206.0353,E,1,11,0.9,-1.9,M,41.9,M,,0000*7F
$GPGSV,3,1,12,02,18,042,23,04,11,328,17,05,15,094,19,09,02,359,*7F
$GPGSV,3,2,12,12,11,115,22,16,06,292,28,18,26,181,33,20,15,113,26*7B
$GPGSV,3,3,12,25,46,122,33,26,32,293,35,29,85,087,31,31,52,256,36*7F
$GPGLL,5406.5565,N,01206.0353,E,100350.000,A,A*5A
$WIMWV,100.4,R,3.3,N,A*26
$WIMWV,101.6,R,3.7,N,A*21
$WIMWV,100.5,R,3.3,N,A*27
$WIMWV,98.3,R,3.7,N,A*15
$WIMWV,95.5,R,3.3,N,A*1a
$WIMWV,93.5,R,3.7,N,A*18
$WIMWV,91.1,R,3.7,N,A*1e
$WIMWV,91.0,R,3.3,N,A*1b
$WIMWV,92.3,R,3.7,N,A*1f
$WIMWV,95.2,R,3.7,N,A*19
$GPRMC,100351.000,A,5406.5574,N,01206.0343,E,4.02,332.70,260521,,,A*6C
$GPVTG,332.70,T,,M,4.02,N,7.4,K,A*0D
$GPGGA,100351.000,5406.5574,N,01206.0343,E,1,11,0.8,-1.8,M,41.9,M,,0000*7F
$GPGSV,3,1,12,02,18,042,25,04,11,328,17,05,15,094,18,09,02,359,*78
$GPGSV,3,2,12,12,11,115,21,16,06,292,29,18,26,181,34,20,15,113,26*7E
$GPGSV,3,3,12,25,46,122,34,26,32,293,35,29,85,087,32,31,52,256,34*79
$GPGLL,5406.5574,N,01206.0343,E,100351.000,A,A*5A
$WIMWV,99.7,R,3.7,N,A*10
$WIMWV,100.5,R,3.7,N,A*23
$WIMWV,99.0,R,3.7,N,A*17
$WIMWV,94.5,R,3.7,N,A*1f
$WIMWV,89.6,R,3.7,N,A*10
$WIMWV,85.9,R,4.1,N,A*12
$WIMWV,85.7,R,3.7,N,A*1d
$WIMWV,87.2,R,4.1,N,A*1b
$WIMWV,87.7,R,3.7,N,A*1f
$WIMWV,85.6,R,4.1,N,A*1d
$GPRMC,100352.000,A,5406.5584,N,01206.0335,E,4.06,332.45,260521,,,A*63
$GPVTG,332.45,T,,M,4.06,N,7.5,K,A*0E
$GPGGA,100352.000,5406.5584,N,01206.0335,E,1,11,0.8,-1.6,M,41.9,M,,0000*7C
$GPGSV,3,1,12,02,18,042,29,04,11,328,16,05,15,094,20,09,02,359,*7E
$GPGSV,3,2,12,12,11,115,20,16,06,292,29,18,26,181,35,20,15,113,27*7F
$GPGSV,3,3,12,25,46,122,36,26,32,293,35,29,85,087,32,31,52,255,33*7F
$GPGLL,5406.5584,N,01206.0335,E,100352.000,A,A*57
$WIMWV,82.4,R,3.7,N,A*19
$WIMWV,81.1,R,4.1,N,A*1e
$WIMWV,82.0,R,4.1,N,A*1c
$WIMWV,85.2,R,4.1,N,A*19
$WIMWV,88.5,R,4.1,N,A*13
$WIMWV,90.7,R,3.7,N,A*19
$WIMWV,92.0,R,4.5,N,A*19
$WIMWV,92.3,R,3.7,N,A*1f
$WIMWV,90.9,R,4.5,N,A*12
$WIMWV,88.5,R,4.1,N,A*13
$GPRMC,100353.000,A,5406.5593,N,01206.0325,E,3.94,329.88,260521,,,A*62
$GPVTG,329.88,T,,M,3.94,N,7.3,K,A*0F
$GPGGA,100353.000,5406.5593,N,01206.0325,E,1,11,0.8,-1.2,M,41.9,M,,0000*7E
$GPGSV,3,1,12,02,18,042,27,04,11,328,16,05,15,094,17,09,02,359,17*72
$GPGSV,3,2,12,12,11,115,18,16,06,292,28,18,26,181,34,20,15,113,25*76
$GPGSV,3,3,12,25,46,122,36,26,32,293,33,29,85,087,31,31,52,255,28*70
$GPGLL,5406.5593,N,01206.0325,E,100353.000,A,A*51
$WIMWV,86.3,R,4.1,N,A*1b
$WIMWV,86.6,R,4.5,N,A*1a
$WIMWV,88.3,R,4.5,N,A*11
$WIMWV,90.9,R,4.5,N,A*12
$WIMWV,92.4,R,4.5,N,A*1d
$WIMWV,92.6,R,4.5,N,A*1f
$WIMWV,94.1,R,4.5,N,A*1e
$WIMWV,95.7,R,4.5,N,A*19
$WIMWV,95.0,R,4.5,N,A*1e
$WIMWV,95.2,R,4.1,N,A*18
$GPRMC,100354.000,A,5406.5603,N,01206.0317,E,4.18,332.75,260521,,,A*65
$GPVTG,332.75,T,,M,4.18,N,7.7,K,A*00
$GPGGA,100354.000,5406.5603,N,01206.0317,E,1,11,0.8,-1.4,M,41.9,M,,0000*74
$GPGSV,3,1,12,02,18,042,32,04,11,328,18,05,15,094,18,09,02,359,18*78
$GPGSV,3,2,12,12,11,115,18,16,06,292,29,18,26,181,36,20,15,113,26*76
$GPGSV,3,3,12,25,46,122,37,26,32,293,31,29,85,087,34,31,52,255,40*78
$GPGLL,5406.5603,N,01206.0317,E,100354.000,A,A*5D
$WIMWV,95.9,R,4.5,N,A*17
$WIMWV,95.7,R,4.5,N,A*19
$WIMWV,95.4,R,4.1,N,A*1e
$WIMWV,92.1,R,4.1,N,A*1c
$WIMWV,89.5,R,4.5,N,A*16
$WIMWV,90.0,R,4.1,N,A*1f
$WIMWV,89.9,R,4.1,N,A*1e
$WIMWV,90.0,R,4.5,N,A*1b
$WIMWV,93.8,R,4.1,N,A*14
$WIMWV,98.3,R,4.5,N,A*10
$GPRMC,100355.000,A,5406.5614,N,01206.0308,E,4.18,334.23,260521,,,A*69
$GPVTG,334.23,T,,M,4.18,N,7.7,K,A*05
$GPGGA,100355.000,5406.5614,N,01206.0308,E,1,11,0.8,-1.7,M,41.9,M,,0000*7E
$GPGSV,3,1,12,02,18,042,31,04,11,328,18,05,15,094,17,09,02,359,18*74
$GPGSV,3,2,12,12,11,115,18,16,06,292,29,18,26,181,35,20,15,113,26*75
$GPGSV,3,3,12,25,46,122,37,26,32,293,32,29,85,087,33,31,52,255,40*7C
$GPGLL,5406.5614,N,01206.0308,E,100355.000,A,A*54
$WIMWV,98.1,R,4.1,N,A*16
$WIMWV,95.1,R,4.5,N,A*1f
$WIMWV,92.2,R,4.5,N,A*1b
$WIMWV,93.2,R,4.5,N,A*1a
$WIMWV,98.3,R,4.5,N,A*10
$WIMWV,103.0,R,4.5,N,A*20
$WIMWV,106.7,R,4.5,N,A*22
$WIMWV,105.7,R,4.5,N,A*21
$WIMWV,98.8,R,4.5,N,A*1b
$WIMWV,91.4,R,4.9,N,A*12
$GPRMC,100356.000,A,5406.5624,N,01206.0300,E,4.29,333.98,260521,,,A*64
$GPVTG,333.98,T,,M,4.29,N,7.9,K,A*0E
$GPGGA,100356.000,5406.5624,N,01206.0300,E,1,11,0.8,-1.7,M,41.9,M,,0000*76
$GPGSV,3,1,12,02,18,042,31,04,11,328,20,05,15,094,16,09,02,359,18*7E
$GPGSV,3,2,12,12,11,115,18,16,06,292,30,18,26,181,36,20,15,113,27*7F
$GPGSV,3,3,12,25,46,122,36,26,32,293,32,29,85,087,34,31,52,255,35*78
$GPGLL,5406.5624,N,01206.0300,E,100356.000,A,A*5C
$WIMWV,83.5,R,4.9,N,A*10
$WIMWV,78.9,R,4.9,N,A*18
$WIMWV,79.4,R,4.9,N,A*14
$WIMWV,82.0,R,4.9,N,A*14
$WIMWV,86.4,R,4.9,N,A*14
$WIMWV,88.8,R,4.9,N,A*16
$WIMWV,91.5,R,5.3,N,A*18
$WIMWV,89.4,R,4.9,N,A*1b
$WIMWV,85.4,R,4.9,N,A*17
$WIMWV,82.6,R,4.9,N,A*12
$GPRMC,100357.000,A,5406.5635,N,01206.0291,E,4.38,334.74,260521,,,A*69
$GPVTG,334.74,T,,M,4.38,N,8.1,K,A*0C
$GPGGA,100357.000,5406.5635,N,01206.0291,E,1,11,0.8,-1.8,M,41.9,M,,0000*71
$GPGSV,3,1,12,02,18,042,30,04,11,328,19,05,15,094,12,09,02,359,17*7E
$GPGSV,3,2,12,12,11,115,19,16,06,292,30,18,26,181,35,20,15,113,27*7D
$GPGSV,3,3,12,25,46,122,35,26,32,293,27,29,85,087,35,31,52,255,35*7E
$GPGLL,5406.5635,N,01206.0291,E,100357.000,A,A*54
$WIMWV,81.5,R,4.9,N,A*12
$WIMWV,81.6,R,4.5,N,A*1d
$WIMWV,83.7,R,4.9,N,A*12
$WIMWV,85.4,R,4.5,N,A*1b
$WIMWV,86.0,R,4.5,N,A*1c
$WIMWV,87.0,R,4.5,N,A*1d
$WIMWV,87.7,R,4.5,N,A*1a
$WIMWV,88.8,R,4.1,N,A*1e
$WIMWV,89.3,R,4.5,N,A*10
$WIMWV,89.4,R,4.1,N,A*13
$GPRMC,100358.000,A,5406.5646,N,01206.0282,E,4.44,334.52,260521,,,A*6F
$GPVTG,334.52,T,,M,4.44,N,8.2,K,A*00
$GPGGA,100358.000,5406.5646,N,01206.0282,E,1,10,0.8,-1.7,M,41.9,M,,0000*76
$GPGSV,3,1,12,02,18,042,31,04,11,328,20,05,15,094,09,09,02,359,18*70
$GPGSV,3,2,12,12,11,115,19,16,06,292,30,18,26,181,37,20,15,113,26*7E
$GPGSV,3,3,12,25,46,122,36,26,32,293,29,29,85,087,37,31,52,255,37*73
$GPGLL,5406.5646,N,01206.0282,E,100358.000,A,A*5D
$WIMWV,89.3,R,4.1,N,A*14
$WIMWV,89.1,R,4.5,N,A*12
$WIMWV,89.1,R,4.1,N,A*16
$WIMWV,87.6,R,3.7,N,A*1e
$WIMWV,86.5,R,4.1,N,A*1d
$WIMWV,85.9,R,4.1,N,A*12
$WIMWV,85.4,R,4.1,N,A*1f
$WIMWV,84.1,R,3.7,N,A*1a
$WIMWV,81.3,R,3.7,N,A*1d
$WIMWV,77.9,R,3.7,N,A*1e
$GPRMC,100359.000,A,5406.5657,N,01206.0273,E,4.48,334.16,260521,,,A*6C
$GPVTG,334.16,T,,M,4.48,N,8.3,K,A*0D
$GPGGA,100359.000,5406.5657,N,01206.0273,E,1,10,0.8,-1.7,M,41.9,M,,0000*79
$GPGSV,3,1,12,02,18,042,30,04,11,328,20,05,15,094,08,09,02,359,18*70
$GPGSV,3,2,12,12,11,115,20,16,06,292,29,18,26,181,35,20,15,113,27*7F
$GPGSV,3,3,12,25,46,122,35,26,32,293,28,29,85,087,36,31,52,255,35*72
$GPGLL,5406.5657,N,01206.0273,E,100359.000,A,A*52
$WIMWV,75.8,R,3.7,N,A*1d
$WIMWV,74.3,R,3.7,N,A*17
$WIMWV,74.5,R,3.7,N,A*11
$WIMWV,74.3,R,3.7,N,A*17
$WIMWV,75.0,R,3.7,N,A*15
$WIMWV,75.0,R,3.7,N,A*15
$WIMWV,74.9,R,3.3,N,A*19
$WIMWV,73.7,R,3.7,N,A*14
$WIMWV,72.8,R,3.7,N,A*1a
$WIMWV,69.3,R,3.3,N,A*1f
$GPRMC,100400.000,A,5406.5668,N,01206.0263,E,4.55,333.50,260521,,,A*63
$GPVTG,333.50,T,,M,4.55,N,8.4,K,A*03
$GPGGA,100400.000,5406.5668,N,01206.0263,E,1,10,0.8,-1.8,M,41.9,M,,0000*70
$GPGSV,3,1,12,02,18,042,30,04,11,328,19,05,15,094,09,09,02,359,17*74
$GPGSV,3,2,12,12,11,115,19,16,06,292,29,18,26,181,34,20,15,113,26*75
$GPGSV,3,3,12,25,46,122,34,26,32,293,33,29,85,087,33,31,52,255,31*78
$GPGLL,5406.5668,N,01206.0263,E,100400.000,A,A*54
$WIMWV,67.4,R,3.7,N,A*12
$WIMWV,65.8,R,3.3,N,A*18
$WIMWV,68.1,R,3.3,N,A*1c
$WIMWV,72.4,R,3.7,N,A*16
$WIMWV,77.7,R,3.3,N,A*14
$WIMWV,81.6,R,3.3,N,A*1c
$WIMWV,85.5,R,3.3,N,A*1b
$WIMWV,87.5,R,3.7,N,A*1d
$WIMWV,86.9,R,3.3,N,A*14
$WIMWV,82.2,R,3.7,N,A*1f
$GPRMC,100401.000,A,5406.5679,N,01206.0253,E,4.52,333.20,260521,,,A*61
$GPVTG,333.20,T,,M,4.52,N,8.4,K,A*03
$GPGGA,100401.000,5406.5679,N,01206.0253,E,1,11,0.8,-1.8,M,41.9,M,,0000*73
$GPGSV,3,1,12,02,18,042,28,04,11,328,19,05,15,094,11,09,02,359,16*75
$GPGSV,3,2,12,12,11,115,18,16,06,292,28,18,26,181,34,20,15,113,26*75
$GPGSV,3,3,12,25,46,122,35,26,32,293,33,29,85,087,32,31,52,255,30*79
$GPGLL,5406.5679,N,01206.0253,E,100401.000,A,A*56
$WIMWV,75.7,R,3.3,N,A*16
$WIMWV,72.3,R,3.7,N,A*11
$WIMWV,75.0,R,3.7,N,A*15
$WIMWV,78.1,R,3.7,N,A*19
$WIMWV,80.3,R,3.7,N,A*1c
$WIMWV,80.0,R,3.7,N,A*1f
$WIMWV,75.7,R,4.1,N,A*13
$WIMWV,72.8,R,3.7,N,A*1a
$WIMWV,69.4,R,4.1,N,A*1d
$WIMWV,66.7,R,3.7,N,A*10
$GPRMC,100402.000,A,5406.5691,N,01206.0244,E,4.56,334.86,260521,,,A*6D
$GPVTG,334.86,T,,M,4.56,N,8.4,K,A*0C
$GPGGA,100402.000,5406.5691,N,01206.0244,E,1,11,0.8,-1.8,M,41.9,M,,0000*70
$GPGSV,3,1,12,02,18,042,28,04,11,328,20,05,15,094,13,09,02,359,15*7E
$GPGSV,3,2,12,12,11,115,16,16,06,292,28,18,26,181,35,20,15,113,26*7A
$GPGSV,3,3,12,25,46,122,35,26,32,293,32,29,85,087,32,31,52,255,37*7F
$GPGLL,5406.5691,N,01206.0244,E,100402.000,A,A*55
$WIMWV,65.5,R,4.1,N,A*10
$WIMWV,64.6,R,4.1,N,A*12
$WIMWV,64.2,R,4.1,N,A*16
$WIMWV,64.5,R,4.1,N,A*11
$WIMWV,66.0,R,4.1,N,A*16
$WIMWV,67.6,R,4.5,N,A*15
$WIMWV,71.9,R,4.1,N,A*19
$WIMWV,75.9,R,4.1,N,A*1d
$WIMWV,80.1,R,4.5,N,A*1b
$WIMWV,83.1,R,4.1,N,A*1c
$GPRMC,100403.000,A,5406.5703,N,01206.0235,E,4.59,334.95,260521,,,A*6D
$GPVTG,334.95,T,,M,4.59,N,8.5,K,A*00
$GPGGA,100403.000,5406.5703,N,01206.0235,E,1,11,0.8,-1.9,M,41.9,M,,0000*7C
$GPGSV,3,1,12,02,18,042,29,04,11,328,21,05,15,094,17,09,02,359,15*7A
$GPGSV,3,2,12,12,11,115,16,16,06,292,28,18,26,181,35,20,15,113,25*79
$GPGSV,3,3,12,25,46,122,36,26,32,293,32,29,85,087,35,31,52,255,37*7B
$GPGLL,5406.5703,N,01206.0235,E,100403.000,A,A*58
$WIMWV,86.9,R,4.5,N,A*15
$WIMWV,89.2,R,4.1,N,A*15
$WIMWV,89.0,R,4.5,N,A*13
$WIMWV,87.5,R,4.5,N,A*18
$WIMWV,85.0,R,4.5,N,A*1f
$WIMWV,83.8,R,4.1,N,A*15
$WIMWV,81.9,R,4.5,N,A*12
$WIMWV,80.3,R,4.5,N,A*19
$WIMWV,79.6,R,4.1,N,A*1e
$WIMWV,81.1,R,4.5,N,A*1a
$GPRMC,100404.000,A,5406.5714,N,01206.0226,E,4.67,334.87,260521,,,A*60
$GPVTG,334.87,T,,M,4.67,N,8.6,K,A*0D
$GPGGA,100404.000,5406.5714,N,01206.0226,E,1,11,0.8,-1.4,M,41.9,M,,0000*72
$GPGSV,3,1,12,02,18,042,31,04,11,328,24,05,15,094,19,09,02,359,17*7A
$GPGSV,3,2,12,12,11,115,19,16,06,292,29,18,26,181,38,20,15,113,27*78
$GPGSV,3,3,12,25,46,122,38,26,32,293,34,29,85,087,38,31,52,255,31*78
$GPGLL,5406.5714,N,01206.0226,E,100404.000,A,A*5B
$WIMWV,83.1,R,4.1,N,A*1c
$WIMWV,85.2,R,4.5,N,A*1d
$WIMWV,86.6,R,4.1,N,A*1e
$WIMWV,88.7,R,4.1,N,A*11
$WIMWV,92.0,R,4.5,N,A*19
$WIMWV,96.5,R,4.1,N,A*1c
$WIMWV,102.5,R,4.5,N,A*24
$WIMWV,106.2,R,4.5,N,A*27
$WIMWV,104.1,R,4.9,N,A*2a
$WIMWV,98.3,R,4.5,N,A*10
$GPRMC,100405.000,A,5406.5726,N,01206.0216,E,4.81,334.76,260521,,,A*65
$GPVTG,334.76,T,,M,4.81,N,8.9,K,A*04
$GPGGA,100405.000,5406.5726,N,01206.0216,E,1,11,0.8,-1.3,M,41.9,M,,0000*76
$GPGSV,3,1,12,02,18,042,32,04,11,328,25,05,15,094,17,09,02,359,18*79
$GPGSV,3,2,12,12,11,115,21,16,06,292,29,18,26,181,37,20,15,113,26*7D
$GPGSV,3,3,12,25,46,122,37,26,32,293,33,29,85,087,38,31,52,255,36*77
$GPGLL,5406.5726,N,01206.0216,E,100405.000,A,A*58
$WIMWV,93.9,R,4.9,N,A*1d
$WIMWV,94.1,R,4.9,N,A*12
$WIMWV,97.7,R,4.9,N,A*17
$WIMWV,97.9,R,4.9,N,A*19
$WIMWV,96.9,R,5.3,N,A*13
$WIMWV,95.1,R,5.3,N,A*18
$WIMWV,90.8,R,5.3,N,A*14
$WIMWV,86.1,R,4.9,N,A*11
$WIMWV,85.5,R,5.3,N,A*1d
$WIMWV,86.5,R,5.3,N,A*1e
$GPRMC,100406.000,A,5406.5738,N,01206.0206,E,4.87,334.99,260521,,,A*6F
$GPVTG,334.99,T,,M,4.87,N,9.0,K,A*0B
$GPGGA,100406.000,5406.5738,N,01206.0206,E,1,11,0.8,-1.3,M,41.9,M,,0000*7B
$GPGSV,3,1,12,02,18,042,32,04,11,328,25,05,15,094,17,09,02,359,19*78
$GPGSV,3,2,12,12,11,115,22,16,06,292,28,18,26,181,36,20,15,113,26*7E
$GPGSV,3,3,12,25,46,122,38,26,32,293,35,29,85,087,37,31,52,255,34*73
$GPGLL,5406.5738,N,01206.0206,E,100406.000,A,A*55
$WIMWV,90.2,R,5.3,N,A*1e
$WIMWV,93.3,R,5.3,N,A*1c
$WIMWV,95.0,R,4.9,N,A*12
$WIMWV,93.1,R,5.3,N,A*1e
$WIMWV,89.6,R,5.3,N,A*12
$WIMWV,86.4,R,5.3,N,A*1f
$WIMWV,86.1,R,4.9,N,A*11
$WIMWV,90.1,R,5.3,N,A*1d
$WIMWV,94.2,R,4.9,N,A*11
$WIMWV,95.3,R,4.9,N,A*11
$GPRMC,100407.000,A,5406.5750,N,01206.0196,E,4.93,335.06,260521,,,A*68
$GPVTG,335.06,T,,M,4.93,N,9.1,K,A*08
$GPGGA,100407.000,5406.5750,N,01206.0196,E,1,11,0.8,-1.3,M,41.9,M,,0000*7E
$GPGSV,3,1,12,02,18,042,31,04,11,328,25,05,15,094,17,09,02,359,20*71
$GPGSV,3,2,12,12,11,115,22,16,06,292,29,18,26,181,36,20,15,113,25*7C
$GPGSV,3,3,12,25,46,122,38,26,32,293,35,29,85,087,37,31,52,255,36*71
$GPGLL,5406.5750,N,01206.0196,E,100407.000,A,A*50
$WIMWV,93.1,R,5.3,N,A*1e
$WIMWV,88.8,R,4.9,N,A*16
$WIMWV,85.8,R,4.9,N,A*1b
$WIMWV,83.7,R,4.9,N,A*12
$WIMWV,84.0,R,4.5,N,A*1e
$WIMWV,86.5,R,4.9,N,A*15
$WIMWV,88.3,R,4.9,N,A*1d
$WIMWV,89.7,R,4.5,N,A*14
$WIMWV,90.5,R,4.9,N,A*12
$GPRMC,100408.000,A,5406.5763,N,01206.0186,E,4.89,335.21,260521,,,A*68
