$GPRMC,104022.000,A,5412.3695,N,01205.7030,E,3.69,7.26,020621,,,A*6A
$GPVTG,7.26,T,,M,3.69,N,6.8,K,A*0C
$WIMWV,232.6,R,6.5,N,A*25
$WIMWV,231.0,R,6.5,N,A*20
$WIMWV,231.7,R,6.5,N,A*27
$WIMWV,232.6,R,6.6,N,A*26
$WIMWV,234.5,R,6.5,N,A*20
$WIMWV,234.3,R,6.2,N,A*21
$WIMWV,232.0,R,6.5,N,A*23
$WIMWV,228.9,R,6.5,N,A*21
$WIMWV,228.6,R,6.5,N,A*2e
$WIMWV,232.8,R,6.5,N,A*2b
$GPRMC,104023.000,A,5412.3706,N,01205.7032,E,4.26,6.83,020621,,,A*60
$GPVTG,6.83,T,,M,4.26,N,7.9,K,A*0E
$WIMWV,235.4,R,7.0,N,A*24
$WIMWV,236.5,R,6.5,N,A*22
$WIMWV,239.8,R,7.0,N,A*24
$WIMWV,238.9,R,6.5,N,A*20
$WIMWV,238.7,R,7.0,N,A*2a
$WIMWV,237.5,R,7.0,N,A*27
$WIMWV,235.0,R,7.0,N,A*20
$WIMWV,233.1,R,7.0,N,A*27
$WIMWV,232.8,R,7.0,N,A*2f
$WIMWV,234.0,R,7.0,N,A*21
$GPRMC,104024.000,A,5412.3718,N,01205.7033,E,3.95,7.03,020621,,,A*6F
$GPVTG,7.03,T,,M,3.95,N,7.3,K,A*02
$WIMWV,234.7,R,7.0,N,A*26
$WIMWV,234.2,R,7.0,N,A*23
$WIMWV,232.6,R,7.4,N,A*25
$WIMWV,233.2,R,7.0,N,A*24
$WIMWV,234.3,R,7.0,N,A*22
$WIMWV,235.7,R,7.0,N,A*27
$WIMWV,239.8,R,7.0,N,A*24
$WIMWV,238.2,R,7.0,N,A*2f
$WIMWV,239.1,R,7.0,N,A*2d
$WIMWV,240.3,R,7.0,N,A*21
$GPRMC,104025.000,A,5412.3727,N,01205.7036,E,4.12,7.89,020621,,,A*6D
$GPVTG,7.89,T,,M,4.12,N,7.6,K,A*0D
$WIMWV,240.6,R,7.0,N,A*24
$WIMWV,238.1,R,7.0,N,A*2c
$WIMWV,237.2,R,7.0,N,A*20
$WIMWV,235.7,R,7.0,N,A*27
$WIMWV,234.8,R,6.5,N,A*2d
$WIMWV,234.2,R,7.0,N,A*23
$WIMWV,234.3,R,6.5,N,A*26
$WIMWV,235.0,R,7.0,N,A*20
$WIMWV,236.2,R,7.0,N,A*21
$WIMWV,236.0,R,7.0,N,A*23
$GPRMC,104026.000,A,5412.3738,N,01205.7039,E,3.77,7.52,020621,,,A*6D
$GPVTG,7.52,T,,M,3.77,N,7.0,K,A*09
$WIMWV,236.7,R,6.6,N,A*23
$WIMWV,241.6,R,7.0,N,A*25
$WIMWV,237.9,R,7.0,N,A*2b
$WIMWV,241.6,R,7.0,N,A*25
$WIMWV,240.6,R,7.0,N,A*24
$WIMWV,239.9,R,7.0,N,A*25
$WIMWV,237.1,R,7.0,N,A*23
$WIMWV,235.7,R,6.6,N,A*20
$WIMWV,232.2,R,7.0,N,A*25
$WIMWV,229.9,R,7.0,N,A*24
$GPRMC,104027.000,A,5412.3749,N,01205.7041,E,3.85,7.67,020621,,,A*6E
$GPVTG,7.67,T,,M,3.85,N,7.1,K,A*03
$WIMWV,229.4,R,7.0,N,A*29
$WIMWV,231.1,R,7.0,N,A*25
$WIMWV,231.0,R,7.0,N,A*24
$WIMWV,232.4,R,7.0,N,A*23
$WIMWV,234.2,R,7.4,N,A*27
$WIMWV,236.8,R,7.0,N,A*2b
$WIMWV,236.5,R,7.4,N,A*22
$WIMWV,237.3,R,7.0,N,A*21
$WIMWV,236.6,R,7.4,N,A*21
$WIMWV,236.2,R,7.4,N,A*25
$GPRMC,104028.000,A,5412.3760,N,01205.7043,E,4.17,7.22,020621,,,A*65
$GPVTG,7.22,T,,M,4.17,N,7.7,K,A*08
$WIMWV,235.7,R,7.4,N,A*23
$WIMWV,233.4,R,7.4,N,A*26
$WIMWV,232.6,R,7.4,N,A*25
$WIMWV,237.0,R,7.4,N,A*26
$WIMWV,237.3,R,7.8,N,A*29
$WIMWV,238.8,R,7.0,N,A*25
$WIMWV,237.9,R,7.4,N,A*2f
$WIMWV,234.8,R,7.4,N,A*2d
$WIMWV,233.5,R,7.4,N,A*27
$WIMWV,233.4,R,7.0,N,A*22
$GPRMC,104029.000,A,5412.3771,N,01205.7045,E,3.87,6.98,020621,,,A*6C
$GPVTG,6.98,T,,M,3.87,N,7.2,K,A*03
$WIMWV,231.3,R,7.0,N,A*27
$WIMWV,230.1,R,7.4,N,A*20
$WIMWV,230.3,R,7.0,N,A*26
$WIMWV,232.5,R,7.0,N,A*22
$WIMWV,239.0,R,7.0,N,A*2c
$WIMWV,241.0,R,7.0,N,A*23
$WIMWV,241.7,R,7.4,N,A*20
$WIMWV,242.1,R,7.0,N,A*21
$WIMWV,244.3,R,7.4,N,A*21
$WIMWV,244.5,R,7.0,N,A*23
$GPRMC,104030.000,A,5412.3782,N,01205.7046,E,4.17,4.80,020621,,,A*6E
$GPVTG,4.80,T,,M,4.17,N,7.7,K,A*03
$WIMWV,245.4,R,7.4,N,A*27
$WIMWV,243.7,R,7.4,N,A*22
$WIMWV,242.5,R,7.4,N,A*21
$WIMWV,240.1,R,7.4,N,A*27
$WIMWV,237.0,R,7.4,N,A*26
$WIMWV,230.5,R,7.4,N,A*24
$WIMWV,228.6,R,7.4,N,A*2e
$WIMWV,231.9,R,7.4,N,A*29
$WIMWV,238.4,R,7.4,N,A*2d
$WIMWV,241.3,R,7.4,N,A*24
$GPRMC,104031.000,A,5412.3793,N,01205.7048,E,3.99,5.73,020621,,,A*6D
$GPVTG,5.73,T,,M,3.99,N,7.4,K,A*0C
$WIMWV,237.9,R,7.4,N,A*2f
$WIMWV,232.2,R,7.8,N,A*2d
$WIMWV,230.0,R,7.0,N,A*25
$WIMWV,235.5,R,7.4,N,A*21
$WIMWV,244.2,R,7.4,N,A*20
$WIMWV,247.1,R,7.0,N,A*24
$WIMWV,239.5,R,7.0,N,A*29
$WIMWV,232.9,R,7.0,N,A*2e
$WIMWV,225.6,R,6.5,N,A*23
$WIMWV,224.7,R,7.0,N,A*27
$GPRMC,104032.000,A,5412.3805,N,01205.7050,E,4.23,4.75,020621,,,A*66
$GPVTG,4.75,T,,M,4.23,N,7.8,K,A*01
$WIMWV,230.3,R,7.4,N,A*22
$WIMWV,239.9,R,7.0,N,A*25
$WIMWV,244.4,R,7.0,N,A*22
$WIMWV,241.4,R,7.0,N,A*27
$WIMWV,235.0,R,7.4,N,A*24
$WIMWV,230.1,R,7.0,N,A*24
$WIMWV,230.6,R,7.4,N,A*27
$WIMWV,232.8,R,7.4,N,A*2b
$WIMWV,230.6,R,7.4,N,A*27
$WIMWV,228.9,R,7.4,N,A*21
$GPRMC,104033.000,A,5412.3818,N,01205.7053,E,4.23,5.95,020621,,,A*67
$GPVTG,5.95,T,,M,4.23,N,7.8,K,A*0E
$WIMWV,230.7,R,7.4,N,A*26
$WIMWV,236.0,R,7.4,N,A*27
$WIMWV,238.3,R,7.4,N,A*2a
$WIMWV,237.4,R,7.0,N,A*26
$WIMWV,235.2,R,7.4,N,A*26
$WIMWV,237.9,R,7.0,N,A*2b
$WIMWV,241.3,R,7.4,N,A*24
$WIMWV,245.2,R,7.0,N,A*25
$WIMWV,248.1,R,7.0,N,A*2b
$WIMWV,246.6,R,6.5,N,A*26
$GPRMC,104034.000,A,5412.3830,N,01205.7054,E,4.19,5.29,020621,,,A*63
$GPVTG,5.29,T,,M,4.19,N,7.8,K,A*00
$WIMWV,241.6,R,7.0,N,A*25
$WIMWV,236.6,R,7.0,N,A*25
$WIMWV,232.0,R,6.5,N,A*23
$WIMWV,230.4,R,7.0,N,A*21
$WIMWV,231.9,R,6.5,N,A*29
$WIMWV,234.6,R,7.0,N,A*27
$WIMWV,237.9,R,7.0,N,A*2b
$WIMWV,239.1,R,6.5,N,A*29
$WIMWV,232.8,R,7.0,N,A*2f
$WIMWV,235.4,R,7.0,N,A*24
$GPRMC,104035.000,A,5412.3841,N,01205.7056,E,4.08,5.87,020621,,,A*62
$GPVTG,5.87,T,,M,4.08,N,7.6,K,A*0A
$WIMWV,240.8,R,7.0,N,A*2a
$WIMWV,245.9,R,6.5,N,A*2a
$WIMWV,245.4,R,7.0,N,A*23
$WIMWV,243.8,R,6.5,N,A*2d
$WIMWV,239.0,R,7.0,N,A*2c
$WIMWV,234.0,R,6.6,N,A*26
$WIMWV,229.7,R,7.0,N,A*2a
$WIMWV,227.7,R,7.0,N,A*24
$WIMWV,229.2,R,7.0,N,A*2f
$WIMWV,233.3,R,7.0,N,A*25
$GPRMC,104036.000,A,5412.3853,N,01205.7059,E,4.13,7.83,020621,,,A*61
$GPVTG,7.83,T,,M,4.13,N,7.6,K,A*06
$WIMWV,237.1,R,7.0,N,A*23
$WIMWV,236.5,R,7.0,N,A*26
$WIMWV,235.0,R,7.4,N,A*24
$WIMWV,235.7,R,7.0,N,A*27
$WIMWV,236.4,R,7.0,N,A*27
$WIMWV,235.4,R,7.4,N,A*20
$WIMWV,236.0,R,7.0,N,A*23
$WIMWV,235.2,R,7.4,N,A*26
$WIMWV,233.8,R,7.4,N,A*2a
$WIMWV,234.3,R,7.4,N,A*26
$GPRMC,104037.000,A,5412.3864,N,01205.7062,E,3.85,7.60,020621,,,A*69
$GPVTG,7.60,T,,M,3.85,N,7.1,K,A*04
$WIMWV,235.3,R,7.4,N,A*27
$WIMWV,235.0,R,7.4,N,A*24
$WIMWV,233.7,R,7.4,N,A*25
$WIMWV,228.9,R,7.4,N,A*21
$WIMWV,226.2,R,7.4,N,A*24
$WIMWV,230.4,R,7.8,N,A*29
$WIMWV,235.7,R,7.4,N,A*23
$WIMWV,239.4,R,7.4,N,A*2c
$WIMWV,238.9,R,7.4,N,A*20
$WIMWV,240.1,R,7.0,N,A*23
$GPRMC,104038.000,A,5412.3875,N,01205.7063,E,3.93,5.22,020621,,,A*64
$GPVTG,5.22,T,,M,3.93,N,7.3,K,A*05
$WIMWV,240.4,R,7.0,N,A*26
$WIMWV,243.0,R,7.4,N,A*25
$WIMWV,245.2,R,7.0,N,A*25
$WIMWV,243.8,R,6.5,N,A*2d
$WIMWV,243.7,R,7.0,N,A*26
$WIMWV,241.4,R,7.0,N,A*27
$WIMWV,237.0,R,7.0,N,A*22
$WIMWV,232.2,R,6.5,N,A*21
$WIMWV,226.4,R,7.0,N,A*26
$WIMWV,223.4,R,6.5,N,A*27
$GPRMC,104039.000,A,5412.3886,N,01205.7065,E,3.82,7.03,020621,,,A*6E
$GPVTG,7.03,T,,M,3.82,N,7.1,K,A*06
$WIMWV,223.1,R,7.0,N,A*26
$WIMWV,227.0,R,6.5,N,A*27
$WIMWV,234.4,R,7.0,N,A*25
$WIMWV,238.5,R,7.0,N,A*28
$WIMWV,242.2,R,6.5,N,A*26
$WIMWV,237.4,R,7.0,N,A*26
$WIMWV,236.0,R,7.0,N,A*23
$WIMWV,237.2,R,6.5,N,A*24
$WIMWV,240.5,R,7.0,N,A*27
$WIMWV,241.6,R,7.0,N,A*25
$GPRMC,104040.000,A,5412.3896,N,01205.7067,E,3.77,5.92,020621,,,A*63
$GPVTG,5.92,T,,M,3.77,N,7.0,K,A*07
$WIMWV,240.8,R,6.5,N,A*2e
$WIMWV,239.9,R,7.0,N,A*25
$WIMWV,239.4,R,7.0,N,A*28
$WIMWV,239.4,R,6.6,N,A*2f
$WIMWV,236.9,R,7.0,N,A*2a
$WIMWV,233.2,R,6.6,N,A*23
$WIMWV,229.2,R,7.0,N,A*2f
$WIMWV,226.3,R,7.0,N,A*21
$WIMWV,225.6,R,7.0,N,A*27
$WIMWV,229.6,R,7.0,N,A*2b
$GPRMC,104041.000,A,5412.3907,N,01205.7069,E,3.90,6.85,020621,,,A*69
$GPVTG,6.85,T,,M,3.90,N,7.2,K,A*09
$WIMWV,234.8,R,7.0,N,A*29
$WIMWV,235.0,R,7.0,N,A*20
$WIMWV,235.3,R,7.0,N,A*23
$WIMWV,235.2,R,7.0,N,A*22
$WIMWV,234.9,R,7.0,N,A*28
$WIMWV,236.1,R,6.5,N,A*26
$WIMWV,235.2,R,7.0,N,A*22
$WIMWV,237.9,R,7.0,N,A*2b
$WIMWV,236.6,R,6.5,N,A*21
$WIMWV,236.7,R,6.5,N,A*20
$GPRMC,104042.000,A,5412.3918,N,01205.7070,E,3.96,5.32,020621,,,A*65
$GPVTG,5.32,T,,M,3.96,N,7.3,K,A*01
$WIMWV,231.5,R,6.2,N,A*22
$WIMWV,226.3,R,6.2,N,A*22
$WIMWV,222.0,R,6.1,N,A*26
$WIMWV,220.2,R,6.5,N,A*22
$WIMWV,223.6,R,6.1,N,A*21
$WIMWV,233.7,R,6.5,N,A*25
$WIMWV,244.7,R,6.2,N,A*22
$WIMWV,247.8,R,6.5,N,A*29
$WIMWV,248.1,R,6.5,N,A*2f
$WIMWV,240.6,R,6.2,N,A*27
$GPRMC,104043.000,A,5412.3928,N,01205.7071,E,3.65,6.42,020621,,,A*6E
$GPVTG,6.42,T,,M,3.65,N,6.8,K,A*03
$WIMWV,231.7,R,6.5,N,A*27
$WIMWV,229.8,R,6.5,N,A*21
$WIMWV,229.7,R,6.5,N,A*2e
$WIMWV,235.8,R,6.5,N,A*2c
$WIMWV,241.4,R,7.0,N,A*27
$WIMWV,240.2,R,6.5,N,A*24
$WIMWV,232.8,R,6.5,N,A*2b
$WIMWV,232.0,R,7.0,N,A*27
$WIMWV,236.8,R,6.6,N,A*2c
$WIMWV,240.0,R,7.0,N,A*22
$GPRMC,104044.000,A,5412.3938,N,01205.7072,E,4.23,7.88,020621,,,A*69
$GPVTG,7.88,T,,M,4.23,N,7.8,K,A*00
$WIMWV,241.1,R,7.0,N,A*22
$WIMWV,235.3,R,7.0,N,A*23
$WIMWV,228.3,R,7.0,N,A*2f
$WIMWV,227.0,R,6.5,N,A*27
$WIMWV,236.1,R,7.0,N,A*22
$WIMWV,241.1,R,7.0,N,A*22
$WIMWV,238.5,R,7.0,N,A*28
$WIMWV,229.6,R,7.0,N,A*2b
$WIMWV,222.1,R,7.0,N,A*27
$WIMWV,222.6,R,6.5,N,A*24
$GPRMC,104045.000,A,5412.3949,N,01205.7074,E,4.09,6.92,020621,,,A*6A
$GPVTG,6.92,T,,M,4.09,N,7.6,K,A*0C
$WIMWV,231.4,R,7.0,N,A*20
$WIMWV,234.2,R,7.0,N,A*23
$WIMWV,233.9,R,6.5,N,A*2b
$WIMWV,234.4,R,7.0,N,A*25
$WIMWV,236.0,R,7.0,N,A*23
$WIMWV,238.3,R,7.0,N,A*2e
$WIMWV,238.1,R,7.0,N,A*2c
$WIMWV,236.5,R,6.5,N,A*22
$WIMWV,233.9,R,7.0,N,A*2f
$WIMWV,230.4,R,7.0,N,A*21
$GPRMC,104046.000,A,5412.3960,N,01205.7076,E,4.06,5.94,020621,,,A*6A
$GPVTG,5.94,T,,M,4.06,N,7.5,K,A*05
$WIMWV,229.3,R,7.0,N,A*2e
$WIMWV,230.3,R,7.0,N,A*26
$WIMWV,230.5,R,7.0,N,A*20
$WIMWV,231.3,R,7.0,N,A*27
$WIMWV,231.4,R,7.0,N,A*20
$WIMWV,232.1,R,7.0,N,A*26
$WIMWV,230.7,R,7.0,N,A*22
$WIMWV,229.6,R,7.4,N,A*2f
$WIMWV,227.6,R,7.0,N,A*25
$WIMWV,224.9,R,7.4,N,A*2d
$GPRMC,104047.000,A,5412.3971,N,01205.7077,E,4.15,7.20,020621,,,A*65
$GPVTG,7.20,T,,M,4.15,N,7.7,K,A*08
$WIMWV,225.2,R,7.0,N,A*23
$WIMWV,224.8,R,7.4,N,A*2c
$WIMWV,227.3,R,7.4,N,A*24
$WIMWV,230.6,R,7.0,N,A*23
$WIMWV,232.2,R,7.4,N,A*21
$WIMWV,235.1,R,7.4,N,A*25
$WIMWV,234.5,R,7.4,N,A*20
$WIMWV,232.7,R,7.0,N,A*20
$WIMWV,230.9,R,7.4,N,A*28
$WIMWV,232.0,R,7.4,N,A*23
$GPRMC,104048.000,A,5412.3983,N,01205.7079,E,3.99,6.63,020621,,,A*6C
$GPVTG,6.63,T,,M,3.99,N,7.4,K,A*0E
$WIMWV,231.3,R,7.4,N,A*23
$WIMWV,229.3,R,7.0,N,A*2e
$WIMWV,229.4,R,7.4,N,A*2d
$WIMWV,231.0,R,7.0,N,A*24
$WIMWV,230.4,R,7.4,N,A*25
$WIMWV,226.3,R,7.0,N,A*21
$WIMWV,224.1,R,7.0,N,A*21
$WIMWV,226.1,R,7.0,N,A*23
$WIMWV,236.2,R,7.0,N,A*21
$WIMWV,246.7,R,7.0,N,A*23
$GPRMC,104049.000,A,5412.3993,N,01205.7082,E,3.93,8.25,020621,,,A*6E
$GPVTG,8.25,T,,M,3.93,N,7.3,K,A*0F
$WIMWV,246.2,R,7.0,N,A*26
$WIMWV,240.0,R,7.0,N,A*22
$WIMWV,233.6,R,6.5,N,A*24
$WIMWV,230.4,R,7.0,N,A*21
$WIMWV,231.8,R,6.5,N,A*28
$WIMWV,234.1,R,7.0,N,A*20
$WIMWV,234.2,R,6.5,N,A*27
$WIMWV,230.9,R,7.0,N,A*2c
$WIMWV,226.4,R,6.5,N,A*22
$WIMWV,224.7,R,7.0,N,A*27
$GPRMC,104050.000,A,5412.4004,N,01205.7085,E,3.79,8.69,020621,,,A*6D
$GPVTG,8.69,T,,M,3.79,N,7.0,K,A*00
$WIMWV,224.0,R,7.0,N,A*20
$WIMWV,226.3,R,7.0,N,A*21
$WIMWV,228.8,R,6.5,N,A*20
$WIMWV,229.9,R,7.0,N,A*24
$WIMWV,228.7,R,7.0,N,A*2b
$WIMWV,226.2,R,7.0,N,A*20
$WIMWV,225.5,R,6.5,N,A*20
$WIMWV,228.8,R,7.0,N,A*24
$WIMWV,232.6,R,7.0,N,A*21
$WIMWV,234.0,R,7.0,N,A*21
$WIMWV,232.1,R,7.0,N,A*26
$WIMWV,230.4,R,7.0,N,A*21
$WIMWV,229.4,R,7.0,N,A*29
$WIMWV,230.8,R,7.4,N,A*29
$GPRMC,104051.000,A,5412.4015,N,01205.7089,E,3.63,8.79,020621,,,A*6A
$GPVTG,8.79,T,,M,3.63,N,6.7,K,A*0C
$WIMWV,232.1,R,7.0,N,A*26
$WIMWV,233.1,R,7.0,N,A*27
$WIMWV,235.6,R,7.4,N,A*22
$WIMWV,234.7,R,7.0,N,A*26
$WIMWV,231.9,R,7.4,N,A*29
$WIMWV,231.3,R,7.4,N,A*23
$WIMWV,231.4,R,7.0,N,A*20
$WIMWV,231.3,R,7.4,N,A*23
$WIMWV,231.4,R,7.4,N,A*24
$WIMWV,230.6,R,7.4,N,A*27
$WIMWV,230.1,R,7.0,N,A*24
$WIMWV,228.9,R,7.4,N,A*21
$GPRMC,104052.000,A,5412.4025,N,01205.7092,E,4.08,9.23,020621,,,A*64
$GPVTG,9.23,T,,M,4.08,N,7.5,K,A*0B
$WIMWV,225.1,R,7.0,N,A*20
$WIMWV,221.1,R,7.4,N,A*20
$WIMWV,220.4,R,7.0,N,A*20
$WIMWV,226.2,R,7.0,N,A*20
$WIMWV,233.3,R,7.4,N,A*21
$WIMWV,235.7,R,7.0,N,A*27
$WIMWV,229.9,R,7.4,N,A*20
$WIMWV,222.4,R,7.0,N,A*22
$WIMWV,224.8,R,7.4,N,A*2c
$WIMWV,235.3,R,7.4,N,A*27
$WIMWV,243.7,R,7.4,N,A*22
$WIMWV,241.7,R,7.4,N,A*20
$GPRMC,104053.000,A,5412.4037,N,01205.7094,E,4.02,7.27,020621,,,A*60
$GPVTG,7.27,T,,M,4.02,N,7.4,K,A*0A
$WIMWV,231.8,R,7.4,N,A*28
$WIMWV,229.2,R,7.4,N,A*2b
$WIMWV,231.2,R,7.4,N,A*22
$WIMWV,234.8,R,7.4,N,A*2d
$WIMWV,237.6,R,7.8,N,A*2c
$WIMWV,237.8,R,7.8,N,A*22
$WIMWV,235.7,R,7.4,N,A*23
$WIMWV,232.4,R,7.8,N,A*2b
$WIMWV,233.1,R,7.8,N,A*2f
$WIMWV,234.6,R,7.8,N,A*2f
$WIMWV,236.7,R,7.4,N,A*20
$WIMWV,234.7,R,7.8,N,A*2e
$GPRMC,104054.000,A,5412.4048,N,01205.7098,E,4.14,9.39,020621,,,A*65
$GPVTG,9.39,T,,M,4.14,N,7.7,K,A*0F
$WIMWV,230.2,R,7.8,N,A*2f
$WIMWV,229.7,R,7.4,N,A*2e
$WIMWV,234.4,R,7.4,N,A*21
$WIMWV,239.1,R,7.8,N,A*25
$WIMWV,241.2,R,7.4,N,A*25
$WIMWV,242.7,R,7.8,N,A*2f
$WIMWV,243.0,R,7.8,N,A*29
$WIMWV,242.8,R,7.4,N,A*2c
$WIMWV,245.2,R,7.8,N,A*2d
$WIMWV,245.6,R,7.4,N,A*25
$WIMWV,243.3,R,7.4,N,A*26
$WIMWV,239.7,R,7.4,N,A*2f
$GPRMC,104055.000,A,5412.4059,N,01205.7102,E,3.76,9.45,020621,,,A*6E
$GPVTG,9.45,T,,M,3.76,N,7.0,K,A*00
$WIMWV,235.0,R,7.4,N,A*24
$WIMWV,236.5,R,7.0,N,A*26
$WIMWV,238.7,R,7.4,N,A*2e
$WIMWV,239.7,R,7.8,N,A*23
$WIMWV,235.8,R,7.0,N,A*28
$WIMWV,232.5,R,7.4,N,A*26
$WIMWV,233.7,R,7.4,N,A*25
$WIMWV,237.9,R,7.4,N,A*2f
$WIMWV,241.3,R,7.4,N,A*24
$WIMWV,240.3,R,7.0,N,A*21
$GPRMC,104056.000,A,5412.4070,N,01205.7103,E,3.84,11.90,020621,,,A*5B
$GPVTG,11.90,T,,M,3.84,N,7.1,K,A*3D
$WIMWV,230.4,R,7.0,N,A*21
$WIMWV,216.2,R,7.4,N,A*27
$WIMWV,216.7,R,7.0,N,A*26
$WIMWV,227.6,R,7.0,N,A*25
$WIMWV,242.1,R,7.0,N,A*21
$GPRMC,104057.000,A,5412.4081,N,01205.7106,E,3.87,10.15,020621,,,A*5E
$GPVTG,10.15,T,,M,3.87,N,7.2,K,A*31
$WIMWV,246.4,R,7.0,N,A*20
$WIMWV,245.9,R,7.0,N,A*2e
$WIMWV,236.2,R,7.0,N,A*21
$WIMWV,227.7,R,7.0,N,A*24
$WIMWV,229.1,R,7.0,N,A*2c
$GPRMC,104058.000,A,5412.4093,N,01205.7108,E,4.08,8.78,020621,,,A*6E
$GPVTG,8.78,T,,M,4.08,N,7.6,K,A*07
$WIMWV,239.4,R,7.0,N,A*28
$WIMWV,245.9,R,7.0,N,A*2e
$WIMWV,244.5,R,7.0,N,A*23
$WIMWV,236.7,R,7.4,N,A*20
$WIMWV,227.7,R,7.0,N,A*24
$WIMWV,227.4,R,7.4,N,A*23
$WIMWV,236.5,R,7.4,N,A*22
$WIMWV,246.2,R,7.8,N,A*2e
$GPRMC,104059.000,A,5412.4103,N,01205.7112,E,4.08,10.55,020621,,,A*5A
$GPVTG,10.55,T,,M,4.08,N,7.6,K,A*31
$WIMWV,246.6,R,7.8,N,A*2a
$WIMWV,240.4,R,7.8,N,A*2e
$WIMWV,241.0,R,7.8,N,A*2b
$WIMWV,237.0,R,7.8,N,A*2a
$WIMWV,238.8,R,7.4,N,A*21
$WIMWV,238.8,R,7.8,N,A*2d
$WIMWV,241.6,R,7.8,N,A*2d
$WIMWV,243.4,R,7.8,N,A*2d
$WIMWV,241.2,R,7.8,N,A*29
$WIMWV,236.5,R,7.4,N,A*22
$WIMWV,233.6,R,7.8,N,A*28
$GPRMC,104100.000,A,5412.4115,N,01205.7115,E,4.15,7.97,020621,,,A*63
$GPVTG,7.97,T,,M,4.15,N,7.7,K,A*04
$WIMWV,231.7,R,7.4,N,A*27
$WIMWV,230.8,R,7.4,N,A*29
$WIMWV,232.6,R,7.0,N,A*21
$WIMWV,234.2,R,7.4,N,A*27
$WIMWV,237.2,R,7.4,N,A*24
$WIMWV,238.4,R,7.0,N,A*29
$WIMWV,239.2,R,7.4,N,A*2a
$WIMWV,239.4,R,7.4,N,A*2c
$WIMWV,239.4,R,7.0,N,A*28
$WIMWV,240.5,R,7.4,N,A*23
$GPRMC,104101.000,A,5412.4126,N,01205.7119,E,4.16,9.05,020621,,,A*68
$GPVTG,9.05,T,,M,4.16,N,7.7,K,A*02
$WIMWV,241.5,R,7.4,N,A*22
$WIMWV,239.8,R,7.4,N,A*20
$WIMWV,239.3,R,7.4,N,A*2b
$WIMWV,239.0,R,7.4,N,A*28
$WIMWV,238.7,R,7.4,N,A*2e
$WIMWV,236.0,R,7.4,N,A*27
$WIMWV,231.2,R,7.0,N,A*26
$WIMWV,228.6,R,7.4,N,A*2e
$WIMWV,228.0,R,7.4,N,A*28
$GPRMC,104102.000,A,5412.4138,N,01205.7122,E,4.47,9.08,020621,,,A*65
$GPVTG,9.08,T,,M,4.47,N,8.3,K,A*00
$WIMWV,233.1,R,7.4,N,A*23
$WIMWV,238.5,R,7.4,N,A*2c
$WIMWV,239.6,R,7.4,N,A*2e
$WIMWV,240.3,R,7.8,N,A*29
$WIMWV,240.1,R,7.4,N,A*27
$WIMWV,240.8,R,7.4,N,A*2e
$WIMWV,242.3,R,7.4,N,A*27
$WIMWV,240.3,R,7.4,N,A*25
$WIMWV,235.8,R,7.0,N,A*28
$WIMWV,231.3,R,7.4,N,A*23
$GPRMC,104103.000,A,5412.4150,N,01205.7124,E,3.97,7.27,020621,,,A*65
$GPVTG,7.27,T,,M,3.97,N,7.4,K,A*01
$WIMWV,229.1,R,7.4,N,A*28
$WIMWV,224.4,R,7.8,N,A*2c
$WIMWV,218.7,R,7.4,N,A*2c
$WIMWV,222.5,R,7.8,N,A*2b
$WIMWV,235.0,R,7.8,N,A*28
$WIMWV,241.6,R,7.8,N,A*2d
$WIMWV,240.8,R,7.8,N,A*22
$WIMWV,235.3,R,7.8,N,A*2b
$WIMWV,237.1,R,8.2,N,A*2e
$WIMWV,245.2,R,7.8,N,A*2d
$GPRMC,104104.000,A,5412.4161,N,01205.7127,E,4.45,8.92,020621,,,A*6A
$GPVTG,8.92,T,,M,4.45,N,8.2,K,A*01
$WIMWV,248.1,R,7.8,N,A*23
$WIMWV,246.1,R,8.2,N,A*28
$WIMWV,241.3,R,7.8,N,A*28
$WIMWV,242.0,R,7.8,N,A*28
$WIMWV,244.1,R,7.4,N,A*23
$WIMWV,247.2,R,7.0,N,A*27
$WIMWV,245.5,R,7.4,N,A*26
$WIMWV,236.2,R,7.0,N,A*21
$WIMWV,230.3,R,7.4,N,A*22
$WIMWV,228.5,R,7.0,N,A*29
$GPRMC,104105.000,A,5412.4172,N,01205.7131,E,3.50,9.58,020621,,,A*6A
$GPVTG,9.58,T,,M,3.50,N,6.5,K,A*0C
$WIMWV,232.5,R,7.4,N,A*26
$WIMWV,235.0,R,7.0,N,A*20
$WIMWV,231.3,R,7.4,N,A*23
$WIMWV,225.5,R,7.0,N,A*24
$WIMWV,232.5,R,7.4,N,A*26
$WIMWV,245.6,R,7.0,N,A*21
$WIMWV,254.6,R,7.0,N,A*21
$WIMWV,253.0,R,7.0,N,A*20
$WIMWV,247.2,R,7.0,N,A*27
$WIMWV,244.8,R,7.0,N,A*2e
$GPRMC,104106.000,A,5412.4182,N,01205.7133,E,3.84,6.92,020621,,,A*64
$GPVTG,6.92,T,,M,3.84,N,7.1,K,A*09
$WIMWV,244.2,R,7.0,N,A*24
$WIMWV,246.9,R,7.0,N,A*2d
$WIMWV,246.5,R,7.0,N,A*21
$WIMWV,244.5,R,6.6,N,A*24
$WIMWV,238.4,R,7.0,N,A*29
$WIMWV,231.7,R,7.0,N,A*23
$WIMWV,230.1,R,7.0,N,A*24
$WIMWV,235.1,R,7.4,N,A*25
$WIMWV,237.2,R,7.0,N,A*20
$WIMWV,234.7,R,7.4,N,A*22
$GPRMC,104107.000,A,5412.4193,N,01205.7134,E,3.51,6.31,020621,,,A*63
$GPVTG,6.31,T,,M,3.51,N,6.5,K,A*0D
$WIMWV,232.1,R,7.0,N,A*26
$WIMWV,230.4,R,7.4,N,A*25
$WIMWV,229.9,R,7.0,N,A*24
$WIMWV,232.0,R,7.0,N,A*27
$WIMWV,229.5,R,7.0,N,A*28
$WIMWV,229.9,R,7.4,N,A*20
$WIMWV,233.1,R,7.0,N,A*27
$WIMWV,235.1,R,7.0,N,A*21
$WIMWV,235.0,R,7.0,N,A*20
$WIMWV,236.4,R,7.4,N,A*23
$GPRMC,104108.000,A,5412.4205,N,01205.7134,E,4.12,1.46,020621,,,A*67
$GPVTG,1.46,T,,M,4.12,N,7.6,K,A*08
$WIMWV,235.0,R,7.0,N,A*20
$WIMWV,236.9,R,7.0,N,A*2a
$WIMWV,237.3,R,7.0,N,A*21
$WIMWV,233.7,R,7.4,N,A*25
$WIMWV,230.6,R,7.4,N,A*27
$WIMWV,227.6,R,7.4,N,A*21
$WIMWV,229.3,R,7.4,N,A*2a
$WIMWV,233.6,R,7.4,N,A*24
$WIMWV,236.5,R,7.8,N,A*2e
$WIMWV,239.4,R,7.8,N,A*20
$GPRMC,104109.000,A,5412.4217,N,01205.7135,E,3.88,3.47,020621,,,A*63
$GPVTG,3.47,T,,M,3.88,N,7.2,K,A*0B
$WIMWV,241.0,R,7.8,N,A*2b
$WIMWV,232.4,R,7.8,N,A*2b
$WIMWV,221.8,R,8.2,N,A*20
$WIMWV,224.2,R,8.6,N,A*2b
$WIMWV,241.6,R,8.6,N,A*2c
$WIMWV,253.2,R,8.6,N,A*2b
$WIMWV,247.9,R,9.0,N,A*22
$WIMWV,240.1,R,9.0,N,A*2d
$WIMWV,239.4,R,9.0,N,A*26
$WIMWV,246.5,R,8.6,N,A*28
$GPRMC,104110.000,A,5412.4230,N,01205.7136,E,4.34,3.34,020621,,,A*69
$GPVTG,3.34,T,,M,4.34,N,8.0,K,A*02
$WIMWV,249.4,R,9.0,N,A*21
$WIMWV,247.1,R,8.6,N,A*2d
$WIMWV,242.0,R,8.2,N,A*2d
$WIMWV,235.9,R,8.6,N,A*20
$WIMWV,232.9,R,8.6,N,A*27
$WIMWV,231.3,R,8.6,N,A*2e
$WIMWV,235.0,R,9.0,N,A*2e
$WIMWV,239.7,R,9.0,N,A*25
$WIMWV,243.6,R,9.0,N,A*29
$WIMWV,248.0,R,9.4,N,A*20
$GPRMC,104111.000,A,5412.4242,N,01205.7138,E,4.35,3.55,020621,,,A*65
$GPVTG,3.55,T,,M,4.35,N,8.1,K,A*05
$WIMWV,249.3,R,9.4,N,A*22
$WIMWV,244.8,R,9.4,N,A*24
$WIMWV,240.5,R,9.4,N,A*2d
$WIMWV,237.9,R,9.4,N,A*21
$WIMWV,245.0,R,9.8,N,A*21
$WIMWV,243.4,R,9.8,N,A*23
$WIMWV,244.2,R,9.8,N,A*22
$WIMWV,245.0,R,9.4,N,A*2d
$WIMWV,243.6,R,9.8,N,A*21
$WIMWV,245.2,R,9.8,N,A*23
$GPRMC,104112.000,A,5412.4255,N,01205.7139,E,4.61,2.61,020621,,,A*66
$GPVTG,2.61,T,,M,4.61,N,8.5,K,A*06
$WIMWV,244.5,R,10.2,N,A*17
$WIMWV,242.9,R,10.2,N,A*1d
$WIMWV,241.3,R,9.8,N,A*26
$WIMWV,242.8,R,10.2,N,A*1c
$WIMWV,243.7,R,9.8,N,A*20
$WIMWV,243.0,R,9.8,N,A*27
$WIMWV,242.4,R,9.8,N,A*22
$WIMWV,238.6,R,9.8,N,A*2d
$WIMWV,237.9,R,9.8,N,A*2d
$WIMWV,240.0,R,10.2,N,A*16
$GPRMC,104113.000,A,5412.4268,N,01205.7139,E,4.56,1.68,020621,,,A*67
$GPVTG,1.68,T,,M,4.56,N,8.4,K,A*09
$WIMWV,241.7,R,9.8,N,A*22
$WIMWV,243.0,R,9.8,N,A*27
$WIMWV,241.9,R,9.8,N,A*2c
$WIMWV,235.2,R,10.2,N,A*16
$WIMWV,231.8,R,9.8,N,A*2a
$WIMWV,235.9,R,9.8,N,A*2f
$WIMWV,245.0,R,9.4,N,A*2d
$WIMWV,244.3,R,9.8,N,A*23
$WIMWV,235.0,R,9.8,N,A*26
$WIMWV,231.1,R,9.4,N,A*2f
$GPRMC,104114.000,A,5412.4281,N,01205.7141,E,4.78,1.78,020621,,,A*65
$GPVTG,1.78,T,,M,4.78,N,8.9,K,A*09
$WIMWV,234.3,R,9.8,N,A*24
$WIMWV,231.7,R,9.8,N,A*25
$WIMWV,229.0,R,9.8,N,A*2b
$WIMWV,232.0,R,10.2,N,A*13
$WIMWV,241.2,R,9.8,N,A*27
$WIMWV,243.1,R,9.8,N,A*26
$WIMWV,234.5,R,10.6,N,A*14
$WIMWV,229.5,R,10.6,N,A*18
$WIMWV,243.0,R,10.2,N,A*15
$WIMWV,250.8,R,10.2,N,A*1f
$GPRMC,104115.000,A,5412.4294,N,01205.7142,E,5.04,1.89,020621,,,A*67
$GPVTG,1.89,T,,M,5.04,N,9.3,K,A*06
$WIMWV,234.9,R,10.6,N,A*18
$WIMWV,226.0,R,11.0,N,A*15
$WIMWV,244.4,R,11.0,N,A*15
$WIMWV,249.3,R,11.4,N,A*1b
$WIMWV,241.6,R,11.8,N,A*1a
$WIMWV,243.0,R,12.2,N,A*17
$WIMWV,245.5,R,11.8,N,A*1d
$WIMWV,245.2,R,12.2,N,A*13
$WIMWV,241.5,R,11.4,N,A*15
$WIMWV,234.1,R,12.2,N,A*16
$GPRMC,104116.000,A,5412.4309,N,01205.7146,E,5.08,3.39,020621,,,A*60
$GPVTG,3.39,T,,M,5.08,N,9.4,K,A*04
$WIMWV,233.6,R,12.2,N,A*16
$WIMWV,239.0,R,12.2,N,A*1a
$WIMWV,243.7,R,12.7,N,A*15
$WIMWV,242.5,R,12.7,N,A*16
$WIMWV,240.1,R,12.2,N,A*15
$WIMWV,249.3,R,12.2,N,A*1e
$WIMWV,250.3,R,12.2,N,A*16
$WIMWV,242.8,R,11.8,N,A*17
$WIMWV,241.3,R,11.4,N,A*13
$WIMWV,242.3,R,11.4,N,A*10
$GPRMC,104117.000,A,5412.4323,N,01205.7147,E,5.28,2.52,020621,,,A*66
$GPVTG,2.52,T,,M,5.28,N,9.8,K,A*06
$WIMWV,237.9,R,11.4,N,A*18
$WIMWV,228.5,R,11.0,N,A*1e
$WIMWV,225.1,R,11.8,N,A*1f
$WIMWV,237.8,R,11.8,N,A*15
$WIMWV,250.7,R,12.2,N,A*12
$WIMWV,246.3,R,12.2,N,A*11
$WIMWV,240.4,R,12.2,N,A*10
$WIMWV,240.7,R,12.7,N,A*16
$WIMWV,251.6,R,12.7,N,A*17
$WIMWV,256.0,R,12.2,N,A*13
$GPRMC,104118.000,A,5412.4338,N,01205.7148,E,5.51,3.98,020621,,,A*65
$GPVTG,3.98,T,,M,5.51,N,10.2,K,A*3D
$WIMWV,253.6,R,12.7,N,A*15
$WIMWV,257.0,R,11.8,N,A*1b
$WIMWV,256.3,R,11.8,N,A*19
$WIMWV,247.9,R,11.4,N,A*1f
$WIMWV,236.5,R,11.0,N,A*11
$WIMWV,230.6,R,11.0,N,A*14
$WIMWV,227.0,R,10.2,N,A*17
$WIMWV,229.8,R,11.0,N,A*12
$WIMWV,243.9,R,11.0,N,A*1f
$WIMWV,244.4,R,11.0,N,A*15
$GPRMC,104119.000,A,5412.4353,N,01205.7151,E,5.29,4.69,020621,,,A*67
$GPVTG,4.69,T,,M,5.29,N,9.8,K,A*09
$WIMWV,236.0,R,11.8,N,A*1c
$WIMWV,240.1,R,11.4,N,A*10
$WIMWV,244.6,R,11.4,N,A*13
$WIMWV,245.4,R,11.4,N,A*10
$WIMWV,241.7,R,11.0,N,A*13
$WIMWV,240.7,R,11.0,N,A*12
$WIMWV,243.5,R,11.0,N,A*13
$WIMWV,245.6,R,11.0,N,A*16
$WIMWV,247.7,R,11.4,N,A*11
$WIMWV,242.9,R,11.0,N,A*1e
$GPRMC,104120.000,A,5412.4368,N,01205.7154,E,5.59,6.11,020621,,,A*6A
$GPVTG,6.11,T,,M,5.59,N,10.3,K,A*30
$WIMWV,239.4,R,11.4,N,A*1b
$WIMWV,235.1,R,11.8,N,A*1e
$WIMWV,234.6,R,11.4,N,A*14
$WIMWV,235.2,R,11.8,N,A*1d
$WIMWV,239.7,R,11.8,N,A*14
$WIMWV,239.6,R,11.8,N,A*15
$WIMWV,238.2,R,12.2,N,A*19
$WIMWV,235.7,R,11.8,N,A*18
$WIMWV,233.8,R,11.8,N,A*11
$WIMWV,229.8,R,11.4,N,A*16
$GPRMC,104121.000,A,5412.4384,N,01205.7157,E,5.86,7.17,020621,,,A*6F
$GPVTG,7.17,T,,M,5.86,N,10.8,K,A*3E
$WIMWV,229.3,R,11.4,N,A*1d
$WIMWV,237.1,R,11.4,N,A*10
$WIMWV,241.2,R,11.0,N,A*16
$WIMWV,240.1,R,11.4,N,A*10
$WIMWV,238.5,R,11.0,N,A*1f
$WIMWV,237.2,R,11.4,N,A*13
$WIMWV,235.2,R,11.0,N,A*15
$WIMWV,236.2,R,11.4,N,A*12
$WIMWV,228.6,R,11.4,N,A*19
$WIMWV,229.9,R,11.4,N,A*17
$GPRMC,104122.000,A,5412.4400,N,01205.7160,E,5.77,6.27,020621,,,A*6F
$GPVTG,6.27,T,,M,5.77,N,10.7,K,A*3D
$WIMWV,240.9,R,12.2,N,A*1d
$WIMWV,237.2,R,12.2,N,A*16
$WIMWV,230.4,R,12.6,N,A*13
$WIMWV,235.9,R,12.6,N,A*1b
$WIMWV,238.6,R,12.2,N,A*1d
$WIMWV,237.9,R,12.6,N,A*19
$WIMWV,235.0,R,12.6,N,A*12
$WIMWV,236.6,R,12.2,N,A*13
$WIMWV,245.0,R,11.8,N,A*18
$WIMWV,243.7,R,11.8,N,A*19
$GPRMC,104123.000,A,5412.4416,N,01205.7163,E,5.95,7.40,020621,,,A*66
$GPVTG,7.40,T,,M,5.95,N,11.0,K,A*37
$WIMWV,236.6,R,11.8,N,A*1a
$WIMWV,228.9,R,11.4,N,A*16
$WIMWV,226.7,R,11.0,N,A*12
$WIMWV,225.7,R,11.0,N,A*11
$WIMWV,235.6,R,11.0,N,A*11
$WIMWV,243.7,R,11.0,N,A*11
$WIMWV,235.7,R,11.4,N,A*14
$WIMWV,231.6,R,11.4,N,A*11
$WIMWV,236.7,R,11.8,N,A*1b
$WIMWV,247.1,R,11.8,N,A*1b
$GPRMC,104124.000,A,5412.4432,N,01205.7168,E,5.80,8.84,020621,,,A*6F
$GPVTG,8.84,T,,M,5.80,N,10.7,K,A*32
$WIMWV,243.0,R,11.8,N,A*1e
$WIMWV,235.7,R,11.8,N,A*18
$WIMWV,239.3,R,11.8,N,A*10
$WIMWV,243.5,R,11.8,N,A*1b
$WIMWV,242.5,R,11.8,N,A*1a
$WIMWV,243.2,R,11.4,N,A*10
$WIMWV,240.0,R,11.4,N,A*11
$WIMWV,230.7,R,11.4,N,A*11
$WIMWV,224.5,R,11.0,N,A*12
$WIMWV,228.2,R,11.0,N,A*19
$GPRMC,104125.000,A,5412.4449,N,01205.7172,E,5.89,9.07,020621,,,A*6A
$GPVTG,9.07,T,,M,5.89,N,10.9,K,A*3F
$WIMWV,228.8,R,11.4,N,A*17
$WIMWV,233.0,R,11.4,N,A*15
$WIMWV,234.9,R,11.4,N,A*1b
$WIMWV,232.2,R,11.8,N,A*1a
$WIMWV,233.1,R,11.8,N,A*18
$WIMWV,235.0,R,12.2,N,A*16
$WIMWV,236.7,R,11.8,N,A*1b
$WIMWV,235.5,R,12.2,N,A*13
$WIMWV,236.8,R,12.2,N,A*1d
$WIMWV,234.7,R,12.2,N,A*10
$GPRMC,104126.000,A,5412.4464,N,01205.7176,E,5.68,9.06,020621,,,A*6C
$GPVTG,9.06,T,,M,5.68,N,10.5,K,A*3D
$WIMWV,236.9,R,12.2,N,A*1c
$WIMWV,235.5,R,12.2,N,A*13
$WIMWV,237.5,R,12.2,N,A*11
$WIMWV,237.8,R,12.2,N,A*1c
$WIMWV,239.6,R,12.2,N,A*1c
$WIMWV,239.4,R,12.6,N,A*1a
$WIMWV,234.9,R,12.2,N,A*1e
$WIMWV,230.6,R,11.8,N,A*1c
$WIMWV,231.4,R,12.2,N,A*16
$WIMWV,235.7,R,12.7,N,A*14
$GPRMC,104127.000,A,5412.4480,N,01205.7180,E,5.82,6.20,020621,,,A*61
$GPVTG,6.20,T,,M,5.82,N,10.8,K,A*3F
$WIMWV,239.6,R,12.6,N,A*18
$WIMWV,238.0,R,12.2,N,A*1b
$WIMWV,236.6,R,12.6,N,A*17
$WIMWV,238.1,R,11.8,N,A*13
$WIMWV,244.2,R,11.8,N,A*1b
$WIMWV,250.2,R,11.4,N,A*12
$WIMWV,244.6,R,11.4,N,A*13
$WIMWV,232.2,R,11.0,N,A*12
$WIMWV,224.8,R,11.0,N,A*1f
$WIMWV,229.5,R,11.0,N,A*1f
$GPRMC,104128.000,A,5412.4496,N,01205.7183,E,6.13,7.40,020621,,,A*66
$GPVTG,7.40,T,,M,6.13,N,11.4,K,A*3E
$WIMWV,227.2,R,11.0,N,A*16
$WIMWV,222.8,R,11.4,N,A*1d
$WIMWV,225.2,R,11.4,N,A*10
$WIMWV,230.9,R,11.8,N,A*13
$WIMWV,230.1,R,11.8,N,A*1b
$WIMWV,228.8,R,12.2,N,A*12
$WIMWV,235.7,R,11.8,N,A*18
$WIMWV,237.7,R,12.2,N,A*13
$WIMWV,234.8,R,11.8,N,A*16
$WIMWV,227.4,R,11.8,N,A*18
$GPRMC,104129.000,A,5412.4512,N,01205.7187,E,5.95,7.84,020621,,,A*6B
$GPVTG,7.84,T,,M,5.95,N,11.0,K,A*3F
$WIMWV,232.0,R,11.8,N,A*18
$WIMWV,236.4,R,11.0,N,A*10
$WIMWV,234.7,R,12.2,N,A*10
$GPRMC,104130.000,A,5412.4528,N,01205.7192,E,5.77,9.79,020621,,,A*6E
$GPVTG,9.79,T,,M,5.77,N,10.7,K,A*39
$WIMWV,234.7,R,12.2,N,A*10
$WIMWV,230.6,R,11.8,N,A*1c
$WIMWV,230.4,R,11.8,N,A*1e
$WIMWV,234.2,R,12.2,N,A*15
$WIMWV,232.5,R,11.8,N,A*1d
$WIMWV,229.6,R,12.2,N,A*1d
$GPRMC,104131.000,A,5412.4544,N,01205.7198,E,5.87,12.24,020621,,,A*52
$GPVTG,12.24,T,,M,5.87,N,10.9,K,A*0A
$WIMWV,232.4,R,12.2,N,A*15
$WIMWV,238.0,R,12.2,N,A*1b
$WIMWV,233.8,R,12.2,N,A*18
$WIMWV,230.1,R,12.2,N,A*12
$WIMWV,228.3,R,12.2,N,A*19
$WIMWV,230.3,R,11.8,N,A*19
$WIMWV,230.6,R,12.2,N,A*15
$WIMWV,226.7,R,12.2,N,A*13
$WIMWV,226.0,R,12.7,N,A*11
$WIMWV,236.3,R,12.2,N,A*16
$GPRMC,104132.000,A,5412.4559,N,01205.7204,E,5.66,12.93,020621,,,A*58
$GPVTG,12.93,T,,M,5.66,N,10.5,K,A*05
$WIMWV,239.4,R,12.2,N,A*1e
$WIMWV,231.9,R,12.2,N,A*1b
$WIMWV,230.7,R,11.8,N,A*1d
$WIMWV,231.7,R,11.8,N,A*1c
$WIMWV,231.7,R,11.4,N,A*10
$WIMWV,226.4,R,11.4,N,A*15
$WIMWV,232.8,R,11.0,N,A*18
$WIMWV,234.6,R,11.4,N,A*14
$WIMWV,224.8,R,11.0,N,A*1f
$WIMWV,217.0,R,11.4,N,A*13
$GPRMC,104133.000,A,5412.4574,N,01205.7209,E,5.33,11.10,020621,,,A*53
$GPVTG,11.10,T,,M,5.33,N,9.9,K,A*39
$WIMWV,225.7,R,11.4,N,A*15
$WIMWV,236.7,R,11.4,N,A*17
$WIMWV,231.7,R,11.8,N,A*1c
$WIMWV,221.0,R,11.4,N,A*16
$WIMWV,219.7,R,11.8,N,A*16
$WIMWV,227.9,R,11.8,N,A*15
$WIMWV,229.9,R,12.2,N,A*12
$WIMWV,233.0,R,11.8,N,A*19
$WIMWV,233.8,R,11.4,N,A*1d
$WIMWV,238.0,R,11.8,N,A*12
$GPRMC,104134.000,A,5412.4589,N,01205.7213,E,5.37,11.20,020621,,,A*5A
$GPVTG,11.20,T,,M,5.37,N,10.0,K,A*0F
$WIMWV,236.0,R,11.0,N,A*14
$WIMWV,224.4,R,10.6,N,A*14
$WIMWV,229.1,R,11.0,N,A*1b
$WIMWV,241.7,R,10.6,N,A*14
$WIMWV,232.8,R,10.6,N,A*1f
$WIMWV,218.6,R,11.0,N,A*1e
$WIMWV,228.7,R,11.8,N,A*14
$WIMWV,234.3,R,11.8,N,A*1d
$WIMWV,227.6,R,12.2,N,A*13
$WIMWV,230.1,R,12.7,N,A*17
$GPRMC,104135.000,A,5412.4604,N,01205.7218,E,5.30,11.31,020621,,,A*51
$GPVTG,11.31,T,,M,5.30,N,9.8,K,A*38
$WIMWV,239.5,R,13.0,N,A*1c
$WIMWV,238.0,R,13.0,N,A*18
$WIMWV,224.9,R,13.1,N,A*1d
$WIMWV,231.8,R,13.1,N,A*18
$WIMWV,239.0,R,13.5,N,A*1c
$WIMWV,236.3,R,12.6,N,A*12
$WIMWV,227.2,R,12.6,N,A*13
$WIMWV,230.4,R,12.7,N,A*12
$WIMWV,233.9,R,13.1,N,A*1b
$WIMWV,230.1,R,13.0,N,A*11
$GPRMC,104136.000,A,5412.4619,N,01205.7223,E,5.70,12.54,020621,,,A*52
$GPVTG,12.54,T,,M,5.70,N,10.6,K,A*0A
$WIMWV,225.7,R,12.7,N,A*15
$WIMWV,229.9,R,13.1,N,A*10
$WIMWV,232.7,R,12.2,N,A*16
$WIMWV,232.8,R,12.6,N,A*1d
$WIMWV,232.1,R,13.1,N,A*12
$WIMWV,238.0,R,13.1,N,A*19
$WIMWV,246.2,R,13.1,N,A*12
$WIMWV,243.3,R,13.1,N,A*16
$WIMWV,232.9,R,13.1,N,A*1a
$WIMWV,235.5,R,13.5,N,A*15
$GPRMC,104137.000,A,5412.4634,N,01205.7229,E,5.52,13.28,020621,,,A*5C
$GPVTG,13.28,T,,M,5.52,N,10.2,K,A*04
$WIMWV,247.9,R,13.1,N,A*18
$WIMWV,251.7,R,13.1,N,A*11
$WIMWV,235.6,R,13.1,N,A*12
$WIMWV,223.8,R,13.0,N,A*1a
$WIMWV,237.2,R,13.5,N,A*10
$WIMWV,237.9,R,13.1,N,A*1f
$WIMWV,228.0,R,13.9,N,A*10
$WIMWV,236.6,R,14.3,N,A*14
$WIMWV,246.2,R,13.8,N,A*1b
$WIMWV,236.8,R,13.9,N,A*17
$GPRMC,104138.000,A,5412.4650,N,01205.7233,E,5.76,12.04,020621,,,A*53
$GPVTG,12.04,T,,M,5.76,N,10.7,K,A*08
$WIMWV,236.4,R,14.3,N,A*16
$WIMWV,243.7,R,13.8,N,A*1b
$WIMWV,246.8,R,13.5,N,A*1c
$WIMWV,245.8,R,13.5,N,A*1f
$WIMWV,245.9,R,13.5,N,A*1e
$WIMWV,241.6,R,13.1,N,A*11
$WIMWV,246.3,R,13.1,N,A*13
$WIMWV,252.9,R,13.5,N,A*18
$WIMWV,250.1,R,13.1,N,A*16
$WIMWV,253.6,R,13.5,N,A*16
$GPRMC,104139.000,A,5412.4667,N,01205.7237,E,6.01,9.73,020621,,,A*6B
$GPVTG,9.73,T,,M,6.01,N,11.1,K,A*36
$WIMWV,245.4,R,13.1,N,A*17
$WIMWV,239.9,R,13.1,N,A*11
$WIMWV,242.7,R,12.7,N,A*14
$WIMWV,246.4,R,12.7,N,A*13
$WIMWV,243.6,R,12.2,N,A*11
$WIMWV,241.5,R,12.2,N,A*10
$WIMWV,238.9,R,11.8,N,A*1b
$WIMWV,236.3,R,11.4,N,A*13
$WIMWV,234.0,R,11.4,N,A*12
$WIMWV,233.1,R,11.8,N,A*18
$GPRMC,104140.000,A,5412.4685,N,01205.7239,E,5.97,6.28,020621,,,A*6A
$GPVTG,6.28,T,,M,5.97,N,11.1,K,A*3B
$WIMWV,235.0,R,11.4,N,A*13
$WIMWV,237.9,R,12.2,N,A*1d
$WIMWV,236.5,R,11.8,N,A*19
$WIMWV,236.7,R,12.2,N,A*12
$WIMWV,234.1,R,12.2,N,A*16
$WIMWV,237.0,R,12.2,N,A*14
$WIMWV,243.0,R,12.6,N,A*13
$WIMWV,245.2,R,12.6,N,A*17
$WIMWV,244.0,R,12.2,N,A*10
$WIMWV,244.2,R,12.2,N,A*12
$GPRMC,104141.000,A,5412.4703,N,01205.7241,E,6.52,5.45,020621,,,A*69
$GPVTG,5.45,T,,M,6.52,N,12.1,K,A*3A
$WIMWV,246.8,R,11.4,N,A*1f
$WIMWV,242.9,R,11.4,N,A*1a
$WIMWV,239.9,R,11.0,N,A*12
$WIMWV,234.6,R,10.6,N,A*17
$WIMWV,234.5,R,11.0,N,A*13
$WIMWV,238.4,R,11.0,N,A*1e
$WIMWV,237.1,R,11.0,N,A*14
$WIMWV,230.7,R,11.4,N,A*11
$WIMWV,232.1,R,10.6,N,A*16
$WIMWV,226.4,R,11.4,N,A*15
$GPRMC,104142.000,A,5412.4720,N,01205.7243,E,6.34,4.84,020621,,,A*65
$GPVTG,4.84,T,,M,6.34,N,11.7,K,A*33
$WIMWV,217.3,R,11.0,N,A*14
$WIMWV,237.2,R,11.8,N,A*1f
$WIMWV,240.8,R,11.4,N,A*19
$WIMWV,236.3,R,11.8,N,A*1f
$WIMWV,233.5,R,11.8,N,A*1c
$WIMWV,238.5,R,11.8,N,A*17
$WIMWV,244.4,R,11.4,N,A*11
$WIMWV,238.6,R,11.8,N,A*14
$WIMWV,231.4,R,11.4,N,A*13
$WIMWV,233.8,R,11.0,N,A*19
$GPRMC,104143.000,A,5412.4737,N,01205.7246,E,6.14,7.61,020621,,,A*6D
$GPVTG,7.61,T,,M,6.14,N,11.4,K,A*3A
$WIMWV,240.4,R,11.4,N,A*15
$WIMWV,235.0,R,11.4,N,A*13
$WIMWV,224.5,R,11.0,N,A*12
$WIMWV,225.6,R,11.4,N,A*14
$WIMWV,235.7,R,11.8,N,A*18
$WIMWV,230.7,R,12.2,N,A*14
$WIMWV,228.5,R,12.2,N,A*1f
$WIMWV,243.0,R,12.2,N,A*17
$WIMWV,248.8,R,12.2,N,A*14
$WIMWV,242.2,R,11.8,N,A*1d
$GPRMC,104144.000,A,5412.4754,N,01205.7250,E,5.95,10.24,020621,,,A*55
$GPVTG,10.24,T,,M,5.95,N,11.0,K,A*03
$WIMWV,221.0,R,12.2,N,A*13
$WIMWV,203.7,R,12.2,N,A*14
$WIMWV,223.1,R,11.8,N,A*19
$WIMWV,240.1,R,12.2,N,A*15
$WIMWV,230.7,R,12.2,N,A*14
$WIMWV,219.7,R,11.8,N,A*16
$WIMWV,233.9,R,12.2,N,A*19
$WIMWV,235.8,R,12.2,N,A*1e
$WIMWV,224.2,R,12.2,N,A*14
$GPRMC,104145.000,A,5412.4770,N,01205.7255,E,5.77,9.09,020621,,,A*6C
$GPVTG,9.09,T,,M,5.77,N,10.7,K,A*3E
$WIMWV,224.7,R,12.7,N,A*14
$WIMWV,233.6,R,12.7,N,A*13
$WIMWV,236.5,R,12.6,N,A*14
$WIMWV,233.7,R,12.2,N,A*17
$WIMWV,229.7,R,12.7,N,A*19
$WIMWV,234.1,R,12.2,N,A*16
$WIMWV,239.6,R,11.8,N,A*15
$WIMWV,235.7,R,11.8,N,A*18
$WIMWV,227.9,R,11.8,N,A*15
$WIMWV,230.4,R,11.8,N,A*1e
$GPRMC,104146.000,A,5412.4786,N,01205.7262,E,6.04,12.99,020621,,,A*56
$GPVTG,12.99,T,,M,6.04,N,11.2,K,A*0E
$WIMWV,236.0,R,11.4,N,A*10
$WIMWV,240.9,R,11.8,N,A*14
$WIMWV,231.6,R,11.4,N,A*11
$WIMWV,223.4,R,11.8,N,A*1c
$WIMWV,231.6,R,11.8,N,A*1d
$WIMWV,235.9,R,11.8,N,A*16
$WIMWV,226.4,R,11.4,N,A*15
$WIMWV,209.4,R,11.0,N,A*1c
$WIMWV,217.7,R,11.8,N,A*18
$WIMWV,236.9,R,11.8,N,A*15
$WIMWV,237.2,R,11.8,N,A*1f
$GPRMC,104147.000,A,5412.4802,N,01205.7269,E,6.19,14.03,020621,,,A*56
$GPVTG,14.03,T,,M,6.19,N,11.5,K,A*00
$WIMWV,232.8,R,11.8,N,A*10
$WIMWV,237.2,R,11.4,N,A*13
$WIMWV,241.4,R,11.8,N,A*18
$WIMWV,242.0,R,11.8,N,A*1f
$WIMWV,245.5,R,11.0,N,A*15
$WIMWV,238.9,R,11.0,N,A*13
$WIMWV,228.9,R,11.4,N,A*16
$WIMWV,227.3,R,11.4,N,A*13
$WIMWV,226.6,R,11.8,N,A*1b
$WIMWV,226.9,R,11.8,N,A*14
$GPRMC,104148.000,A,5412.4817,N,01205.7279,E,5.83,18.46,020621,,,A*51
$GPVTG,18.46,T,,M,5.83,N,10.8,K,A*01
$WIMWV,236.0,R,11.8,N,A*1c
$WIMWV,233.5,R,12.2,N,A*15
$WIMWV,221.7,R,12.2,N,A*14
$WIMWV,227.9,R,11.8,N,A*15
$WIMWV,242.3,R,12.2,N,A*15
$WIMWV,247.0,R,11.8,N,A*1a
$WIMWV,243.9,R,12.2,N,A*1e
$WIMWV,242.0,R,11.8,N,A*1f
$WIMWV,247.5,R,11.8,N,A*1f
$WIMWV,248.3,R,11.8,N,A*16
$GPRMC,104149.000,A,5412.4834,N,01205.7288,E,6.04,18.04,020621,,,A*55
$GPVTG,18.04,T,,M,6.04,N,11.2,K,A*00
$WIMWV,251.5,R,12.2,N,A*11
$WIMWV,251.6,R,11.4,N,A*17
$WIMWV,243.2,R,11.8,N,A*1c
$WIMWV,236.5,R,11.4,N,A*15
$WIMWV,236.7,R,11.0,N,A*13
$WIMWV,235.3,R,11.4,N,A*10
$WIMWV,234.3,R,11.8,N,A*1d
$WIMWV,238.3,R,11.8,N,A*11
$WIMWV,231.4,R,12.2,N,A*16
$GPRMC,104150.000,A,5412.4849,N,01205.7298,E,5.94,17.88,020621,,,A*57
$GPVTG,17.88,T,,M,5.94,N,11.0,K,A*03
$WIMWV,221.3,R,12.7,N,A*15
$WIMWV,220.1,R,12.6,N,A*17
$WIMWV,229.5,R,13.1,N,A*1c
$WIMWV,231.9,R,12.7,N,A*1e
$WIMWV,230.4,R,12.2,N,A*17
$WIMWV,232.7,R,13.1,N,A*14
$WIMWV,226.3,R,12.2,N,A*17
$WIMWV,219.7,R,12.2,N,A*1f
$WIMWV,225.2,R,12.7,N,A*10
$WIMWV,229.2,R,12.2,N,A*19
$GPRMC,104151.000,A,5412.4865,N,01205.7306,E,5.90,17.78,020621,,,A*55
$GPVTG,17.78,T,,M,5.90,N,10.9,K,A*00
$WIMWV,226.5,R,12.2,N,A*11
$WIMWV,221.1,R,12.2,N,A*12
$WIMWV,230.5,R,11.8,N,A*1f
$WIMWV,237.3,R,12.2,N,A*17
$WIMWV,230.6,R,12.6,N,A*11
$WIMWV,217.2,R,12.6,N,A*10
$WIMWV,222.4,R,12.7,N,A*11
$WIMWV,227.4,R,12.7,N,A*14
$WIMWV,229.9,R,12.7,N,A*17
$WIMWV,235.5,R,13.1,N,A*11
$GPRMC,104152.000,A,5412.4879,N,01205.7315,E,5.44,19.12,020621,,,A*52
$GPVTG,19.12,T,,M,5.44,N,10.1,K,A*03
$WIMWV,240.0,R,12.7,N,A*11
$WIMWV,229.3,R,12.7,N,A*1d
$WIMWV,219.6,R,12.7,N,A*1b
$WIMWV,221.3,R,12.7,N,A*15
$WIMWV,228.5,R,12.7,N,A*1a
$WIMWV,228.2,R,12.7,N,A*1d
$WIMWV,227.5,R,12.6,N,A*14
$WIMWV,228.2,R,13.1,N,A*1a
$WIMWV,228.8,R,12.7,N,A*17
$WIMWV,224.8,R,12.2,N,A*1e
$GPRMC,104153.000,A,5412.4894,N,01205.7324,E,5.64,19.21,020621,,,A*50
$GPVTG,19.21,T,,M,5.64,N,10.4,K,A*04
$WIMWV,224.1,R,12.7,N,A*12
$WIMWV,232.6,R,11.8,N,A*1e
$WIMWV,238.9,R,12.6,N,A*16
$WIMWV,228.2,R,12.2,N,A*18
$WIMWV,226.5,R,13.1,N,A*13
$WIMWV,229.7,R,13.1,N,A*1e
$WIMWV,230.1,R,13.5,N,A*14
$WIMWV,227.5,R,13.1,N,A*12
$WIMWV,219.0,R,13.5,N,A*1e
$WIMWV,215.0,R,13.1,N,A*16
$GPRMC,104154.000,A,5412.4909,N,01205.7332,E,5.86,16.56,020621,,,A*56
$GPVTG,16.56,T,,M,5.86,N,10.9,K,A*0A
$WIMWV,224.1,R,13.1,N,A*15
$WIMWV,224.6,R,12.6,N,A*14
$WIMWV,224.3,R,13.0,N,A*16
$WIMWV,236.5,R,13.5,N,A*16
$WIMWV,234.6,R,13.0,N,A*12
$WIMWV,223.7,R,13.4,N,A*11
$WIMWV,225.3,R,13.8,N,A*1f
$WIMWV,232.3,R,13.5,N,A*14
$WIMWV,228.1,R,13.5,N,A*1d
$WIMWV,225.6,R,13.5,N,A*17
$GPRMC,104155.000,A,5412.4924,N,01205.7341,E,5.84,16.82,020621,,,A*57
$GPVTG,16.82,T,,M,5.84,N,10.8,K,A*00
$WIMWV,230.0,R,13.5,N,A*15
$WIMWV,231.6,R,13.1,N,A*16
$WIMWV,227.5,R,12.6,N,A*14
$WIMWV,225.6,R,12.2,N,A*11
$WIMWV,226.2,R,12.2,N,A*16
$WIMWV,226.3,R,11.4,N,A*12
$WIMWV,230.5,R,11.8,N,A*1f
$WIMWV,234.0,R,11.0,N,A*16
$WIMWV,227.7,R,11.8,N,A*1b
$WIMWV,223.7,R,11.8,N,A*1f
$GPRMC,104156.000,A,5412.4940,N,01205.7349,E,5.94,16.38,020621,,,A*5E
$GPVTG,16.38,T,,M,5.94,N,11.0,K,A*09
$WIMWV,227.3,R,12.6,N,A*12
$WIMWV,228.4,R,12.6,N,A*1a
$WIMWV,230.1,R,13.5,N,A*14
$WIMWV,226.7,R,13.5,N,A*15
$WIMWV,228.6,R,13.9,N,A*16
$WIMWV,230.0,R,13.5,N,A*15
$WIMWV,235.6,R,13.5,N,A*16
$WIMWV,236.5,R,13.5,N,A*16
$WIMWV,227.2,R,13.1,N,A*15
$WIMWV,213.4,R,13.9,N,A*1c
$GPRMC,104157.000,A,5412.4956,N,01205.7357,E,5.94,16.54,020621,,,A*5D
$GPVTG,16.54,T,,M,5.94,N,11.0,K,A*03
$WIMWV,237.1,R,13.1,N,A*17
$WIMWV,242.4,R,13.1,N,A*10
$WIMWV,239.3,R,13.5,N,A*1f
$WIMWV,238.4,R,13.0,N,A*1c
$WIMWV,241.3,R,13.9,N,A*1c
$WIMWV,242.3,R,13.5,N,A*13
$WIMWV,238.4,R,13.8,N,A*14
$WIMWV,235.9,R,13.5,N,A*19
$WIMWV,238.8,R,13.9,N,A*19
$WIMWV,243.0,R,13.8,N,A*1c
$GPRMC,104158.000,A,5412.4971,N,01205.7365,E,5.90,19.03,020621,,,A*5F
$GPVTG,19.03,T,,M,5.90,N,10.9,K,A*02
$WIMWV,245.7,R,13.8,N,A*1d
$WIMWV,240.0,R,13.9,N,A*1e
$WIMWV,240.1,R,13.9,N,A*1f
$WIMWV,243.0,R,14.3,N,A*10
$WIMWV,241.3,R,14.3,N,A*11
$WIMWV,244.4,R,14.3,N,A*13
$WIMWV,241.0,R,14.2,N,A*13
$WIMWV,244.0,R,13.9,N,A*1a
$WIMWV,243.6,R,14.3,N,A*16
$WIMWV,239.1,R,14.3,N,A*1c
$GPRMC,104159.000,A,5412.4985,N,01205.7375,E,5.86,21.39,020621,,,A*51
$GPVTG,21.39,T,,M,5.86,N,10.8,K,A*06
$WIMWV,238.3,R,13.9,N,A*12
$WIMWV,235.5,R,13.8,N,A*18
$WIMWV,234.5,R,13.1,N,A*10
$WIMWV,236.7,R,13.1,N,A*10
$WIMWV,230.5,R,13.1,N,A*14
$WIMWV,225.4,R,13.5,N,A*15
$WIMWV,234.9,R,13.5,N,A*18
$WIMWV,234.5,R,13.5,N,A*14
$WIMWV,231.8,R,13.5,N,A*1c
$WIMWV,236.8,R,13.1,N,A*1f
$GPRMC,104200.000,A,5412.5000,N,01205.7385,E,6.13,18.87,020621,,,A*54
$GPVTG,18.87,T,,M,6.13,N,11.4,K,A*0B
$WIMWV,240.6,R,13.1,N,A*10
$WIMWV,239.3,R,13.1,N,A*1b
$WIMWV,233.2,R,13.1,N,A*10
$WIMWV,230.3,R,13.1,N,A*12
$WIMWV,233.4,R,13.1,N,A*16
$WIMWV,236.9,R,12.7,N,A*19
$WIMWV,237.1,R,12.7,N,A*10
$WIMWV,233.1,R,12.7,N,A*14
$WIMWV,235.0,R,12.7,N,A*13
$WIMWV,239.4,R,12.7,N,A*1b
$GPRMC,104201.000,A,5412.5017,N,01205.7394,E,6.13,17.26,020621,,,A*57
$GPVTG,17.26,T,,M,6.13,N,11.4,K,A*0F
$WIMWV,240.1,R,12.7,N,A*10
$WIMWV,238.5,R,12.2,N,A*1e
$WIMWV,238.8,R,12.2,N,A*13
$WIMWV,238.6,R,11.8,N,A*14
$WIMWV,238.1,R,12.2,N,A*1a
$WIMWV,240.0,R,11.8,N,A*1d
$WIMWV,242.2,R,12.2,N,A*14
$WIMWV,244.8,R,11.8,N,A*11
$WIMWV,245.8,R,11.4,N,A*1c
$WIMWV,241.8,R,11.8,N,A*14
$GPRMC,104202.000,A,5412.5033,N,01205.7401,E,6.05,15.07,020621,,,A*5F
$GPVTG,15.07,T,,M,6.05,N,11.2,K,A*0F
$WIMWV,242.6,R,11.0,N,A*11
$WIMWV,242.1,R,11.0,N,A*16
$WIMWV,236.9,R,10.6,N,A*1a
$WIMWV,228.1,R,10.6,N,A*1d
$WIMWV,228.7,R,11.0,N,A*1c
$WIMWV,235.1,R,10.6,N,A*11
$WIMWV,239.3,R,10.6,N,A*1f
$WIMWV,226.8,R,11.4,N,A*19
$WIMWV,226.4,R,11.0,N,A*11
$WIMWV,235.7,R,11.4,N,A*14
$GPRMC,104203.000,A,5412.5049,N,01205.7407,E,6.10,11.84,020621,,,A*5E
$GPVTG,11.84,T,,M,6.10,N,11.3,K,A*05
$WIMWV,231.9,R,11.8,N,A*12
$WIMWV,223.6,R,11.4,N,A*12
$WIMWV,232.3,R,11.8,N,A*1b
$WIMWV,237.7,R,11.8,N,A*1a
$WIMWV,233.0,R,12.2,N,A*10
$WIMWV,229.2,R,11.8,N,A*10
$WIMWV,230.1,R,12.2,N,A*12
$WIMWV,235.9,R,12.2,N,A*1f
$WIMWV,234.8,R,11.8,N,A*16
$WIMWV,224.8,R,12.2,N,A*1e
$GPRMC,104204.000,A,5412.5066,N,01205.7413,E,6.38,11.83,020621,,,A*5C
$GPVTG,11.83,T,,M,6.38,N,11.8,K,A*03
$WIMWV,225.0,R,12.2,N,A*17
$WIMWV,235.6,R,12.7,N,A*15
$WIMWV,232.2,R,12.2,N,A*13
$WIMWV,236.1,R,12.7,N,A*11
$WIMWV,238.9,R,12.2,N,A*12
$WIMWV,240.3,R,11.8,N,A*1e
$WIMWV,234.2,R,12.2,N,A*15
$WIMWV,229.4,R,11.8,N,A*16
$WIMWV,232.4,R,11.8,N,A*1c
$WIMWV,234.9,R,12.2,N,A*1e
$GPRMC,104205.000,A,5412.5084,N,01205.7419,E,6.21,11.78,020621,,,A*57
$GPVTG,11.78,T,,M,6.21,N,11.5,K,A*02
$WIMWV,232.1,R,11.8,N,A*19
$WIMWV,233.4,R,11.8,N,A*1d
$WIMWV,240.8,R,11.8,N,A*15
$WIMWV,245.8,R,11.8,N,A*10
$WIMWV,241.4,R,11.4,N,A*14
$WIMWV,237.1,R,11.8,N,A*1c
$WIMWV,239.2,R,11.8,N,A*11
$WIMWV,242.2,R,11.4,N,A*11
$WIMWV,241.5,R,12.2,N,A*10
$WIMWV,239.6,R,11.8,N,A*15
$GPRMC,104206.000,A,5412.5101,N,01205.7425,E,6.12,12.67,020621,,,A*5A
$GPVTG,12.67,T,,M,6.12,N,11.3,K,A*09
$WIMWV,238.4,R,11.8,N,A*16
$WIMWV,236.4,R,11.8,N,A*18
$WIMWV,233.7,R,11.8,N,A*1e
$WIMWV,228.4,R,12.2,N,A*1e
$WIMWV,225.7,R,12.2,N,A*10
$WIMWV,230.5,R,12.2,N,A*16
$WIMWV,231.8,R,12.2,N,A*1a
$WIMWV,229.5,R,11.8,N,A*17
$WIMWV,224.8,R,11.4,N,A*1b
$WIMWV,216.7,R,11.8,N,A*19
$GPRMC,104207.000,A,5412.5118,N,01205.7431,E,6.11,11.21,020621,,,A*54
$GPVTG,11.21,T,,M,6.11,N,11.3,K,A*0B
$WIMWV,228.2,R,11.8,N,A*11
$WIMWV,240.1,R,12.2,N,A*15
$WIMWV,235.8,R,11.8,N,A*17
$WIMWV,224.8,R,11.8,N,A*17
$WIMWV,228.1,R,12.2,N,A*1b
$WIMWV,237.7,R,11.8,N,A*1a
$WIMWV,230.8,R,12.2,N,A*1b
$WIMWV,224.1,R,12.2,N,A*17
$WIMWV,232.2,R,12.2,N,A*13
$WIMWV,238.7,R,12.2,N,A*1c
$GPRMC,104208.000,A,5412.5135,N,01205.7437,E,6.18,12.66,020621,,,A*5B
$GPVTG,12.66,T,,M,6.18,N,11.4,K,A*05
$WIMWV,231.7,R,12.6,N,A*11
$WIMWV,229.5,R,12.2,N,A*1e
$WIMWV,236.0,R,12.2,N,A*15
$WIMWV,239.4,R,11.8,N,A*17
$WIMWV,229.2,R,12.2,N,A*19
$WIMWV,228.4,R,11.4,N,A*1b
$WIMWV,240.6,R,11.4,N,A*17
$WIMWV,244.9,R,11.4,N,A*1c
$WIMWV,231.1,R,11.4,N,A*16
$WIMWV,224.8,R,11.4,N,A*1b
$GPRMC,104209.000,A,5412.5151,N,01205.7445,E,6.02,15.35,020621,,,A*57
$GPVTG,15.35,T,,M,6.02,N,11.2,K,A*09
$WIMWV,230.7,R,11.0,N,A*15
$WIMWV,236.7,R,11.0,N,A*13
$WIMWV,232.8,R,11.4,N,A*1c
$WIMWV,227.3,R,11.0,N,A*17
$WIMWV,223.8,R,11.4,N,A*1c
$WIMWV,223.7,R,11.0,N,A*17
$WIMWV,228.5,R,11.4,N,A*1a
$WIMWV,239.5,R,11.0,N,A*1e
$WIMWV,238.0,R,11.4,N,A*1e
$WIMWV,228.5,R,11.0,N,A*1e
$GPRMC,104210.000,A,5412.5166,N,01205.7455,E,5.77,15.84,020621,,,A*51
$GPVTG,15.84,T,,M,5.77,N,10.7,K,A*06
$WIMWV,229.4,R,11.4,N,A*1a
$WIMWV,239.4,R,11.4,N,A*1b
$WIMWV,243.9,R,11.4,N,A*1b
$WIMWV,236.4,R,11.4,N,A*14
$WIMWV,230.2,R,11.4,N,A*14
$WIMWV,237.3,R,11.8,N,A*1e
$WIMWV,242.0,R,11.8,N,A*1f
$WIMWV,237.3,R,11.4,N,A*12
$WIMWV,233.7,R,11.8,N,A*1e
$WIMWV,235.7,R,11.8,N,A*18
$GPRMC,104211.000,A,5412.5182,N,01205.7462,E,6.07,16.78,020621,,,A*5A
$GPVTG,16.78,T,,M,6.07,N,11.2,K,A*06
$WIMWV,232.9,R,12.2,N,A*18
$WIMWV,230.8,R,11.8,N,A*12
$WIMWV,228.5,R,11.4,N,A*1a
$WIMWV,230.4,R,11.8,N,A*1e
$WIMWV,230.1,R,11.4,N,A*17
$WIMWV,233.1,R,11.0,N,A*10
$WIMWV,229.9,R,11.0,N,A*13
$WIMWV,226.3,R,10.6,N,A*11
$WIMWV,226.7,R,10.6,N,A*15
$WIMWV,228.6,R,10.6,N,A*1a
$GPRMC,104212.000,A,5412.5198,N,01205.7470,E,5.94,15.03,020621,,,A*57
$GPVTG,15.03,T,,M,5.94,N,11.0,K,A*02
$WIMWV,229.3,R,10.6,N,A*1e
$WIMWV,231.7,R,11.0,N,A*14
$WIMWV,229.1,R,10.6,N,A*1c
$WIMWV,231.0,R,11.0,N,A*13
$WIMWV,236.5,R,10.2,N,A*12
$WIMWV,235.9,R,10.6,N,A*19
$WIMWV,233.8,R,10.2,N,A*1a
$WIMWV,230.9,R,10.6,N,A*1c
$WIMWV,232.7,R,10.6,N,A*10
$WIMWV,234.8,R,11.0,N,A*1e
$GPRMC,104213.000,A,5412.5214,N,01205.7476,E,5.74,14.67,020621,,,A*5A
$GPVTG,14.67,T,,M,5.74,N,10.6,K,A*08
$WIMWV,233.6,R,11.0,N,A*17
$WIMWV,230.0,R,11.4,N,A*16
$WIMWV,233.2,R,11.4,N,A*17
$WIMWV,236.7,R,11.4,N,A*17
$WIMWV,226.4,R,11.4,N,A*15
$WIMWV,216.1,R,11.4,N,A*13
$WIMWV,235.1,R,11.4,N,A*12
$WIMWV,248.6,R,11.0,N,A*1b
$WIMWV,242.3,R,11.4,N,A*10
$WIMWV,235.5,R,11.0,N,A*12
$GPRMC,104214.000,A,5412.5230,N,01205.7481,E,6.00,13.42,020621,,,A*53
$GPVTG,13.42,T,,M,6.00,N,11.1,K,A*0E
$WIMWV,236.6,R,11.0,N,A*12
$WIMWV,242.9,R,11.0,N,A*1e
$WIMWV,239.8,R,11.0,N,A*13
$WIMWV,235.6,R,11.0,N,A*11
$WIMWV,234.8,R,11.0,N,A*1e
$WIMWV,234.0,R,11.4,N,A*12
$WIMWV,233.0,R,11.8,N,A*19
$WIMWV,234.9,R,11.8,N,A*17
$WIMWV,228.4,R,12.2,N,A*1e
$WIMWV,228.7,R,11.8,N,A*14
$GPRMC,104215.000,A,5412.5246,N,01205.7486,E,5.68,11.39,020621,,,A*57
$GPVTG,11.39,T,,M,5.68,N,10.5,K,A*08
$WIMWV,239.7,R,12.2,N,A*1d
$WIMWV,241.0,R,11.8,N,A*1c
$WIMWV,233.5,R,11.8,N,A*1c
$WIMWV,233.5,R,11.8,N,A*1c
$WIMWV,245.3,R,11.8,N,A*1b
$WIMWV,248.9,R,11.4,N,A*10
$WIMWV,245.2,R,11.4,N,A*16
$WIMWV,240.9,R,11.4,N,A*18
$WIMWV,240.6,R,11.0,N,A*13
$WIMWV,239.4,R,11.4,N,A*1b
$GPRMC,104216.000,A,5412.5263,N,01205.7491,E,5.96,11.84,020621,,,A*52
$GPVTG,11.84,T,,M,5.96,N,11.0,K,A*0B
$WIMWV,236.9,R,11.0,N,A*1d
$WIMWV,237.1,R,11.0,N,A*14
$WIMWV,242.6,R,10.6,N,A*16
$WIMWV,231.9,R,10.6,N,A*1d
$WIMWV,224.8,R,10.6,N,A*18
$WIMWV,225.7,R,11.0,N,A*11
$WIMWV,239.5,R,10.6,N,A*19
$WIMWV,241.3,R,11.0,N,A*17
$WIMWV,237.0,R,11.0,N,A*15
$WIMWV,234.8,R,10.6,N,A*19
$GPRMC,104217.000,A,5412.5279,N,01205.7497,E,6.04,11.56,020621,,,A*59
$GPVTG,11.56,T,,M,6.04,N,11.2,K,A*0E
$WIMWV,227.5,R,10.6,N,A*16
$WIMWV,226.1,R,10.6,N,A*13
$WIMWV,231.6,R,10.6,N,A*12
$WIMWV,234.3,R,10.2,N,A*16
$WIMWV,235.4,R,11.0,N,A*13
$WIMWV,238.0,R,10.6,N,A*1d
$WIMWV,240.1,R,10.6,N,A*13
$WIMWV,237.9,R,10.6,N,A*1b
$WIMWV,226.9,R,10.6,N,A*1b
$WIMWV,224.9,R,10.6,N,A*19
$GPRMC,104218.000,A,5412.5296,N,01205.7503,E,6.08,11.58,020621,,,A*59
$GPVTG,11.58,T,,M,6.08,N,11.3,K,A*0D
$WIMWV,232.7,R,10.6,N,A*10
$WIMWV,234.9,R,10.6,N,A*18
$WIMWV,231.4,R,10.6,N,A*10
$WIMWV,223.4,R,11.0,N,A*14
$WIMWV,226.0,R,11.4,N,A*11
$WIMWV,233.6,R,11.0,N,A*17
$WIMWV,230.4,R,11.4,N,A*12
$WIMWV,230.0,R,11.8,N,A*1a
$WIMWV,236.1,R,11.4,N,A*11
$WIMWV,236.5,R,11.4,N,A*15
$GPRMC,104219.000,A,5412.5313,N,01205.7509,E,6.20,12.64,020621,,,A*58
$GPVTG,12.64,T,,M,6.20,N,11.5,K,A*0D
$WIMWV,231.4,R,11.0,N,A*17
$WIMWV,228.3,R,11.4,N,A*1c
$WIMWV,229.2,R,11.0,N,A*18
$WIMWV,227.0,R,11.4,N,A*10
$WIMWV,223.6,R,11.4,N,A*12
$WIMWV,226.9,R,11.8,N,A*14
$WIMWV,231.7,R,11.8,N,A*1c
$WIMWV,230.4,R,11.8,N,A*1e
$WIMWV,229.9,R,12.2,N,A*12
$WIMWV,229.9,R,11.8,N,A*1b
$GPRMC,104220.000,A,5412.5330,N,01205.7516,E,6.03,11.47,020621,,,A*5E
$GPVTG,11.47,T,,M,6.03,N,11.2,K,A*09
$WIMWV,229.2,R,11.8,N,A*10
$WIMWV,233.2,R,12.2,N,A*12
$WIMWV,237.5,R,11.4,N,A*14
$WIMWV,240.4,R,11.8,N,A*19
$WIMWV,243.6,R,11.4,N,A*14
$WIMWV,241.1,R,11.0,N,A*15
$WIMWV,237.8,R,11.0,N,A*1d
$WIMWV,239.4,R,10.6,N,A*18
$WIMWV,239.4,R,10.6,N,A*18
$WIMWV,234.5,R,10.6,N,A*14
$GPRMC,104221.000,A,5412.5346,N,01205.7522,E,6.02,13.18,020621,,,A*50
$GPVTG,13.18,T,,M,6.02,N,11.2,K,A*00
$WIMWV,229.0,R,10.2,N,A*19
$WIMWV,232.1,R,10.6,N,A*16
$WIMWV,238.4,R,11.0,N,A*1e
$WIMWV,233.7,R,10.6,N,A*11
$WIMWV,226.3,R,11.0,N,A*16
$WIMWV,226.7,R,11.0,N,A*12
$WIMWV,231.5,R,11.8,N,A*1e
$WIMWV,235.7,R,11.4,N,A*14
$WIMWV,229.4,R,11.8,N,A*16
$WIMWV,227.9,R,11.4,N,A*19
$GPRMC,104222.000,A,5412.5363,N,01205.7528,E,6.01,12.58,020621,,,A*58
$GPVTG,12.58,T,,M,6.01,N,11.1,K,A*05
$WIMWV,239.7,R,11.8,N,A*14
$WIMWV,238.9,R,11.4,N,A*17
$WIMWV,237.7,R,11.8,N,A*1a
$WIMWV,237.1,R,11.0,N,A*14
$WIMWV,234.1,R,11.4,N,A*13
$WIMWV,232.7,R,11.4,N,A*13
$WIMWV,236.7,R,11.4,N,A*17
$WIMWV,230.4,R,11.4,N,A*12
$WIMWV,226.6,R,11.8,N,A*1b
$WIMWV,235.2,R,11.8,N,A*1d
$GPRMC,104223.000,A,5412.5380,N,01205.7533,E,6.12,12.10,020621,,,A*50
$GPVTG,12.10,T,,M,6.12,N,11.3,K,A*09
$WIMWV,239.8,R,12.2,N,A*12
$WIMWV,237.2,R,11.8,N,A*1f
$WIMWV,235.5,R,11.8,N,A*1a
$WIMWV,242.6,R,11.8,N,A*19
$WIMWV,248.3,R,11.8,N,A*16
$WIMWV,253.7,R,11.4,N,A*14
$WIMWV,251.0,R,11.4,N,A*11
$WIMWV,247.4,R,11.4,N,A*12
$WIMWV,243.6,R,11.0,N,A*10
$WIMWV,241.6,R,11.0,N,A*12
$GPRMC,104224.000,A,5412.5396,N,01205.7539,E,6.08,13.98,020621,,,A*50
$GPVTG,13.98,T,,M,6.08,N,11.3,K,A*03
$WIMWV,238.8,R,10.6,N,A*15
$WIMWV,228.1,R,10.2,N,A*19
$WIMWV,221.6,R,10.2,N,A*17
$WIMWV,228.2,R,10.6,N,A*1e
$WIMWV,239.7,R,10.6,N,A*1b
$WIMWV,233.8,R,11.0,N,A*19
$WIMWV,231.1,R,11.0,N,A*12
$WIMWV,232.0,R,11.4,N,A*14
$WIMWV,232.1,R,11.0,N,A*11
$WIMWV,226.4,R,11.4,N,A*15
$GPRMC,104225.000,A,5412.5413,N,01205.7545,E,6.13,11.34,020621,,,A*5E
$GPVTG,11.34,T,,M,6.13,N,11.4,K,A*0A
$WIMWV,230.2,R,11.0,N,A*10
$WIMWV,237.2,R,11.4,N,A*13
$WIMWV,240.6,R,11.4,N,A*17
$WIMWV,237.9,R,11.8,N,A*14
$WIMWV,238.3,R,11.8,N,A*11
$WIMWV,239.8,R,11.8,N,A*1b
$WIMWV,238.1,R,12.2,N,A*1a
$WIMWV,239.8,R,12.2,N,A*12
$WIMWV,243.2,R,12.2,N,A*15
$WIMWV,240.6,R,11.8,N,A*1b
$GPRMC,104226.000,A,5412.5430,N,01205.7552,E,6.23,13.19,020621,,,A*54
$GPVTG,13.19,T,,M,6.23,N,11.5,K,A*05
$WIMWV,237.4,R,11.8,N,A*19
$WIMWV,236.4,R,12.2,N,A*11
$WIMWV,241.6,R,11.4,N,A*16
$WIMWV,247.3,R,11.4,N,A*15
$WIMWV,242.5,R,11.4,N,A*16
$WIMWV,231.7,R,11.4,N,A*10
$WIMWV,230.2,R,11.0,N,A*10
$WIMWV,234.5,R,11.0,N,A*13
$WIMWV,238.6,R,10.6,N,A*1b
$WIMWV,235.2,R,11.0,N,A*15
$GPRMC,104227.000,A,5412.5446,N,01205.7559,E,5.95,13.14,020621,,,A*5C
$GPVTG,13.14,T,,M,5.95,N,11.0,K,A*03
$WIMWV,228.5,R,11.4,N,A*1a
$WIMWV,228.8,R,11.0,N,A*13
$WIMWV,234.3,R,11.0,N,A*15
$WIMWV,237.3,R,11.4,N,A*12
$WIMWV,235.8,R,11.4,N,A*1b
$WIMWV,234.5,R,11.0,N,A*13
$WIMWV,236.9,R,11.4,N,A*19
$WIMWV,239.7,R,11.0,N,A*1c
$WIMWV,241.7,R,11.4,N,A*17
$WIMWV,240.9,R,11.4,N,A*18
$GPRMC,104228.000,A,5412.5463,N,01205.7565,E,6.14,12.47,020621,,,A*56
$GPVTG,12.47,T,,M,6.14,N,11.4,K,A*0A
$WIMWV,238.4,R,11.0,N,A*1e
$WIMWV,235.7,R,11.0,N,A*10
$WIMWV,234.4,R,11.0,N,A*12
$WIMWV,231.9,R,10.6,N,A*1d
$WIMWV,228.3,R,11.4,N,A*1c
$WIMWV,232.4,R,11.0,N,A*14
$WIMWV,237.5,R,11.0,N,A*10
$WIMWV,241.6,R,11.4,N,A*16
$WIMWV,241.6,R,11.0,N,A*12
$WIMWV,236.3,R,11.4,N,A*13
$GPRMC,104229.000,A,5412.5479,N,01205.7571,E,6.04,11.23,020621,,,A*59
$GPVTG,11.23,T,,M,6.04,N,11.2,K,A*0C
$WIMWV,231.1,R,11.4,N,A*16
$WIMWV,236.5,R,11.0,N,A*11
$WIMWV,243.7,R,11.0,N,A*11
$WIMWV,238.6,R,11.0,N,A*1c
$WIMWV,232.1,R,10.6,N,A*16
$WIMWV,227.7,R,10.6,N,A*14
$WIMWV,233.4,R,10.6,N,A*12
$WIMWV,240.1,R,10.6,N,A*13
$WIMWV,247.3,R,10.2,N,A*12
$WIMWV,244.6,R,10.6,N,A*10
$GPRMC,104230.000,A,5412.5496,N,01205.7576,E,6.12,9.23,020621,,,A*69
$GPVTG,9.23,T,,M,6.12,N,11.3,K,A*33
$WIMWV,234.3,R,10.6,N,A*12
$WIMWV,229.4,R,10.6,N,A*19
$WIMWV,232.1,R,11.0,N,A*11
$WIMWV,238.9,R,11.0,N,A*13
$WIMWV,242.9,R,11.0,N,A*1e
$WIMWV,238.6,R,10.6,N,A*1b
$WIMWV,233.7,R,10.6,N,A*11
$WIMWV,231.8,R,10.6,N,A*1c
$WIMWV,235.9,R,10.6,N,A*19
$WIMWV,245.5,R,10.6,N,A*12
$GPRMC,104231.000,A,5412.5513,N,01205.7581,E,6.17,10.06,020621,,,A*56
$GPVTG,10.06,T,,M,6.17,N,11.4,K,A*0E
$WIMWV,243.0,R,11.0,N,A*16
$WIMWV,239.7,R,11.0,N,A*1c
$WIMWV,236.9,R,10.6,N,A*1a
$WIMWV,239.5,R,10.6,N,A*19
$WIMWV,231.7,R,10.6,N,A*13
$WIMWV,222.0,R,10.6,N,A*16
$WIMWV,229.3,R,10.6,N,A*1e
$WIMWV,244.4,R,10.6,N,A*12
$WIMWV,243.9,R,10.6,N,A*18
$WIMWV,224.7,R,10.6,N,A*17
$GPRMC,104232.000,A,5412.5529,N,01205.7586,E,6.08,8.26,020621,,,A*6E
$GPVTG,8.26,T,,M,6.08,N,11.3,K,A*3C
$WIMWV,220.9,R,10.6,N,A*1d
$WIMWV,242.5,R,11.0,N,A*12
$WIMWV,249.9,R,10.6,N,A*12
$WIMWV,244.5,R,11.0,N,A*14
$WIMWV,236.3,R,11.0,N,A*17
$WIMWV,241.7,R,11.0,N,A*13
$WIMWV,248.8,R,11.0,N,A*15
$WIMWV,243.7,R,11.0,N,A*11
$WIMWV,233.7,R,11.0,N,A*16
$WIMWV,228.7,R,11.0,N,A*1c
$GPRMC,104233.000,A,5412.5545,N,01205.7591,E,6.12,11.19,020621,,,A*5C
$GPVTG,11.19,T,,M,6.12,N,11.3,K,A*03
$WIMWV,233.5,R,11.4,N,A*10
$WIMWV,240.2,R,11.0,N,A*17
$WIMWV,239.5,R,11.0,N,A*1e
$WIMWV,232.8,R,11.0,N,A*18
$WIMWV,229.1,R,11.0,N,A*1b
$WIMWV,232.0,R,11.0,N,A*10
$WIMWV,236.3,R,10.6,N,A*10
$WIMWV,237.5,R,11.0,N,A*10
$WIMWV,240.0,R,11.0,N,A*15
$WIMWV,233.8,R,11.0,N,A*19
$GPRMC,104234.000,A,5412.5562,N,01205.7598,E,6.04,13.22,020621,,,A*5A
$GPVTG,13.22,T,,M,6.04,N,11.2,K,A*0F
$WIMWV,229.8,R,11.0,N,A*12
$WIMWV,237.7,R,11.0,N,A*12
$WIMWV,243.6,R,11.0,N,A*10
$WIMWV,247.4,R,11.0,N,A*16
$WIMWV,242.5,R,11.0,N,A*12
$WIMWV,236.3,R,11.0,N,A*17
$WIMWV,232.6,R,10.6,N,A*11
$WIMWV,232.5,R,10.2,N,A*16
$WIMWV,233.1,R,10.6,N,A*17
$WIMWV,232.8,R,10.2,N,A*1b
$GPRMC,104235.000,A,5412.5578,N,01205.7605,E,6.02,11.87,020621,,,A*5C
$GPVTG,11.87,T,,M,6.02,N,11.1,K,A*07
$WIMWV,229.8,R,10.2,N,A*11
$WIMWV,227.0,R,10.6,N,A*13
$WIMWV,227.7,R,10.6,N,A*14
$WIMWV,229.2,R,10.6,N,A*1f
$WIMWV,236.5,R,11.0,N,A*11
$WIMWV,240.6,R,11.4,N,A*17
$WIMWV,241.6,R,11.4,N,A*16
$WIMWV,243.3,R,11.4,N,A*11
$WIMWV,244.2,R,11.4,N,A*17
$WIMWV,249.1,R,11.4,N,A*19
$GPRMC,104236.000,A,5412.5594,N,01205.7611,E,6.18,12.96,020621,,,A*50
$GPVTG,12.96,T,,M,6.18,N,11.5,K,A*0B
$WIMWV,254.5,R,11.4,N,A*11
$WIMWV,249.2,R,11.0,N,A*1e
$WIMWV,245.6,R,10.6,N,A*11
$WIMWV,237.3,R,10.6,N,A*11
$WIMWV,232.5,R,10.6,N,A*12
$WIMWV,231.7,R,10.6,N,A*13
$WIMWV,232.9,R,10.6,N,A*1e
$WIMWV,227.0,R,10.6,N,A*13
$WIMWV,228.1,R,11.0,N,A*1a
$GPRMC,104237.000,A,5412.5610,N,01205.7617,E,5.90,10.21,020621,,,A*55
$GPVTG,10.21,T,,M,5.90,N,10.9,K,A*0B
$WIMWV,231.1,R,10.6,N,A*15
$WIMWV,233.7,R,10.6,N,A*11
$WIMWV,238.6,R,10.6,N,A*1b
$WIMWV,240.6,R,10.2,N,A*10
$WIMWV,242.4,R,10.2,N,A*10
$WIMWV,239.5,R,10.6,N,A*19
$WIMWV,243.3,R,10.6,N,A*12
$WIMWV,245.4,R,10.2,N,A*17
$WIMWV,245.9,R,10.6,N,A*1e
$WIMWV,245.4,R,10.2,N,A*17
$GPRMC,104238.000,A,5412.5626,N,01205.7622,E,5.84,13.31,020621,,,A*5E
$GPVTG,13.31,T,,M,5.84,N,10.8,K,A*0D
$WIMWV,247.1,R,10.6,N,A*14
$WIMWV,247.9,R,10.6,N,A*1c
$WIMWV,241.7,R,11.0,N,A*13
$WIMWV,243.4,R,10.6,N,A*15
$WIMWV,243.6,R,10.6,N,A*17
$WIMWV,247.6,R,10.2,N,A*17
$WIMWV,241.5,R,10.6,N,A*16
$WIMWV,234.4,R,10.2,N,A*11
$WIMWV,232.8,R,10.2,N,A*1b
$WIMWV,232.3,R,10.6,N,A*14
$GPRMC,104239.000,A,5412.5642,N,01205.7628,E,5.92,10.57,020621,,,A*53
$GPVTG,10.57,T,,M,5.92,N,11.0,K,A*00
$WIMWV,239.8,R,10.2,N,A*10
$WIMWV,238.3,R,10.2,N,A*1a
$WIMWV,235.9,R,10.2,N,A*1d
$WIMWV,235.0,R,10.2,N,A*14
$WIMWV,232.2,R,9.8,N,A*23
$WIMWV,236.8,R,9.8,N,A*2d
$WIMWV,239.2,R,10.2,N,A*1a
$WIMWV,237.7,R,9.8,N,A*23
$WIMWV,235.5,R,9.8,N,A*23
$WIMWV,234.8,R,9.8,N,A*2f
$GPRMC,104240.000,A,5412.5658,N,01205.7633,E,5.82,9.92,020621,,,A*6C
$GPVTG,9.92,T,,M,5.82,N,10.8,K,A*39
$WIMWV,237.3,R,9.8,N,A*27
$WIMWV,235.6,R,10.2,N,A*12
$WIMWV,230.3,R,9.8,N,A*20
$WIMWV,229.0,R,9.8,N,A*2b
$WIMWV,233.0,R,10.2,N,A*12
$WIMWV,238.3,R,10.2,N,A*1a
$WIMWV,243.7,R,9.8,N,A*20
$WIMWV,247.2,R,10.2,N,A*13
$WIMWV,248.8,R,9.8,N,A*24
$WIMWV,243.0,R,9.8,N,A*27
$GPRMC,104241.000,A,5412.5674,N,01205.7639,E,6.16,10.22,020621,,,A*54
$GPVTG,10.22,T,,M,6.16,N,11.4,K,A*09
$WIMWV,232.8,R,9.4,N,A*25
$WIMWV,223.9,R,9.8,N,A*28
$WIMWV,231.1,R,9.4,N,A*2f
$WIMWV,240.5,R,9.8,N,A*21
$WIMWV,245.2,R,9.8,N,A*23
$WIMWV,234.1,R,10.2,N,A*14
$WIMWV,224.8,R,10.2,N,A*1c
$WIMWV,228.8,R,10.2,N,A*10
$WIMWV,235.6,R,10.2,N,A*12
$WIMWV,233.4,R,10.6,N,A*12
$GPRMC,104242.000,A,5412.5690,N,01205.7644,E,6.07,9.15,020621,,,A*6B
$GPVTG,9.15,T,,M,6.07,N,11.2,K,A*33
$WIMWV,236.5,R,10.6,N,A*16
$WIMWV,239.7,R,10.2,N,A*1f
$WIMWV,244.8,R,10.2,N,A*1a
$WIMWV,240.0,R,10.2,N,A*16
$WIMWV,235.1,R,10.2,N,A*15
$WIMWV,231.8,R,10.6,N,A*1c
$WIMWV,236.1,R,10.6,N,A*12
$WIMWV,243.0,R,10.6,N,A*11
$WIMWV,244.2,R,10.6,N,A*14
$WIMWV,240.6,R,10.2,N,A*10
$GPRMC,104243.000,A,5412.5706,N,01205.7648,E,6.00,8.06,020621,,,A*6C
$GPVTG,8.06,T,,M,6.00,N,11.1,K,A*34
$WIMWV,234.5,R,10.6,N,A*14
$WIMWV,233.6,R,10.6,N,A*10
$WIMWV,233.9,R,10.6,N,A*1f
$WIMWV,235.9,R,10.6,N,A*19
$WIMWV,236.8,R,10.6,N,A*1b
$WIMWV,234.9,R,10.6,N,A*18
$WIMWV,234.1,R,10.6,N,A*10
$WIMWV,240.8,R,10.6,N,A*1a
$WIMWV,244.9,R,10.2,N,A*1b
$WIMWV,242.6,R,10.2,N,A*12
$GPRMC,104244.000,A,5412.5722,N,01205.7652,E,5.92,8.85,020621,,,A*65
$GPVTG,8.85,T,,M,5.92,N,11.0,K,A*36
$WIMWV,231.1,R,10.2,N,A*11
$WIMWV,224.1,R,10.2,N,A*15
$WIMWV,233.6,R,10.2,N,A*14
$WIMWV,245.5,R,10.2,N,A*16
$WIMWV,245.9,R,10.2,N,A*1a
$WIMWV,233.5,R,10.6,N,A*13
$WIMWV,229.5,R,10.2,N,A*1c
$WIMWV,232.8,R,10.6,N,A*1f
$WIMWV,237.2,R,10.6,N,A*10
$WIMWV,235.4,R,10.6,N,A*14
$GPRMC,104245.000,A,5412.5738,N,01205.7656,E,5.91,7.79,020621,,,A*64
$GPVTG,7.79,T,,M,5.91,N,11.0,K,A*39
$WIMWV,235.0,R,10.6,N,A*10
$WIMWV,238.6,R,11.0,N,A*1c
$WIMWV,242.6,R,11.0,N,A*11
$WIMWV,239.6,R,11.0,N,A*1d
$WIMWV,233.6,R,11.4,N,A*13
$WIMWV,233.8,R,11.4,N,A*1d
$WIMWV,239.2,R,11.4,N,A*1d
$WIMWV,240.8,R,11.0,N,A*1d
$WIMWV,233.4,R,11.4,N,A*11
$WIMWV,232.3,R,11.0,N,A*13
$GPRMC,104246.000,A,5412.5754,N,01205.7661,E,5.94,8.77,020621,,,A*6D
$GPVTG,8.77,T,,M,5.94,N,11.0,K,A*3D
$WIMWV,238.1,R,11.0,N,A*1b
$WIMWV,242.3,R,11.0,N,A*14
$WIMWV,244.4,R,11.0,N,A*15
$WIMWV,246.9,R,10.6,N,A*1d
$WIMWV,247.1,R,10.6,N,A*14
$WIMWV,247.5,R,10.6,N,A*10
$WIMWV,237.5,R,10.2,N,A*13
$WIMWV,235.3,R,10.6,N,A*13
$WIMWV,238.7,R,10.2,N,A*1e
$WIMWV,242.5,R,10.2,N,A*11
$GPRMC,104247.000,A,5412.5770,N,01205.7666,E,6.11,9.66,020621,,,A*62
$GPVTG,9.66,T,,M,6.11,N,11.3,K,A*31
$WIMWV,232.8,R,10.6,N,A*1f
$WIMWV,227.0,R,10.2,N,A*17
$WIMWV,232.8,R,10.6,N,A*1f
$WIMWV,235.0,R,10.6,N,A*10
$WIMWV,234.1,R,10.6,N,A*10
$WIMWV,232.4,R,10.6,N,A*13
$WIMWV,232.1,R,10.6,N,A*16
$WIMWV,236.8,R,10.2,N,A*1f
$WIMWV,233.9,R,10.2,N,A*1b
$WIMWV,232.9,R,9.8,N,A*28
$GPRMC,104248.000,A,5412.5787,N,01205.7671,E,5.89,10.73,020621,,,A*5D
$GPVTG,10.73,T,,M,5.89,N,10.9,K,A*04
$WIMWV,231.9,R,10.2,N,A*19
$WIMWV,237.6,R,10.2,N,A*10
$WIMWV,236.2,R,10.2,N,A*15
$WIMWV,228.0,R,9.8,N,A*2a
$WIMWV,223.0,R,9.8,N,A*21
$WIMWV,225.8,R,10.2,N,A*1d
$WIMWV,229.5,R,9.8,N,A*2e
$WIMWV,232.6,R,9.4,N,A*2b
$WIMWV,229.7,R,9.8,N,A*2c
$WIMWV,229.6,R,9.8,N,A*2d
$GPRMC,104249.000,A,5412.5803,N,01205.7676,E,5.98,10.06,020621,,,A*5A
$GPVTG,10.06,T,,M,5.98,N,11.1,K,A*0F
$WIMWV,230.8,R,9.8,N,A*2b
$WIMWV,235.7,R,9.8,N,A*21
$WIMWV,241.1,R,9.4,N,A*28
$WIMWV,241.5,R,9.8,N,A*20
$WIMWV,244.4,R,10.2,N,A*16
$WIMWV,241.4,R,9.8,N,A*21
$WIMWV,239.2,R,10.2,N,A*1a
$WIMWV,239.2,R,10.2,N,A*1a
$WIMWV,238.6,R,9.8,N,A*2d
$WIMWV,237.9,R,10.2,N,A*1f
$GPRMC,104250.000,A,5412.5818,N,01205.7681,E,5.68,10.53,020621,,,A*5F
$GPVTG,10.53,T,,M,5.68,N,10.5,K,A*05
$WIMWV,235.0,R,10.2,N,A*14
$WIMWV,228.8,R,10.6,N,A*14
$WIMWV,228.0,R,10.2,N,A*18
$WIMWV,236.4,R,10.6,N,A*17
$WIMWV,237.0,R,10.2,N,A*16
$WIMWV,230.1,R,10.6,N,A*14
$WIMWV,228.6,R,10.2,N,A*1e
$WIMWV,236.5,R,10.2,N,A*12
$WIMWV,241.6,R,9.8,N,A*23
$WIMWV,239.3,R,9.8,N,A*29
$GPRMC,104251.000,A,5412.5834,N,01205.7686,E,5.89,9.65,020621,,,A*65
$GPVTG,9.65,T,,M,5.89,N,10.9,K,A*3B
$WIMWV,230.9,R,9.8,N,A*2a
$WIMWV,224.1,R,9.4,N,A*2b
$WIMWV,220.1,R,9.4,N,A*2f
$WIMWV,221.4,R,9.4,N,A*2b
$WIMWV,227.3,R,9.4,N,A*2a
$WIMWV,227.7,R,9.4,N,A*2e
$WIMWV,223.1,R,9.4,N,A*2c
$WIMWV,221.2,R,9.4,N,A*2d
$WIMWV,232.6,R,9.0,N,A*2f
$WIMWV,243.8,R,9.4,N,A*23
$GPRMC,104252.000,A,5412.5849,N,01205.7688,E,5.76,7.47,020621,,,A*6C
$GPVTG,7.47,T,,M,5.76,N,10.7,K,A*3B
$WIMWV,250.6,R,9.0,N,A*2b
$WIMWV,239.4,R,9.0,N,A*26
$WIMWV,227.0,R,9.4,N,A*29
$WIMWV,227.7,R,9.0,N,A*2a
$WIMWV,232.3,R,9.4,N,A*2e
$WIMWV,234.9,R,9.4,N,A*22
$WIMWV,234.2,R,9.4,N,A*29
$WIMWV,227.3,R,9.4,N,A*2a
$WIMWV,222.7,R,9.4,N,A*2b
$WIMWV,226.7,R,9.4,N,A*2f
$GPRMC,104253.000,A,5412.5863,N,01205.7692,E,5.46,7.60,020621,,,A*68
$GPVTG,7.60,T,,M,5.46,N,10.1,K,A*3B
$WIMWV,234.0,R,9.0,N,A*2f
$WIMWV,234.3,R,9.8,N,A*24
$WIMWV,233.7,R,9.4,N,A*2b
$WIMWV,231.9,R,9.4,N,A*27
$WIMWV,238.5,R,9.8,N,A*2e
$WIMWV,237.9,R,9.8,N,A*2d
$WIMWV,236.7,R,9.4,N,A*2e
$WIMWV,235.0,R,9.8,N,A*26
$WIMWV,234.8,R,9.8,N,A*2f
$WIMWV,231.9,R,9.4,N,A*27
$GPRMC,104254.000,A,5412.5878,N,01205.7696,E,5.50,8.97,020621,,,A*61
$GPVTG,8.97,T,,M,5.50,N,10.2,K,A*38
$WIMWV,226.8,R,9.8,N,A*2c
$WIMWV,223.7,R,9.4,N,A*2a
$WIMWV,225.6,R,9.8,N,A*21
$WIMWV,229.6,R,9.8,N,A*2d
$WIMWV,228.9,R,9.8,N,A*23
$WIMWV,228.5,R,10.2,N,A*1d
$WIMWV,231.4,R,9.8,N,A*26
$WIMWV,233.8,R,10.2,N,A*1a
$WIMWV,231.1,R,9.8,N,A*23
$WIMWV,232.1,R,9.8,N,A*20
$GPRMC,104255.000,A,5412.5893,N,01205.7700,E,5.69,8.39,020621,,,A*65
$GPVTG,8.39,T,,M,5.69,N,10.5,K,A*31
$WIMWV,232.2,R,9.8,N,A*23
$WIMWV,232.1,R,9.8,N,A*20
$WIMWV,232.7,R,9.4,N,A*2a
$WIMWV,232.8,R,9.8,N,A*29
$WIMWV,227.3,R,9.4,N,A*2a
$WIMWV,228.4,R,10.2,N,A*1c
$WIMWV,233.8,R,9.8,N,A*28
$WIMWV,233.1,R,9.8,N,A*21
$WIMWV,230.4,R,9.8,N,A*27
$WIMWV,228.8,R,9.8,N,A*22
$GPRMC,104256.000,A,5412.5908,N,01205.7704,E,5.39,8.48,020621,,,A*62
$GPVTG,8.48,T,,M,5.39,N,10.0,K,A*37
$WIMWV,230.9,R,9.8,N,A*2a
$WIMWV,234.3,R,9.8,N,A*24
$WIMWV,234.1,R,9.8,N,A*26
$WIMWV,231.3,R,10.2,N,A*13
$WIMWV,230.3,R,9.8,N,A*20
$WIMWV,234.0,R,9.8,N,A*27
$WIMWV,235.1,R,9.8,N,A*27
$WIMWV,234.8,R,10.2,N,A*1d
$WIMWV,239.2,R,10.2,N,A*1a
$WIMWV,246.2,R,10.2,N,A*12
$GPRMC,104257.000,A,5412.5923,N,01205.7709,E,5.75,9.46,020621,,,A*60
$GPVTG,9.46,T,,M,5.75,N,10.6,K,A*36
$WIMWV,245.3,R,10.2,N,A*10
$WIMWV,245.2,R,10.6,N,A*15
$WIMWV,243.7,R,10.2,N,A*12
$WIMWV,241.6,R,10.2,N,A*11
$WIMWV,238.4,R,10.2,N,A*1d
$WIMWV,235.7,R,10.2,N,A*13
$WIMWV,233.3,R,10.2,N,A*11
$WIMWV,232.3,R,10.2,N,A*10
$WIMWV,234.5,R,9.8,N,A*22
$WIMWV,237.2,R,10.2,N,A*14
$GPRMC,104258.000,A,5412.5938,N,01205.7713,E,5.66,8.69,020621,,,A*60
$GPVTG,8.69,T,,M,5.66,N,10.5,K,A*3B
$WIMWV,237.5,R,9.8,N,A*21
$WIMWV,240.3,R,10.2,N,A*15
$WIMWV,238.0,R,9.8,N,A*2b
$WIMWV,231.7,R,9.8,N,A*25
$WIMWV,225.7,R,9.8,N,A*20
$WIMWV,226.6,R,9.8,N,A*22
$WIMWV,230.7,R,10.2,N,A*16
$WIMWV,234.3,R,9.8,N,A*24
$WIMWV,227.9,R,10.2,N,A*1e
$WIMWV,221.8,R,10.2,N,A*19
$GPRMC,104259.000,A,5412.5953,N,01205.7717,E,5.60,8.56,020621,,,A*62
$GPVTG,8.56,T,,M,5.60,N,10.4,K,A*30
$WIMWV,232.1,R,10.6,N,A*16
$WIMWV,237.5,R,10.2,N,A*13
$WIMWV,234.3,R,10.2,N,A*16
$WIMWV,234.6,R,10.6,N,A*17
$WIMWV,238.1,R,10.6,N,A*1c
$WIMWV,237.7,R,10.6,N,A*15
$WIMWV,235.9,R,10.6,N,A*19
$WIMWV,234.7,R,10.6,N,A*16
$WIMWV,233.3,R,11.0,N,A*12
$WIMWV,236.5,R,10.6,N,A*16
$GPRMC,104300.000,A,5412.5968,N,01205.7719,E,5.57,6.58,020621,,,A*6D
$GPVTG,6.58,T,,M,5.57,N,10.3,K,A*33
$WIMWV,240.1,R,10.6,N,A*13
$WIMWV,241.8,R,11.0,N,A*1c
$WIMWV,238.3,R,10.6,N,A*1e
$WIMWV,236.3,R,10.6,N,A*10
$WIMWV,240.1,R,10.2,N,A*17
$WIMWV,245.6,R,10.6,N,A*11
$WIMWV,245.3,R,10.6,N,A*14
$WIMWV,238.9,R,10.6,N,A*14
$WIMWV,237.4,R,10.2,N,A*12
$WIMWV,238.8,R,10.6,N,A*15
$GPRMC,104301.000,A,5412.5982,N,01205.7724,E,5.44,10.88,020621,,,A*5E
$GPVTG,10.88,T,,M,5.44,N,10.1,K,A*09
$WIMWV,240.0,R,10.6,N,A*12
$WIMWV,229.1,R,11.0,N,A*1b
$WIMWV,230.2,R,11.0,N,A*10
$WIMWV,238.4,R,11.0,N,A*1e
$WIMWV,238.5,R,11.4,N,A*1b
$WIMWV,231.1,R,11.0,N,A*12
$WIMWV,236.9,R,10.6,N,A*1a
$WIMWV,245.4,R,11.0,N,A*14
$WIMWV,248.6,R,10.2,N,A*18
$WIMWV,242.3,R,10.6,N,A*13
$GPRMC,104302.000,A,5412.5997,N,01205.7730,E,5.51,12.07,020621,,,A*5D
$GPVTG,12.07,T,,M,5.51,N,10.2,K,A*0B
$WIMWV,231.7,R,10.2,N,A*17
$WIMWV,231.9,R,10.2,N,A*19
$WIMWV,235.0,R,10.2,N,A*14
$WIMWV,238.8,R,10.2,N,A*11
$WIMWV,234.3,R,10.2,N,A*16
$WIMWV,230.3,R,10.2,N,A*12
$WIMWV,232.8,R,10.6,N,A*1f
$WIMWV,236.3,R,10.2,N,A*14
$WIMWV,232.8,R,10.6,N,A*1f
$WIMWV,230.0,R,10.2,N,A*11
$GPRMC,104303.000,A,5412.6012,N,01205.7734,E,5.54,9.03,020621,,,A*64
$GPVTG,9.03,T,,M,5.54,N,10.3,K,A*31
$WIMWV,232.9,R,11.0,N,A*19
$WIMWV,235.1,R,10.6,N,A*11
$WIMWV,238.1,R,10.6,N,A*1c
$WIMWV,237.6,R,11.0,N,A*13
$WIMWV,239.3,R,10.6,N,A*1f
$WIMWV,245.9,R,10.2,N,A*1a
$WIMWV,247.3,R,10.2,N,A*12
$WIMWV,240.3,R,10.2,N,A*15
$WIMWV,233.4,R,9.8,N,A*24
$WIMWV,227.0,R,10.2,N,A*17
$GPRMC,104304.000,A,5412.6026,N,01205.7739,E,5.53,10.65,020621,,,A*56
$GPVTG,10.65,T,,M,5.53,N,10.2,K,A*0F
