$GPRMC,130029.000,A,5413.5176,N,01205.7215,E,1.19,0.02,020621,,,A*6A
$GPVTG,0.02,T,,M,1.19,N,2.2,K,A*06
$WIMWV,248.0,R,4.9,N,A*20
$WIMWV,253.9,R,4.9,N,A*23
$WIMWV,257.3,R,4.9,N,A*2d
$WIMWV,257.2,R,4.5,N,A*20
$WIMWV,250.3,R,4.9,N,A*2a
$WIMWV,242.2,R,4.9,N,A*28
$WIMWV,237.7,R,4.9,N,A*2f
$WIMWV,240.8,R,4.9,N,A*20
$GPRMC,130030.000,A,5413.5180,N,01205.7214,E,1.10,1.34,020621,,,A*67
$GPVTG,1.34,T,,M,1.10,N,2.0,K,A*09
$WIMWV,245.2,R,4.5,N,A*23
$WIMWV,253.9,R,4.9,N,A*23
$WIMWV,258.2,R,4.9,N,A*23
$WIMWV,258.4,R,4.5,N,A*29
$WIMWV,256.1,R,4.9,N,A*2e
$WIMWV,257.7,R,4.5,N,A*25
$WIMWV,256.1,R,4.9,N,A*2e
$WIMWV,253.9,R,4.5,N,A*2f
$WIMWV,255.4,R,4.5,N,A*24
$WIMWV,255.5,R,4.9,N,A*29
$GPRMC,130031.000,A,5413.5184,N,01205.7213,E,1.48,355.95,020621,,,A*61
$GPVTG,355.95,T,,M,1.48,N,2.7,K,A*0A
$WIMWV,257.5,R,4.5,N,A*27
$WIMWV,257.6,R,4.5,N,A*24
$WIMWV,258.4,R,4.5,N,A*29
$WIMWV,257.3,R,4.5,N,A*21
$WIMWV,257.0,R,4.5,N,A*22
$WIMWV,255.5,R,4.5,N,A*25
$WIMWV,254.7,R,4.5,N,A*26
$WIMWV,249.8,R,4.5,N,A*25
$WIMWV,243.6,R,4.1,N,A*25
$WIMWV,236.5,R,4.5,N,A*20
$GPRMC,130032.000,A,5413.5187,N,01205.7210,E,0.78,355.95,020621,,,A*60
$GPVTG,355.95,T,,M,0.78,N,1.5,K,A*09
$WIMWV,230.8,R,4.1,N,A*2f
$WIMWV,228.5,R,4.1,N,A*2b
$WIMWV,230.7,R,4.5,N,A*24
$WIMWV,235.3,R,4.1,N,A*21
$WIMWV,241.6,R,4.1,N,A*27
$WIMWV,246.0,R,4.1,N,A*26
$WIMWV,246.7,R,4.1,N,A*21
$WIMWV,245.6,R,4.1,N,A*23
$WIMWV,243.5,R,4.1,N,A*26
$WIMWV,241.6,R,4.1,N,A*27
$GPRMC,130033.000,A,5413.5189,N,01205.7210,E,1.16,359.15,020621,,,A*62
$GPVTG,359.15,T,,M,1.16,N,2.2,K,A*00
$WIMWV,237.9,R,3.7,N,A*28
$WIMWV,237.2,R,4.1,N,A*22
$WIMWV,242.1,R,4.1,N,A*23
$WIMWV,248.4,R,3.7,N,A*2d
$WIMWV,251.0,R,4.1,N,A*20
$WIMWV,258.1,R,4.1,N,A*28
$WIMWV,264.3,R,3.7,N,A*24
$WIMWV,267.9,R,4.1,N,A*2c
$WIMWV,267.8,R,3.7,N,A*2c
$WIMWV,263.0,R,4.1,N,A*21
$GPRMC,130034.000,A,5413.5193,N,01205.7209,E,1.07,355.51,020621,,,A*6A
$GPVTG,355.51,T,,M,1.07,N,2.0,K,A*0E
$WIMWV,254.4,R,3.7,N,A*20
$WIMWV,243.3,R,3.7,N,A*21
$WIMWV,233.8,R,4.1,N,A*2c
$WIMWV,226.9,R,3.7,N,A*28
$WIMWV,224.5,R,3.7,N,A*26
$WIMWV,227.5,R,4.1,N,A*24
$WIMWV,234.2,R,3.7,N,A*20
$WIMWV,244.7,R,3.7,N,A*22
$WIMWV,258.2,R,3.7,N,A*2a
$WIMWV,270.8,R,3.7,N,A*2a
$GPRMC,130035.000,A,5413.5195,N,01205.7207,E,0.49,355.51,020621,,,A*68
$GPVTG,355.51,T,,M,0.49,N,0.9,K,A*0E
$WIMWV,277.9,R,3.7,N,A*2c
$WIMWV,276.8,R,3.7,N,A*2c
$WIMWV,268.5,R,3.7,N,A*2e
$WIMWV,262.6,R,3.3,N,A*23
$WIMWV,257.0,R,3.7,N,A*27
$WIMWV,254.6,R,3.7,N,A*22
$WIMWV,262.1,R,3.7,N,A*20
$WIMWV,270.7,R,3.7,N,A*25
$WIMWV,283.3,R,4.1,N,A*2c
$WIMWV,293.2,R,3.7,N,A*2d
$GPRMC,130036.000,A,5413.5196,N,01205.7207,E,1.27,0.27,020621,,,A*63
$GPVTG,0.27,T,,M,1.27,N,2.3,K,A*0D
$WIMWV,297.6,R,4.1,N,A*2c
$WIMWV,297.6,R,3.7,N,A*2d
$WIMWV,292.6,R,4.1,N,A*29
$WIMWV,282.3,R,4.1,N,A*2d
$WIMWV,268.5,R,3.7,N,A*2e
$WIMWV,253.5,R,4.1,N,A*27
$WIMWV,240.1,R,4.1,N,A*21
$WIMWV,233.5,R,3.7,N,A*20
$WIMWV,234.4,R,4.1,N,A*27
$WIMWV,243.2,R,3.7,N,A*20
$GPRMC,130037.000,A,5413.5197,N,01205.7205,E,0.56,0.27,020621,,,A*66
$GPVTG,0.27,T,,M,0.56,N,1.0,K,A*0A
$WIMWV,254.5,R,4.1,N,A*20
$WIMWV,261.4,R,3.7,N,A*26
$WIMWV,261.6,R,3.7,N,A*24
$WIMWV,257.1,R,3.7,N,A*26
$WIMWV,250.3,R,3.7,N,A*23
$WIMWV,250.2,R,3.3,N,A*26
$WIMWV,248.4,R,3.7,N,A*2d
$WIMWV,251.7,R,3.3,N,A*22
$WIMWV,258.0,R,3.7,N,A*28
$WIMWV,266.6,R,3.3,N,A*27
$GPRMC,130038.000,A,5413.5197,N,01205.7204,E,0.91,353.63,020621,,,A*66
$GPVTG,353.63,T,,M,0.91,N,1.7,K,A*03
$WIMWV,276.0,R,3.7,N,A*24
$WIMWV,284.4,R,3.7,N,A*2d
$WIMWV,294.6,R,4.1,N,A*2f
$WIMWV,304.6,R,3.7,N,A*26
$WIMWV,311.4,R,4.1,N,A*21
$WIMWV,320.8,R,4.1,N,A*2f
$WIMWV,313.4,R,4.1,N,A*23
$WIMWV,305.2,R,4.5,N,A*26
$WIMWV,293.5,R,4.1,N,A*2b
$WIMWV,272.6,R,4.5,N,A*23
$GPRMC,130039.000,A,5413.5200,N,01205.7203,E,0.74,353.63,020621,,,A*66
$GPVTG,353.63,T,,M,0.74,N,1.4,K,A*0B
$WIMWV,255.7,R,4.1,N,A*23
$WIMWV,241.9,R,4.1,N,A*28
$WIMWV,234.4,R,4.1,N,A*27
$WIMWV,234.3,R,4.1,N,A*20
$WIMWV,238.7,R,4.5,N,A*2c
$WIMWV,246.2,R,4.1,N,A*24
$WIMWV,252.6,R,4.1,N,A*25
$WIMWV,253.5,R,3.7,N,A*26
$WIMWV,249.1,R,4.1,N,A*28
$WIMWV,243.4,R,4.1,N,A*27
$GPRMC,130040.000,A,5413.5202,N,01205.7201,E,0.35,353.63,020621,,,A*6D
$GPVTG,353.63,T,,M,0.35,N,0.6,K,A*0D
$WIMWV,239.6,R,4.1,N,A*28
$WIMWV,242.3,R,3.7,N,A*20
$WIMWV,245.4,R,4.1,N,A*21
$WIMWV,255.2,R,3.7,N,A*27
$WIMWV,266.3,R,4.1,N,A*27
$WIMWV,277.2,R,3.7,N,A*27
$WIMWV,288.5,R,4.1,N,A*21
$WIMWV,295.0,R,4.1,N,A*28
$WIMWV,296.7,R,3.7,N,A*2d
$WIMWV,298.5,R,4.1,N,A*20
$GPRMC,130041.000,A,5413.5203,N,01205.7200,E,0.85,354.30,020621,,,A*66
$GPVTG,354.30,T,,M,0.85,N,1.6,K,A*06
$WIMWV,293.7,R,3.7,N,A*28
$WIMWV,286.6,R,4.1,N,A*2c
$WIMWV,275.6,R,3.7,N,A*21
$WIMWV,262.2,R,4.1,N,A*22
$WIMWV,250.3,R,3.7,N,A*23
$WIMWV,241.3,R,4.1,N,A*22
$WIMWV,238.7,R,3.7,N,A*29
$WIMWV,240.7,R,4.1,N,A*27
$WIMWV,245.5,R,3.7,N,A*21
$WIMWV,250.3,R,4.1,N,A*22
$GPRMC,130042.000,A,5413.5204,N,01205.7198,E,0.47,354.30,020621,,,A*6E
$GPVTG,354.30,T,,M,0.47,N,0.9,K,A*06
$WIMWV,255.4,R,3.7,N,A*21
$WIMWV,258.3,R,3.7,N,A*2b
$WIMWV,260.3,R,4.1,N,A*21
$WIMWV,260.2,R,3.7,N,A*21
$WIMWV,262.8,R,3.7,N,A*29
$WIMWV,260.7,R,4.1,N,A*25
$WIMWV,258.7,R,3.7,N,A*2f
$WIMWV,256.0,R,4.1,N,A*27
$WIMWV,256.4,R,3.7,N,A*22
$WIMWV,259.3,R,4.1,N,A*2b
$GPRMC,130043.000,A,5413.5206,N,01205.7197,E,0.80,354.30,020621,,,A*69
$GPVTG,354.30,T,,M,0.80,N,1.5,K,A*00
$WIMWV,261.2,R,3.7,N,A*20
$WIMWV,263.0,R,4.1,N,A*21
$WIMWV,264.7,R,3.7,N,A*20
$WIMWV,267.2,R,4.1,N,A*27
$WIMWV,264.3,R,4.1,N,A*25
$WIMWV,258.8,R,4.1,N,A*21
$WIMWV,252.2,R,4.1,N,A*21
$WIMWV,247.1,R,4.1,N,A*26
$WIMWV,244.4,R,4.1,N,A*20
$WIMWV,243.1,R,4.1,N,A*22
$GPRMC,130044.000,A,5413.5207,N,01205.7196,E,0.43,354.30,020621,,,A*61
$GPVTG,354.30,T,,M,0.43,N,0.8,K,A*03
$WIMWV,242.7,R,4.1,N,A*25
$WIMWV,243.9,R,4.1,N,A*2a
$WIMWV,247.7,R,4.1,N,A*20
$WIMWV,252.5,R,4.1,N,A*26
$WIMWV,255.4,R,4.1,N,A*20
$WIMWV,256.3,R,3.7,N,A*25
$WIMWV,260.2,R,4.1,N,A*20
$WIMWV,261.9,R,4.1,N,A*2a
$WIMWV,264.1,R,3.7,N,A*26
$WIMWV,266.9,R,4.1,N,A*2d
$GPRMC,130045.000,A,5413.5207,N,01205.7194,E,0.34,354.30,020621,,,A*62
$GPVTG,354.30,T,,M,0.34,N,0.6,K,A*0D
$WIMWV,269.0,R,4.1,N,A*2b
$WIMWV,268.6,R,4.1,N,A*2c
$WIMWV,269.5,R,4.1,N,A*2e
$WIMWV,270.1,R,4.1,N,A*22
$WIMWV,272.3,R,4.1,N,A*22
$WIMWV,273.5,R,4.1,N,A*25
$WIMWV,272.5,R,4.5,N,A*20
$WIMWV,270.5,R,4.1,N,A*26
$WIMWV,266.5,R,4.1,N,A*21
$WIMWV,264.0,R,4.5,N,A*22
$GPRMC,130046.000,A,5413.5209,N,01205.7192,E,0.93,350.87,020621,,,A*6C
$GPVTG,350.87,T,,M,0.93,N,1.7,K,A*08
$WIMWV,267.6,R,4.1,N,A*23
$WIMWV,268.1,R,4.5,N,A*2f
$WIMWV,269.4,R,4.1,N,A*2f
$WIMWV,271.6,R,4.1,N,A*24
$WIMWV,273.9,R,4.5,N,A*2d
$WIMWV,275.4,R,4.1,N,A*22
$WIMWV,272.6,R,4.5,N,A*23
$WIMWV,270.6,R,4.1,N,A*25
$WIMWV,267.0,R,4.1,N,A*25
$WIMWV,262.1,R,4.1,N,A*21
$GPRMC,130047.000,A,5413.5211,N,01205.7191,E,0.80,350.87,020621,,,A*65
$GPVTG,350.87,T,,M,0.80,N,1.5,K,A*08
$WIMWV,256.8,R,4.1,N,A*2f
$WIMWV,252.7,R,4.1,N,A*24
$WIMWV,251.0,R,4.1,N,A*20
$WIMWV,251.4,R,4.1,N,A*24
$WIMWV,253.9,R,4.1,N,A*2b
$WIMWV,256.7,R,4.1,N,A*20
$WIMWV,260.5,R,4.1,N,A*27
$WIMWV,262.0,R,3.7,N,A*21
$WIMWV,261.7,R,4.1,N,A*24
$WIMWV,260.8,R,3.7,N,A*2b
$GPRMC,130048.000,A,5413.5213,N,01205.7188,E,0.38,350.87,020621,,,A*63
$GPVTG,350.87,T,,M,0.38,N,0.7,K,A*08
$WIMWV,265.4,R,4.1,N,A*23
$WIMWV,265.0,R,3.7,N,A*26
$WIMWV,267.3,R,4.1,N,A*26
$WIMWV,269.5,R,3.7,N,A*2f
$WIMWV,274.8,R,4.1,N,A*2f
$WIMWV,279.5,R,4.1,N,A*2f
$WIMWV,284.2,R,4.1,N,A*2a
$WIMWV,281.7,R,4.1,N,A*2a
$WIMWV,283.1,R,3.7,N,A*2f
$WIMWV,282.2,R,4.5,N,A*28
$GPRMC,130049.000,A,5413.5215,N,01205.7186,E,0.80,344.64,020621,,,A*61
$GPVTG,344.64,T,,M,0.80,N,1.5,K,A*00
$WIMWV,277.2,R,4.1,N,A*26
$WIMWV,269.9,R,4.1,N,A*22
$WIMWV,261.9,R,4.1,N,A*2a
$WIMWV,256.0,R,4.1,N,A*27
$WIMWV,253.7,R,4.5,N,A*21
$WIMWV,256.0,R,4.1,N,A*27
$WIMWV,259.7,R,4.1,N,A*2f
$WIMWV,263.7,R,4.1,N,A*26
$WIMWV,266.1,R,4.1,N,A*25
$WIMWV,270.5,R,4.1,N,A*26
$GPRMC,130050.000,A,5413.5217,N,01205.7184,E,0.67,344.64,020621,,,A*60
$GPVTG,344.64,T,,M,0.67,N,1.2,K,A*0E
$WIMWV,272.5,R,3.7,N,A*25
$WIMWV,272.5,R,4.1,N,A*24
$WIMWV,272.4,R,4.1,N,A*25
$WIMWV,271.8,R,4.1,N,A*2a
$WIMWV,265.2,R,4.1,N,A*25
$WIMWV,264.8,R,3.7,N,A*2f
$WIMWV,264.8,R,4.1,N,A*2e
$WIMWV,264.0,R,4.1,N,A*26
$WIMWV,265.1,R,4.1,N,A*26
$WIMWV,266.9,R,4.5,N,A*29
$GPRMC,130051.000,A,5413.5218,N,01205.7182,E,0.49,344.64,020621,,,A*64
$GPVTG,344.64,T,,M,0.49,N,0.9,K,A*08
$WIMWV,270.0,R,4.1,N,A*23
$WIMWV,271.9,R,4.1,N,A*2b
$WIMWV,271.3,R,4.5,N,A*25
$WIMWV,268.7,R,4.5,N,A*29
$WIMWV,265.1,R,4.1,N,A*26
$WIMWV,261.4,R,4.9,N,A*2f
$WIMWV,259.9,R,4.5,N,A*25
$WIMWV,262.0,R,4.5,N,A*24
$WIMWV,267.6,R,4.5,N,A*27
$WIMWV,269.4,R,4.5,N,A*2b
$GPRMC,130052.000,A,5413.5220,N,01205.7179,E,0.81,343.16,020621,,,A*6E
$GPVTG,343.16,T,,M,0.81,N,1.5,K,A*03
$WIMWV,272.5,R,4.5,N,A*20
$WIMWV,273.3,R,4.5,N,A*27
$WIMWV,272.4,R,4.5,N,A*21
$WIMWV,270.8,R,4.5,N,A*2f
$WIMWV,268.5,R,4.5,N,A*2b
$WIMWV,261.2,R,4.5,N,A*25
$WIMWV,258.4,R,4.5,N,A*29
$WIMWV,256.3,R,4.1,N,A*24
$WIMWV,255.7,R,4.5,N,A*27
$WIMWV,256.6,R,4.5,N,A*25
$GPRMC,130053.000,A,5413.5221,N,01205.7178,E,0.63,343.16,020621,,,A*63
$GPVTG,343.16,T,,M,0.63,N,1.2,K,A*08
$WIMWV,256.3,R,4.1,N,A*24
$WIMWV,256.1,R,4.5,N,A*22
$WIMWV,253.6,R,4.5,N,A*20
$WIMWV,251.0,R,4.1,N,A*20
$WIMWV,252.5,R,4.5,N,A*22
$WIMWV,258.9,R,4.5,N,A*24
$WIMWV,264.5,R,4.5,N,A*27
$WIMWV,266.8,R,4.1,N,A*2c
$WIMWV,267.0,R,4.5,N,A*21
$WIMWV,265.1,R,4.5,N,A*22
$GPRMC,130054.000,A,5413.5221,N,01205.7176,E,0.61,293.46,020621,,,A*61
$GPVTG,293.46,T,,M,0.61,N,1.1,K,A*00
$WIMWV,262.9,R,4.5,N,A*2d
$WIMWV,262.4,R,4.1,N,A*24
$WIMWV,264.5,R,4.5,N,A*27
$WIMWV,269.5,R,4.1,N,A*2e
$WIMWV,274.1,R,4.1,N,A*26
$WIMWV,278.7,R,4.5,N,A*28
$WIMWV,283.7,R,4.1,N,A*28
$WIMWV,288.3,R,4.1,N,A*27
$WIMWV,291.7,R,4.1,N,A*2b
$WIMWV,290.8,R,4.5,N,A*21
$GPRMC,130055.000,A,5413.5221,N,01205.7173,E,0.78,312.16,020621,,,A*60
$GPVTG,312.16,T,,M,0.78,N,1.4,K,A*00
$WIMWV,280.7,R,4.5,N,A*2f
$WIMWV,274.3,R,4.5,N,A*20
$WIMWV,269.5,R,4.5,N,A*2a
$WIMWV,266.8,R,4.5,N,A*28
$WIMWV,266.1,R,4.9,N,A*2d
$WIMWV,265.4,R,4.5,N,A*27
$WIMWV,263.6,R,4.9,N,A*2f
$WIMWV,259.5,R,4.9,N,A*25
$WIMWV,255.7,R,4.9,N,A*2b
$WIMWV,252.8,R,4.5,N,A*2f
$GPRMC,130056.000,A,5413.5223,N,01205.7171,E,0.70,312.16,020621,,,A*6B
$GPVTG,312.16,T,,M,0.70,N,1.3,K,A*0F
$WIMWV,252.5,R,4.9,N,A*2e
$WIMWV,251.6,R,4.9,N,A*2e
$WIMWV,249.9,R,4.5,N,A*24
$WIMWV,247.9,R,4.5,N,A*2a
$WIMWV,249.0,R,4.5,N,A*2d
$WIMWV,252.5,R,4.5,N,A*22
$WIMWV,258.3,R,4.5,N,A*2e
$WIMWV,262.4,R,4.5,N,A*20
$WIMWV,264.6,R,4.1,N,A*20
$WIMWV,267.0,R,4.5,N,A*21
$GPRMC,130057.000,A,5413.5224,N,01205.7169,E,0.66,312.16,020621,,,A*63
$GPVTG,312.16,T,,M,0.66,N,1.2,K,A*09
$WIMWV,269.8,R,4.1,N,A*23
$WIMWV,272.1,R,4.5,N,A*24
$WIMWV,272.6,R,4.1,N,A*27
$WIMWV,273.7,R,4.5,N,A*23
$WIMWV,275.1,R,4.5,N,A*23
$WIMWV,277.0,R,4.1,N,A*24
$WIMWV,278.7,R,4.5,N,A*28
$WIMWV,279.6,R,4.5,N,A*28
$WIMWV,277.6,R,4.5,N,A*26
$WIMWV,278.1,R,4.5,N,A*2e
$GPRMC,130058.000,A,5413.5226,N,01205.7166,E,1.05,317.80,020621,,,A*6F
$GPVTG,317.80,T,,M,1.05,N,1.9,K,A*0C
$WIMWV,275.4,R,4.5,N,A*26
$WIMWV,271.1,R,4.5,N,A*27
$WIMWV,263.5,R,4.5,N,A*20
$WIMWV,254.9,R,4.1,N,A*2c
$WIMWV,248.8,R,4.5,N,A*24
$WIMWV,247.2,R,4.5,N,A*21
$WIMWV,249.9,R,4.5,N,A*24
$WIMWV,257.0,R,4.5,N,A*22
$WIMWV,265.3,R,4.5,N,A*20
$WIMWV,271.1,R,4.5,N,A*27
$WIMWV,273.2,R,4.1,N,A*22
$WIMWV,270.1,R,4.5,N,A*26
$GPRMC,130059.000,A,5413.5227,N,01205.7163,E,0.50,317.80,020621,,,A*6B
$GPVTG,317.80,T,,M,0.50,N,0.9,K,A*0C
$WIMWV,264.8,R,4.1,N,A*2e
$WIMWV,260.5,R,4.5,N,A*23
$WIMWV,259.1,R,4.5,N,A*2d
$WIMWV,259.8,R,4.1,N,A*20
$WIMWV,262.2,R,4.1,N,A*22
$WIMWV,265.0,R,4.1,N,A*27
$WIMWV,267.8,R,4.1,N,A*2d
$WIMWV,272.4,R,4.1,N,A*25
$WIMWV,278.6,R,4.1,N,A*2d
$WIMWV,279.4,R,4.1,N,A*2e
$GPRMC,130100.000,A,5413.5228,N,01205.7161,E,0.58,317.80,020621,,,A*63
$GPVTG,317.80,T,,M,0.58,N,1.1,K,A*0D
$WIMWV,278.3,R,4.1,N,A*28
$WIMWV,277.5,R,4.1,N,A*21
$WIMWV,276.1,R,4.1,N,A*24
$WIMWV,276.8,R,4.1,N,A*2d
$WIMWV,276.5,R,4.5,N,A*24
$WIMWV,272.1,R,4.1,N,A*20
$WIMWV,273.2,R,4.1,N,A*22
$WIMWV,272.9,R,4.5,N,A*2c
$WIMWV,271.5,R,4.1,N,A*27
$WIMWV,268.1,R,4.5,N,A*2f
$GPRMC,130101.000,A,5413.5231,N,01205.7158,E,1.30,326.83,020621,,,A*6E
$GPVTG,326.83,T,,M,1.30,N,2.4,K,A*05
$WIMWV,264.2,R,4.1,N,A*24
$WIMWV,260.3,R,4.5,N,A*25
$WIMWV,256.0,R,4.1,N,A*27
$WIMWV,254.6,R,4.1,N,A*23
$WIMWV,254.1,R,4.1,N,A*24
$WIMWV,256.8,R,4.5,N,A*2b
$WIMWV,260.3,R,4.1,N,A*21
$WIMWV,263.9,R,4.1,N,A*28
$WIMWV,266.3,R,4.5,N,A*23
$WIMWV,268.5,R,4.1,N,A*2f
$GPRMC,130102.000,A,5413.5233,N,01205.7156,E,0.55,326.83,020621,,,A*63
$GPVTG,326.83,T,,M,0.55,N,1.0,K,A*00
$WIMWV,270.1,R,4.1,N,A*22
$WIMWV,270.9,R,4.5,N,A*2e
$WIMWV,272.1,R,4.1,N,A*20
$WIMWV,271.9,R,4.5,N,A*2f
$WIMWV,272.4,R,4.1,N,A*25
$WIMWV,271.7,R,4.5,N,A*21
$WIMWV,270.5,R,4.1,N,A*26
$WIMWV,268.8,R,4.5,N,A*26
$WIMWV,269.5,R,4.1,N,A*2e
$WIMWV,269.7,R,4.5,N,A*28
$GPRMC,130103.000,A,5413.5234,N,01205.7154,E,1.29,337.99,020621,,,A*66
$GPVTG,337.99,T,,M,1.29,N,2.4,K,A*06
$WIMWV,270.5,R,4.5,N,A*22
$WIMWV,271.0,R,4.1,N,A*22
$WIMWV,270.0,R,4.5,N,A*27
$WIMWV,272.9,R,4.5,N,A*2c
$WIMWV,275.2,R,4.1,N,A*24
$WIMWV,276.9,R,4.5,N,A*28
$WIMWV,272.8,R,4.5,N,A*2d
$WIMWV,273.7,R,4.5,N,A*23
$WIMWV,273.2,R,4.5,N,A*26
$WIMWV,270.8,R,4.5,N,A*2f
$GPRMC,130104.000,A,5413.5237,N,01205.7153,E,0.96,335.14,020621,,,A*67
$GPVTG,335.14,T,,M,0.96,N,1.8,K,A*0B
$WIMWV,266.1,R,4.5,N,A*21
$WIMWV,260.4,R,4.5,N,A*22
$WIMWV,257.0,R,4.1,N,A*26
$WIMWV,257.8,R,4.5,N,A*2a
$WIMWV,262.3,R,4.1,N,A*23
$WIMWV,267.6,R,4.5,N,A*27
$WIMWV,273.0,R,4.5,N,A*24
$WIMWV,277.1,R,4.1,N,A*25
$WIMWV,279.4,R,4.1,N,A*2e
$WIMWV,284.5,R,4.5,N,A*29
$GPRMC,130105.000,A,5413.5238,N,01205.7153,E,0.63,335.14,020621,,,A*63
$GPVTG,335.14,T,,M,0.63,N,1.2,K,A*0B
$WIMWV,284.5,R,4.1,N,A*2d
$WIMWV,285.6,R,4.5,N,A*2b
$WIMWV,288.5,R,4.5,N,A*25
$WIMWV,292.6,R,4.5,N,A*2d
$WIMWV,298.3,R,4.5,N,A*22
$WIMWV,302.5,R,4.5,N,A*26
$WIMWV,301.6,R,4.9,N,A*2a
$WIMWV,301.2,R,4.5,N,A*22
$WIMWV,297.3,R,4.9,N,A*21
$WIMWV,291.0,R,4.9,N,A*24
$GPRMC,130106.000,A,5413.5240,N,01205.7151,E,1.14,337.51,020621,,,A*6F
$GPVTG,337.51,T,,M,1.14,N,2.1,K,A*09
$WIMWV,281.6,R,4.5,N,A*2f
$WIMWV,276.0,R,4.9,N,A*2d
$WIMWV,270.2,R,4.5,N,A*25
$WIMWV,267.8,R,4.9,N,A*25
$WIMWV,267.1,R,4.5,N,A*20
$WIMWV,266.7,R,4.5,N,A*27
$WIMWV,265.6,R,4.1,N,A*21
$WIMWV,263.8,R,4.5,N,A*2d
$WIMWV,263.2,R,4.1,N,A*23
$WIMWV,264.1,R,4.1,N,A*27
$GPRMC,130107.000,A,5413.5242,N,01205.7148,E,0.81,337.51,020621,,,A*69
$GPVTG,337.51,T,,M,0.81,N,1.5,K,A*03
$WIMWV,271.5,R,3.7,N,A*26
$WIMWV,275.2,R,4.1,N,A*24
$WIMWV,278.0,R,3.7,N,A*2a
$WIMWV,280.4,R,3.7,N,A*29
$WIMWV,283.7,R,3.7,N,A*29
$WIMWV,286.7,R,4.1,N,A*2d
$WIMWV,290.3,R,3.7,N,A*2f
$WIMWV,292.6,R,3.7,N,A*28
$WIMWV,293.9,R,4.1,N,A*27
$WIMWV,295.7,R,3.7,N,A*2e
$GPRMC,130108.000,A,5413.5245,N,01205.7145,E,1.16,335.75,020621,,,A*67
$GPVTG,335.75,T,,M,1.16,N,2.2,K,A*0C
$WIMWV,294.3,R,4.1,N,A*2a
$WIMWV,288.7,R,4.1,N,A*23
$WIMWV,279.4,R,4.1,N,A*2e
$WIMWV,269.1,R,4.1,N,A*2a
$WIMWV,262.0,R,4.1,N,A*20
$WIMWV,259.8,R,4.5,N,A*24
$WIMWV,261.2,R,4.1,N,A*21
$WIMWV,264.3,R,4.1,N,A*25
$WIMWV,268.7,R,3.7,N,A*2c
$WIMWV,273.3,R,4.1,N,A*23
$GPRMC,130109.000,A,5413.5247,N,01205.7144,E,0.72,335.75,020621,,,A*66
$GPVTG,335.75,T,,M,0.72,N,1.3,K,A*0D
$WIMWV,278.7,R,3.7,N,A*2d
$WIMWV,283.2,R,3.7,N,A*2c
$WIMWV,287.4,R,3.7,N,A*2e
$WIMWV,291.4,R,3.7,N,A*29
$WIMWV,291.9,R,3.7,N,A*24
$WIMWV,291.5,R,3.7,N,A*28
$WIMWV,291.7,R,3.7,N,A*2a
$WIMWV,292.4,R,3.7,N,A*2a
$WIMWV,291.7,R,4.1,N,A*2b
$WIMWV,293.9,R,3.7,N,A*26
$GPRMC,130110.000,A,5413.5248,N,01205.7141,E,0.94,331.48,020621,,,A*66
$GPVTG,331.48,T,,M,0.94,N,1.7,K,A*0B
$WIMWV,290.8,R,3.7,N,A*24
$WIMWV,289.2,R,4.1,N,A*27
$WIMWV,286.1,R,3.7,N,A*2a
$WIMWV,283.3,R,3.7,N,A*2d
$WIMWV,278.7,R,4.1,N,A*2c
$WIMWV,271.7,R,3.7,N,A*24
$WIMWV,265.6,R,3.7,N,A*20
$WIMWV,260.7,R,4.1,N,A*25
$WIMWV,259.6,R,3.7,N,A*2f
$WIMWV,261.5,R,3.7,N,A*27
$GPRMC,130111.000,A,5413.5251,N,01205.7140,E,0.93,327.92,020621,,,A*69
$GPVTG,327.92,T,,M,0.93,N,1.7,K,A*0C
$WIMWV,267.3,R,3.7,N,A*27
$WIMWV,273.6,R,3.7,N,A*27
$WIMWV,283.5,R,3.7,N,A*2b
$WIMWV,286.6,R,3.7,N,A*2d
$WIMWV,290.4,R,3.7,N,A*28
$WIMWV,293.9,R,3.7,N,A*26
$WIMWV,295.4,R,3.7,N,A*2d
$WIMWV,290.3,R,4.1,N,A*2e
$WIMWV,288.9,R,3.7,N,A*2c
$WIMWV,285.3,R,4.1,N,A*2a
$GPRMC,130112.000,A,5413.5254,N,01205.7138,E,0.87,325.64,020621,,,A*6E
$GPVTG,325.64,T,,M,0.87,N,1.6,K,A*03
$WIMWV,282.4,R,3.7,N,A*2b
$WIMWV,278.1,R,4.1,N,A*2a
$WIMWV,275.7,R,3.7,N,A*20
$WIMWV,274.5,R,3.7,N,A*23
$WIMWV,275.4,R,4.1,N,A*22
$WIMWV,275.8,R,3.7,N,A*2f
$WIMWV,274.5,R,3.7,N,A*23
$WIMWV,273.0,R,3.7,N,A*21
$WIMWV,269.6,R,4.1,N,A*2d
$WIMWV,264.8,R,3.7,N,A*2f
$GPRMC,130113.000,A,5413.5256,N,01205.7136,E,0.88,327.49,020621,,,A*61
$GPVTG,327.49,T,,M,0.88,N,1.6,K,A*01
$WIMWV,261.2,R,3.7,N,A*20
$WIMWV,264.3,R,3.7,N,A*24
$WIMWV,271.3,R,3.7,N,A*20
$WIMWV,277.5,R,3.7,N,A*20
$WIMWV,285.6,R,4.1,N,A*2f
$WIMWV,294.2,R,3.7,N,A*2a
$WIMWV,299.2,R,4.1,N,A*26
$WIMWV,299.7,R,3.7,N,A*22
$WIMWV,294.7,R,4.1,N,A*2e
$GPRMC,130114.000,A,5413.5259,N,01205.7135,E,1.11,332.53,020621,,,A*64
$GPVTG,332.53,T,,M,1.11,N,2.1,K,A*0B
$WIMWV,291.4,R,4.1,N,A*28
$WIMWV,285.2,R,3.7,N,A*2a
$WIMWV,279.6,R,4.1,N,A*2c
$WIMWV,272.6,R,3.7,N,A*26
$WIMWV,265.5,R,4.1,N,A*22
$WIMWV,258.3,R,4.1,N,A*2a
$WIMWV,252.2,R,3.7,N,A*20
$WIMWV,249.6,R,4.1,N,A*2f
$WIMWV,250.9,R,3.7,N,A*29
$WIMWV,254.5,R,3.7,N,A*21
$WIMWV,262.6,R,3.7,N,A*27
$GPRMC,130115.000,A,5413.5261,N,01205.7133,E,0.67,322.32,020621,,,A*6E
$GPVTG,322.32,T,,M,0.67,N,1.2,K,A*0D
$WIMWV,273.1,R,3.7,N,A*20
$WIMWV,284.4,R,4.1,N,A*2c
$WIMWV,293.4,R,3.3,N,A*2f
$WIMWV,301.7,R,4.1,N,A*23
$WIMWV,303.3,R,3.7,N,A*24
$WIMWV,303.8,R,3.7,N,A*2f
$WIMWV,304.0,R,3.7,N,A*20
$WIMWV,303.4,R,4.1,N,A*22
$WIMWV,305.3,R,3.7,N,A*22
$GPRMC,130116.000,A,5413.5262,N,01205.7131,E,0.82,326.97,020621,,,A*6C
$GPVTG,326.97,T,,M,0.82,N,1.5,K,A*0A
$WIMWV,308.5,R,4.1,N,A*28
$WIMWV,314.0,R,4.1,N,A*20
$WIMWV,317.4,R,4.1,N,A*27
$WIMWV,315.4,R,4.1,N,A*25
$WIMWV,310.5,R,4.1,N,A*21
$WIMWV,303.1,R,4.1,N,A*27
$WIMWV,291.0,R,4.1,N,A*2c
$WIMWV,278.6,R,4.5,N,A*29
$WIMWV,268.6,R,4.1,N,A*2c
$WIMWV,262.1,R,4.1,N,A*21
$GPRMC,130117.000,A,5413.5265,N,01205.7129,E,1.11,334.91,020621,,,A*6D
$GPVTG,334.91,T,,M,1.11,N,2.0,K,A*02
$WIMWV,258.6,R,3.7,N,A*2e
$WIMWV,257.3,R,4.1,N,A*25
$WIMWV,258.3,R,4.1,N,A*2a
$WIMWV,262.0,R,3.7,N,A*21
$WIMWV,266.8,R,4.1,N,A*2c
$WIMWV,273.5,R,3.7,N,A*24
$WIMWV,279.5,R,3.7,N,A*2e
$WIMWV,287.6,R,3.7,N,A*2c
$WIMWV,295.1,R,3.7,N,A*28
$WIMWV,296.0,R,3.3,N,A*2e
$WIMWV,298.1,R,3.7,N,A*25
$GPRMC,130118.000,A,5413.5268,N,01205.7126,E,1.06,330.77,020621,,,A*6A
$GPVTG,330.77,T,,M,1.06,N,2.0,K,A*08
$WIMWV,298.0,R,3.7,N,A*24
$WIMWV,298.2,R,3.3,N,A*22
$WIMWV,297.6,R,3.7,N,A*2d
$WIMWV,295.2,R,3.3,N,A*2f
$WIMWV,292.8,R,3.7,N,A*26
$WIMWV,292.1,R,3.7,N,A*2f
$WIMWV,289.2,R,3.7,N,A*26
$WIMWV,288.7,R,3.3,N,A*26
$WIMWV,286.0,R,4.1,N,A*2a
$GPRMC,130119.000,A,5413.5269,N,01205.7124,E,0.56,328.74,020621,,,A*66
$GPVTG,328.74,T,,M,0.56,N,1.0,K,A*05
$WIMWV,284.5,R,3.7,N,A*2c
$WIMWV,282.5,R,3.7,N,A*2a
$WIMWV,281.4,R,3.7,N,A*28
$WIMWV,279.9,R,4.1,N,A*23
$WIMWV,280.1,R,3.7,N,A*2c
$WIMWV,281.8,R,3.7,N,A*24
$WIMWV,283.5,R,4.1,N,A*2a
$WIMWV,286.0,R,3.7,N,A*2b
$WIMWV,291.2,R,3.7,N,A*2f
$WIMWV,293.1,R,3.7,N,A*2e
$GPRMC,130120.000,A,5413.5271,N,01205.7122,E,0.89,330.71,020621,,,A*6D
$GPVTG,330.71,T,,M,0.89,N,1.7,K,A*0C
$WIMWV,294.8,R,3.7,N,A*20
$WIMWV,296.8,R,3.7,N,A*22
$WIMWV,299.3,R,4.1,N,A*27
$WIMWV,302.6,R,3.3,N,A*24
$WIMWV,304.8,R,3.7,N,A*28
$WIMWV,303.5,R,3.7,N,A*22
$WIMWV,308.4,R,3.7,N,A*28
$WIMWV,304.9,R,3.7,N,A*29
$WIMWV,305.6,R,3.7,N,A*27
$WIMWV,299.6,R,3.7,N,A*23
$GPRMC,130121.000,A,5413.5274,N,01205.7121,E,1.37,342.18,020621,,,A*64
$GPVTG,342.18,T,,M,1.37,N,2.5,K,A*03
$WIMWV,294.8,R,3.3,N,A*24
$WIMWV,288.5,R,3.7,N,A*20
$WIMWV,280.9,R,3.3,N,A*20
$WIMWV,271.6,R,3.7,N,A*25
$WIMWV,262.3,R,3.3,N,A*26
$WIMWV,256.0,R,3.3,N,A*22
$WIMWV,253.4,R,3.3,N,A*23
$WIMWV,255.9,R,3.3,N,A*28
$WIMWV,263.1,R,2.9,N,A*2e
$WIMWV,275.6,R,3.3,N,A*25
$GPRMC,130122.000,A,5413.5275,N,01205.7119,E,0.49,342.18,020621,,,A*65
$GPVTG,342.18,T,,M,0.49,N,0.9,K,A*05
$WIMWV,290.3,R,3.3,N,A*2b
$WIMWV,301.2,R,2.9,N,A*28
$WIMWV,310.8,R,2.9,N,A*22
$WIMWV,314.3,R,3.3,N,A*26
$WIMWV,312.2,R,2.9,N,A*2a
$WIMWV,312.3,R,3.3,N,A*20
$WIMWV,310.1,R,2.9,N,A*2b
$WIMWV,307.7,R,3.3,N,A*20
$WIMWV,306.3,R,3.3,N,A*25
$WIMWV,305.7,R,3.3,N,A*22
$GPRMC,130123.000,A,5413.5276,N,01205.7116,E,0.78,339.32,020621,,,A*6E
$GPVTG,339.32,T,,M,0.78,N,1.4,K,A*0F
$WIMWV,306.1,R,3.7,N,A*23
$WIMWV,307.2,R,3.3,N,A*25
$WIMWV,306.1,R,3.7,N,A*23
$WIMWV,303.4,R,3.7,N,A*23
$WIMWV,299.9,R,3.3,N,A*28
$WIMWV,297.0,R,3.7,N,A*2b
$WIMWV,293.1,R,3.3,N,A*2a
$WIMWV,288.2,R,3.7,N,A*27
$WIMWV,284.4,R,3.3,N,A*29
$WIMWV,281.6,R,3.7,N,A*2a
$GPRMC,130124.000,A,5413.5279,N,01205.7115,E,0.97,340.47,020621,,,A*68
$GPVTG,340.47,T,,M,0.97,N,1.8,K,A*0E
$WIMWV,280.0,R,3.3,N,A*29
$WIMWV,279.5,R,3.3,N,A*2a
$WIMWV,278.0,R,3.3,N,A*2e
$WIMWV,275.2,R,3.3,N,A*21
$WIMWV,271.4,R,3.3,N,A*23
$WIMWV,269.6,R,3.3,N,A*28
$WIMWV,269.5,R,3.3,N,A*2b
$WIMWV,278.3,R,2.9,N,A*26
$WIMWV,282.3,R,3.3,N,A*28
$WIMWV,286.5,R,3.3,N,A*2a
$GPRMC,130125.000,A,5413.5280,N,01205.7113,E,0.55,340.47,020621,,,A*67
$GPVTG,340.47,T,,M,0.55,N,1.0,K,A*08
$WIMWV,294.5,R,3.3,N,A*29
$WIMWV,300.9,R,2.9,N,A*22
$WIMWV,304.8,R,3.3,N,A*2c
$WIMWV,305.3,R,3.3,N,A*26
$WIMWV,308.0,R,2.9,N,A*23
$WIMWV,309.7,R,3.3,N,A*2e
$WIMWV,310.3,R,3.3,N,A*22
$WIMWV,309.8,R,3.3,N,A*21
$WIMWV,308.5,R,3.3,N,A*2d
$WIMWV,305.7,R,2.9,N,A*29
$GPRMC,130126.000,A,5413.5282,N,01205.7111,E,1.07,337.68,020621,,,A*6F
$GPVTG,337.68,T,,M,1.07,N,2.0,K,A*00
$WIMWV,300.7,R,3.3,N,A*27
$WIMWV,296.5,R,3.3,N,A*2b
$WIMWV,288.5,R,3.3,N,A*24
$WIMWV,282.5,R,2.9,N,A*25
$WIMWV,276.8,R,3.3,N,A*28
$WIMWV,272.2,R,3.3,N,A*26
$WIMWV,270.5,R,3.3,N,A*23
$WIMWV,270.5,R,3.3,N,A*23
$WIMWV,273.2,R,2.9,N,A*2c
$WIMWV,276.6,R,3.3,N,A*26
$GPRMC,130127.000,A,5413.5285,N,01205.7110,E,0.76,339.05,020621,,,A*6A
$GPVTG,339.05,T,,M,0.76,N,1.4,K,A*05
$WIMWV,279.5,R,3.3,N,A*2a
$WIMWV,282.8,R,2.9,N,A*28
$WIMWV,286.8,R,2.9,N,A*2c
$WIMWV,289.6,R,3.3,N,A*26
$WIMWV,292.1,R,2.9,N,A*20
$WIMWV,293.5,R,3.3,N,A*2e
$WIMWV,298.7,R,2.9,N,A*2c
$WIMWV,298.1,R,2.9,N,A*2a
$WIMWV,299.1,R,3.3,N,A*20
$WIMWV,298.9,R,2.9,N,A*22
$GPRMC,130128.000,A,5413.5286,N,01205.7109,E,0.83,336.94,020621,,,A*63
$GPVTG,336.94,T,,M,0.83,N,1.5,K,A*09
$WIMWV,298.5,R,3.3,N,A*25
$WIMWV,298.3,R,2.9,N,A*28
$WIMWV,294.3,R,3.3,N,A*2f
$WIMWV,292.5,R,3.3,N,A*2f
$WIMWV,292.3,R,3.3,N,A*29
$WIMWV,291.7,R,2.9,N,A*25
$WIMWV,289.9,R,3.3,N,A*29
$WIMWV,287.0,R,3.3,N,A*2e
$WIMWV,283.4,R,2.9,N,A*25
$WIMWV,279.4,R,3.3,N,A*2b
$GPRMC,130129.000,A,5413.5288,N,01205.7106,E,0.79,331.53,020621,,,A*6A
$GPVTG,331.53,T,,M,0.79,N,1.5,K,A*00
$WIMWV,276.5,R,2.9,N,A*2e
$WIMWV,275.3,R,3.3,N,A*20
$WIMWV,274.4,R,3.3,N,A*26
$WIMWV,272.4,R,2.9,N,A*2b
$WIMWV,270.8,R,3.3,N,A*2e
$WIMWV,274.1,R,3.3,N,A*23
$WIMWV,274.3,R,2.9,N,A*2a
$WIMWV,280.4,R,3.3,N,A*2d
$WIMWV,284.1,R,3.3,N,A*2c
$WIMWV,287.1,R,3.3,N,A*2f
$GPRMC,130130.000,A,5413.5291,N,01205.7105,E,1.09,344.75,020621,,,A*69
$GPVTG,344.75,T,,M,1.09,N,2.0,K,A*06
$WIMWV,285.5,R,3.3,N,A*29
$WIMWV,285.9,R,3.3,N,A*25
$WIMWV,281.9,R,3.3,N,A*21
$WIMWV,279.8,R,3.7,N,A*23
$WIMWV,268.6,R,3.3,N,A*29
$WIMWV,265.7,R,3.3,N,A*25
$WIMWV,261.4,R,3.3,N,A*22
$WIMWV,262.6,R,3.7,N,A*27
$WIMWV,263.8,R,3.3,N,A*2c
$WIMWV,265.3,R,3.3,N,A*21
$GPRMC,130131.000,A,5413.5293,N,01205.7104,E,1.11,344.84,020621,,,A*6C
$GPVTG,344.84,T,,M,1.11,N,2.0,K,A*01
$WIMWV,266.4,R,3.3,N,A*25
$WIMWV,267.5,R,3.3,N,A*25
$WIMWV,269.1,R,3.3,N,A*2f
$WIMWV,271.4,R,3.3,N,A*23
$WIMWV,274.3,R,3.3,N,A*21
$WIMWV,277.9,R,3.3,N,A*28
$WIMWV,279.4,R,3.3,N,A*2b
$WIMWV,280.8,R,3.3,N,A*21
$WIMWV,283.4,R,3.3,N,A*2e
$WIMWV,285.2,R,2.9,N,A*25
$GPRMC,130132.000,A,5413.5294,N,01205.7102,E,0.58,331.01,020621,,,A*6D
$GPVTG,331.01,T,,M,0.58,N,1.1,K,A*00
$WIMWV,285.9,R,3.3,N,A*25
$WIMWV,284.6,R,2.9,N,A*20
$WIMWV,283.0,R,3.3,N,A*2a
$WIMWV,281.8,R,2.9,N,A*2b
$WIMWV,285.3,R,2.9,N,A*24
$WIMWV,285.5,R,2.9,N,A*22
$WIMWV,285.6,R,3.3,N,A*2a
$WIMWV,286.9,R,2.9,N,A*2d
$WIMWV,288.5,R,2.9,N,A*2f
$WIMWV,290.7,R,3.3,N,A*2f
$GPRMC,130133.000,A,5413.5296,N,01205.7100,E,0.99,344.06,020621,,,A*64
$GPVTG,344.06,T,,M,0.99,N,1.8,K,A*01
$WIMWV,294.7,R,3.3,N,A*2b
$WIMWV,298.9,R,3.3,N,A*29
$WIMWV,302.6,R,3.3,N,A*24
$WIMWV,307.4,R,3.3,N,A*23
$WIMWV,303.3,R,3.3,N,A*20
$WIMWV,302.2,R,3.7,N,A*24
$WIMWV,293.8,R,3.3,N,A*23
$WIMWV,284.0,R,3.3,N,A*2d
$WIMWV,273.6,R,3.7,N,A*27
$WIMWV,262.6,R,3.3,N,A*23
$GPRMC,130134.000,A,5413.5299,N,01205.7099,E,0.86,344.93,020621,,,A*6F
$GPVTG,344.93,T,,M,0.86,N,1.6,K,A*0D
$WIMWV,252.2,R,3.3,N,A*24
$WIMWV,245.2,R,3.3,N,A*22
$WIMWV,241.5,R,3.3,N,A*21
$WIMWV,242.3,R,2.9,N,A*2f
$WIMWV,247.0,R,2.9,N,A*29
$WIMWV,253.6,R,2.9,N,A*2a
$WIMWV,262.0,R,2.9,N,A*2e
$WIMWV,272.7,R,2.9,N,A*28
$WIMWV,281.0,R,2.5,N,A*2f
$WIMWV,286.7,R,2.5,N,A*2f
$GPRMC,130135.000,A,5413.5300,N,01205.7097,E,0.73,320.15,020621,,,A*67
$GPVTG,320.15,T,,M,0.73,N,1.3,K,A*0E
$WIMWV,290.4,R,2.9,N,A*27
$WIMWV,293.9,R,2.9,N,A*29
$WIMWV,298.7,R,2.5,N,A*20
$WIMWV,301.6,R,2.9,N,A*2c
$WIMWV,304.8,R,2.9,N,A*27
$WIMWV,304.1,R,2.9,N,A*2e
$WIMWV,303.2,R,3.3,N,A*21
$WIMWV,295.6,R,2.9,N,A*20
$WIMWV,285.6,R,2.9,N,A*21
$WIMWV,274.3,R,3.3,N,A*21
$GPRMC,130136.000,A,5413.5302,N,01205.7096,E,0.94,342.34,020621,,,A*69
$GPVTG,342.34,T,,M,0.94,N,1.7,K,A*04
$WIMWV,263.8,R,3.3,N,A*2c
$WIMWV,257.8,R,2.9,N,A*20
$WIMWV,256.6,R,3.3,N,A*24
$WIMWV,258.8,R,3.3,N,A*24
$WIMWV,263.6,R,2.9,N,A*29
$WIMWV,267.1,R,3.3,N,A*21
$WIMWV,267.7,R,2.9,N,A*2c
$WIMWV,270.1,R,3.3,N,A*27
$WIMWV,273.4,R,2.9,N,A*2a
$WIMWV,275.7,R,3.3,N,A*24
$GPRMC,130137.000,A,5413.5304,N,01205.7094,E,0.62,342.34,020621,,,A*65
$GPVTG,342.34,T,,M,0.62,N,1.1,K,A*0B
$WIMWV,280.1,R,2.9,N,A*23
$WIMWV,277.7,R,3.3,N,A*26
$WIMWV,284.5,R,2.9,N,A*23
$WIMWV,282.8,R,2.9,N,A*28
$WIMWV,282.3,R,3.3,N,A*28
$WIMWV,280.3,R,2.9,N,A*21
$WIMWV,276.9,R,3.3,N,A*29
$WIMWV,271.6,R,2.9,N,A*2a
$WIMWV,266.8,R,2.9,N,A*22
$WIMWV,263.6,R,2.9,N,A*29
$GPRMC,130138.000,A,5413.5305,N,01205.7092,E,0.39,342.34,020621,,,A*63
$GPVTG,342.34,T,,M,0.39,N,0.7,K,A*02
$WIMWV,260.1,R,2.9,N,A*2d
$WIMWV,257.7,R,2.9,N,A*2f
$WIMWV,256.8,R,2.9,N,A*21
$WIMWV,260.5,R,2.9,N,A*29
$WIMWV,268.5,R,2.9,N,A*21
$WIMWV,274.2,R,2.9,N,A*2b
$WIMWV,279.4,R,2.9,N,A*20
$WIMWV,283.8,R,3.3,N,A*22
$WIMWV,286.7,R,2.9,N,A*23
$WIMWV,286.9,R,2.9,N,A*2d
$GPRMC,130139.000,A,5413.5307,N,01205.7091,E,1.07,343.66,020621,,,A*69
$GPVTG,343.66,T,,M,1.07,N,2.0,K,A*0D
$WIMWV,282.8,R,2.9,N,A*28
$WIMWV,278.3,R,3.3,N,A*2d
$WIMWV,272.7,R,2.9,N,A*28
$WIMWV,266.3,R,3.3,N,A*22
$WIMWV,258.8,R,2.9,N,A*2f
$WIMWV,251.5,R,2.9,N,A*2b
$WIMWV,246.0,R,3.3,N,A*23
$WIMWV,243.7,R,2.9,N,A*2a
$WIMWV,245.1,R,3.3,N,A*21
$WIMWV,249.2,R,3.3,N,A*2e
$GPRMC,130140.000,A,5413.5310,N,01205.7091,E,1.10,350.86,020621,,,A*6B
$GPVTG,350.86,T,,M,1.10,N,2.0,K,A*07
$WIMWV,254.2,R,2.9,N,A*29
$WIMWV,259.6,R,3.3,N,A*2b
$WIMWV,262.9,R,3.3,N,A*2c
$WIMWV,267.0,R,2.9,N,A*2b
$WIMWV,271.4,R,2.9,N,A*28
$WIMWV,275.6,R,2.9,N,A*2e
$WIMWV,276.5,R,3.3,N,A*25
$WIMWV,273.7,R,2.5,N,A*25
$WIMWV,267.7,R,2.9,N,A*2c
$WIMWV,261.3,R,2.9,N,A*2e
$GPRMC,130141.000,A,5413.5311,N,01205.7091,E,0.35,350.86,020621,,,A*6D
$GPVTG,350.86,T,,M,0.35,N,0.7,K,A*04
$WIMWV,258.4,R,2.9,N,A*23
$WIMWV,255.8,R,2.9,N,A*22
$WIMWV,262.6,R,2.9,N,A*28
$WIMWV,266.3,R,2.9,N,A*29
$WIMWV,274.9,R,2.9,N,A*20
$WIMWV,281.0,R,2.9,N,A*23
$WIMWV,289.3,R,2.9,N,A*28
$WIMWV,294.1,R,2.9,N,A*26
$WIMWV,298.8,R,2.5,N,A*2f
$WIMWV,301.3,R,2.9,N,A*29
$GPRMC,130142.000,A,5413.5313,N,01205.7090,E,0.93,346.80,020621,,,A*60
$GPVTG,346.80,T,,M,0.93,N,1.7,K,A*08
$WIMWV,302.1,R,2.9,N,A*28
$WIMWV,297.3,R,2.9,N,A*27
$WIMWV,294.8,R,2.9,N,A*2f
$WIMWV,288.5,R,2.9,N,A*2f
$WIMWV,280.9,R,2.9,N,A*2b
$WIMWV,271.5,R,2.9,N,A*29
$WIMWV,261.2,R,2.9,N,A*2f
$WIMWV,251.7,R,2.9,N,A*29
$WIMWV,244.0,R,2.9,N,A*2a
$WIMWV,240.2,R,2.9,N,A*2c
$GPRMC,130143.000,A,5413.5316,N,01205.7090,E,1.09,349.25,020621,,,A*66
$GPVTG,349.25,T,,M,1.09,N,2.0,K,A*0E
$WIMWV,242.0,R,3.3,N,A*27
$WIMWV,244.5,R,2.9,N,A*2f
$WIMWV,248.0,R,3.3,N,A*2d
$WIMWV,253.3,R,2.9,N,A*2f
$WIMWV,260.2,R,3.3,N,A*25
$WIMWV,264.9,R,2.9,N,A*21
$WIMWV,266.6,R,3.3,N,A*27
$WIMWV,264.7,R,2.9,N,A*2f
$WIMWV,264.8,R,3.3,N,A*2b
$WIMWV,261.2,R,3.3,N,A*24
$GPRMC,130144.000,A,5413.5318,N,01205.7089,E,0.81,347.92,020621,,,A*64
$GPVTG,347.92,T,,M,0.81,N,1.5,K,A*0B
$WIMWV,262.4,R,2.9,N,A*2a
$WIMWV,266.0,R,3.3,N,A*21
$WIMWV,271.6,R,3.3,N,A*21
$WIMWV,275.9,R,3.7,N,A*2e
$WIMWV,272.1,R,3.3,N,A*25
$WIMWV,274.5,R,3.3,N,A*27
$WIMWV,274.0,R,3.7,N,A*26
$WIMWV,271.8,R,3.7,N,A*2b
$WIMWV,268.1,R,3.3,N,A*2e
$WIMWV,265.5,R,3.7,N,A*23
$GPRMC,130145.000,A,5413.5321,N,01205.7088,E,0.93,343.45,020621,,,A*63
$GPVTG,343.45,T,,M,0.93,N,1.7,K,A*04
$WIMWV,263.6,R,3.7,N,A*26
$WIMWV,262.4,R,3.3,N,A*21
$WIMWV,262.6,R,3.7,N,A*27
$WIMWV,262.6,R,3.7,N,A*27
$WIMWV,262.0,R,3.3,N,A*25
$WIMWV,260.7,R,3.7,N,A*24
$WIMWV,259.5,R,3.7,N,A*2c
$WIMWV,259.7,R,3.3,N,A*2a
$WIMWV,265.0,R,3.7,N,A*26
$WIMWV,266.9,R,3.7,N,A*2c
$GPRMC,130146.000,A,5413.5323,N,01205.7088,E,0.76,345.77,020621,,,A*6E
$GPVTG,345.77,T,,M,0.76,N,1.4,K,A*0B
$WIMWV,262.5,R,3.7,N,A*24
$WIMWV,262.0,R,3.3,N,A*25
$WIMWV,258.4,R,3.7,N,A*2c
$WIMWV,255.8,R,3.7,N,A*2d
$WIMWV,253.2,R,3.7,N,A*21
$WIMWV,256.1,R,3.7,N,A*27
$WIMWV,260.3,R,3.7,N,A*20
$WIMWV,263.8,R,4.1,N,A*29
$WIMWV,267.6,R,3.7,N,A*22
$WIMWV,267.3,R,3.7,N,A*27
$GPRMC,130147.000,A,5413.5326,N,01205.7087,E,1.07,350.28,020621,,,A*6C
$GPVTG,350.28,T,,M,1.07,N,2.0,K,A*05
$WIMWV,261.6,R,4.1,N,A*25
$WIMWV,256.5,R,3.7,N,A*23
$WIMWV,250.8,R,4.1,N,A*29
$WIMWV,249.1,R,3.7,N,A*29
$WIMWV,250.5,R,4.1,N,A*24
$WIMWV,255.3,R,3.7,N,A*26
$WIMWV,260.4,R,4.1,N,A*26
$WIMWV,264.1,R,3.7,N,A*26
$WIMWV,266.3,R,3.7,N,A*26
$WIMWV,269.8,R,3.7,N,A*22
$GPRMC,130148.000,A,5413.5328,N,01205.7086,E,0.71,347.08,020621,,,A*68
$GPVTG,347.08,T,,M,0.71,N,1.3,K,A*01
$WIMWV,271.4,R,3.7,N,A*27
$WIMWV,268.7,R,3.3,N,A*28
$WIMWV,264.8,R,3.7,N,A*2f
$WIMWV,260.3,R,3.3,N,A*24
$WIMWV,256.8,R,3.7,N,A*2e
$WIMWV,253.9,R,3.7,N,A*2a
$WIMWV,258.9,R,3.7,N,A*21
$WIMWV,269.2,R,3.3,N,A*2c
$WIMWV,279.4,R,3.7,N,A*2f
$WIMWV,279.4,R,3.7,N,A*2f
$GPRMC,130149.000,A,5413.5331,N,01205.7085,E,1.25,347.59,020621,,,A*66
$GPVTG,347.59,T,,M,1.25,N,2.3,K,A*06
$WIMWV,280.0,R,3.7,N,A*2d
$WIMWV,275.8,R,4.1,N,A*2e
$WIMWV,269.0,R,3.7,N,A*2a
$WIMWV,259.6,R,3.7,N,A*2f
$WIMWV,251.4,R,3.7,N,A*25
$WIMWV,249.0,R,4.1,N,A*29
$WIMWV,250.2,R,3.7,N,A*22
$WIMWV,251.5,R,3.7,N,A*24
$WIMWV,252.3,R,3.7,N,A*21
$WIMWV,252.7,R,3.7,N,A*25
$GPRMC,130150.000,A,5413.5333,N,01205.7084,E,0.82,346.40,020621,,,A*68
$GPVTG,346.40,T,,M,0.82,N,1.5,K,A*06
$WIMWV,249.7,R,3.7,N,A*2f
$WIMWV,245.6,R,3.7,N,A*22
$WIMWV,246.6,R,3.7,N,A*21
$WIMWV,260.5,R,3.3,N,A*22
$WIMWV,270.4,R,3.3,N,A*22
$WIMWV,284.6,R,3.3,N,A*2b
$WIMWV,287.8,R,3.7,N,A*22
$WIMWV,283.0,R,3.3,N,A*2a
$WIMWV,275.0,R,3.3,N,A*23
$WIMWV,269.6,R,3.3,N,A*28
$GPRMC,130151.000,A,5413.5335,N,01205.7084,E,0.63,346.40,020621,,,A*60
$GPVTG,346.40,T,,M,0.63,N,1.2,K,A*0E
$WIMWV,263.7,R,3.7,N,A*27
$WIMWV,263.6,R,3.3,N,A*22
$WIMWV,270.6,R,3.3,N,A*20
$WIMWV,281.3,R,3.7,N,A*2f
$WIMWV,290.1,R,3.7,N,A*2d
$WIMWV,293.8,R,3.7,N,A*27
$WIMWV,291.4,R,3.7,N,A*29
$WIMWV,283.0,R,3.7,N,A*2e
$WIMWV,273.5,R,3.7,N,A*24
$WIMWV,261.5,R,3.7,N,A*27
$GPRMC,130152.000,A,5413.5338,N,01205.7083,E,1.40,351.04,020621,,,A*6F
$GPVTG,351.04,T,,M,1.40,N,2.6,K,A*0F
$WIMWV,252.4,R,3.7,N,A*26
$WIMWV,246.3,R,3.7,N,A*24
$WIMWV,243.3,R,3.7,N,A*21
$WIMWV,245.1,R,3.7,N,A*25
$WIMWV,248.9,R,3.7,N,A*20
$WIMWV,255.4,R,4.1,N,A*20
$WIMWV,260.7,R,3.7,N,A*24
$WIMWV,263.4,R,4.1,N,A*25
$WIMWV,264.5,R,3.7,N,A*22
$WIMWV,263.1,R,4.1,N,A*20
$GPRMC,130153.000,A,5413.5341,N,01205.7082,E,1.04,348.56,020621,,,A*6E
$GPVTG,348.56,T,,M,1.04,N,1.9,K,A*0C
$WIMWV,260.1,R,4.1,N,A*23
$WIMWV,256.7,R,3.7,N,A*21
$WIMWV,256.1,R,4.1,N,A*26
$WIMWV,259.5,R,3.7,N,A*2c
$WIMWV,264.3,R,3.7,N,A*24
$WIMWV,269.9,R,4.1,N,A*22
$WIMWV,276.6,R,3.7,N,A*22
$WIMWV,277.2,R,3.7,N,A*27
$WIMWV,277.3,R,3.7,N,A*26
$WIMWV,277.2,R,3.7,N,A*27
$GPRMC,130154.000,A,5413.5343,N,01205.7081,E,0.94,345.94,020621,,,A*63
$GPVTG,345.94,T,,M,0.94,N,1.7,K,A*09
$WIMWV,277.5,R,3.7,N,A*20
$WIMWV,279.1,R,4.1,N,A*2b
$WIMWV,279.4,R,3.7,N,A*2f
$WIMWV,278.3,R,4.1,N,A*28
$WIMWV,280.1,R,4.1,N,A*2d
$WIMWV,279.1,R,4.1,N,A*2b
$WIMWV,275.7,R,4.1,N,A*21
$WIMWV,271.1,R,4.1,N,A*23
$WIMWV,265.4,R,4.1,N,A*23
$WIMWV,258.6,R,4.1,N,A*2f
$GPRMC,130155.000,A,5413.5346,N,01205.7080,E,0.97,349.22,020621,,,A*64
$GPVTG,349.22,T,,M,0.97,N,1.8,K,A*04
$WIMWV,252.4,R,4.1,N,A*27
$WIMWV,251.5,R,4.1,N,A*25
$WIMWV,255.8,R,3.7,N,A*2d
$WIMWV,263.8,R,4.1,N,A*29
$WIMWV,272.8,R,3.7,N,A*28
$WIMWV,277.3,R,4.1,N,A*27
$WIMWV,277.0,R,4.1,N,A*24
$WIMWV,276.0,R,3.7,N,A*24
$WIMWV,277.3,R,4.1,N,A*27
$WIMWV,280.1,R,4.1,N,A*2d
$GPRMC,130156.000,A,5413.5349,N,01205.7079,E,1.18,352.04,020621,,,A*66
$GPVTG,352.04,T,,M,1.18,N,2.2,K,A*05
$WIMWV,281.7,R,4.5,N,A*2e
$WIMWV,278.9,R,4.1,N,A*22
$WIMWV,278.8,R,4.5,N,A*27
$WIMWV,277.0,R,4.1,N,A*24
$WIMWV,269.9,R,4.5,N,A*26
$WIMWV,262.0,R,4.1,N,A*20
$WIMWV,256.0,R,4.5,N,A*23
$WIMWV,251.5,R,4.1,N,A*25
$WIMWV,252.5,R,4.5,N,A*22
$WIMWV,254.5,R,4.1,N,A*20
$GPRMC,130157.000,A,5413.5352,N,01205.7079,E,0.94,351.11,020621,,,A*6F
$GPVTG,351.11,T,,M,0.94,N,1.7,K,A*01
$WIMWV,257.0,R,4.5,N,A*22
$WIMWV,257.7,R,4.1,N,A*21
$WIMWV,257.4,R,4.1,N,A*22
$WIMWV,257.8,R,4.1,N,A*2e
$WIMWV,261.2,R,4.5,N,A*25
$WIMWV,268.1,R,4.1,N,A*2b
$WIMWV,274.8,R,4.5,N,A*2b
$WIMWV,283.0,R,4.5,N,A*2b
$WIMWV,281.9,R,4.5,N,A*20
$WIMWV,283.7,R,4.9,N,A*20
$GPRMC,130158.000,A,5413.5354,N,01205.7078,E,0.91,346.45,020621,,,A*65
$GPVTG,346.45,T,,M,0.91,N,1.7,K,A*03
$WIMWV,280.3,R,4.9,N,A*27
$WIMWV,274.4,R,4.9,N,A*2b
$WIMWV,270.0,R,5.3,N,A*20
$WIMWV,268.3,R,4.9,N,A*21
$WIMWV,269.0,R,5.3,N,A*28
$WIMWV,270.3,R,5.7,N,A*27
$WIMWV,270.6,R,5.3,N,A*26
$WIMWV,268.8,R,5.7,N,A*25
$WIMWV,266.8,R,5.7,N,A*2b
$WIMWV,268.3,R,6.2,N,A*28
$GPRMC,130159.000,A,5413.5357,N,01205.7078,E,1.16,359.29,020621,,,A*6D
$GPVTG,359.29,T,,M,1.16,N,2.1,K,A*0C
$WIMWV,274.7,R,5.7,N,A*27
$WIMWV,276.9,R,5.7,N,A*2b
$WIMWV,272.8,R,6.1,N,A*2b
$WIMWV,270.7,R,5.7,N,A*23
$WIMWV,268.7,R,5.7,N,A*2a
$WIMWV,269.8,R,6.2,N,A*22
$WIMWV,270.1,R,5.7,N,A*25
$WIMWV,266.6,R,5.7,N,A*25
$WIMWV,270.7,R,6.1,N,A*26
$WIMWV,272.9,R,5.7,N,A*2f
$GPRMC,130200.000,A,5413.5360,N,01205.7077,E,1.33,354.94,020621,,,A*65
$GPVTG,354.94,T,,M,1.33,N,2.5,K,A*04
$WIMWV,270.3,R,5.7,N,A*27
$WIMWV,267.2,R,5.7,N,A*20
$WIMWV,264.7,R,6.2,N,A*20
$WIMWV,264.7,R,5.7,N,A*26
$WIMWV,266.9,R,5.7,N,A*2a
$WIMWV,267.6,R,5.7,N,A*24
$WIMWV,267.6,R,5.7,N,A*24
$WIMWV,267.3,R,5.7,N,A*21
$WIMWV,266.7,R,5.3,N,A*20
$WIMWV,266.9,R,5.7,N,A*2a
$GPRMC,130201.000,A,5413.5363,N,01205.7076,E,0.74,351.79,020621,,,A*62
$GPVTG,351.79,T,,M,0.74,N,1.4,K,A*02
$WIMWV,273.0,R,5.3,N,A*23
$WIMWV,272.6,R,5.3,N,A*24
$WIMWV,270.8,R,5.7,N,A*2c
$WIMWV,272.1,R,5.3,N,A*23
$WIMWV,276.1,R,5.3,N,A*27
$WIMWV,281.2,R,5.3,N,A*2c
$WIMWV,285.7,R,5.7,N,A*29
$WIMWV,285.0,R,5.3,N,A*2a
$WIMWV,284.2,R,5.7,N,A*2d
$GPRMC,130202.000,A,5413.5366,N,01205.7075,E,1.43,353.74,020621,,,A*6D
$GPVTG,353.74,T,,M,1.43,N,2.6,K,A*09
$WIMWV,282.1,R,5.7,N,A*28
$WIMWV,278.1,R,5.3,N,A*29
$WIMWV,274.3,R,5.7,N,A*23
$WIMWV,268.1,R,5.7,N,A*2c
$WIMWV,263.5,R,5.3,N,A*27
$WIMWV,260.5,R,5.7,N,A*20
$WIMWV,260.6,R,5.3,N,A*27
$WIMWV,262.9,R,5.3,N,A*2a
$WIMWV,266.7,R,5.3,N,A*20
$WIMWV,266.6,R,5.3,N,A*21
$WIMWV,267.4,R,5.3,N,A*22
$GPRMC,130203.000,A,5413.5368,N,01205.7074,E,0.74,350.57,020621,,,A*64
$GPVTG,350.57,T,,M,0.74,N,1.4,K,A*0F
$WIMWV,268.6,R,5.3,N,A*2f
$WIMWV,269.3,R,5.3,N,A*2b
$WIMWV,274.7,R,4.9,N,A*28
$WIMWV,280.2,R,5.3,N,A*2d
$WIMWV,281.8,R,5.3,N,A*26
$WIMWV,284.9,R,5.3,N,A*22
$WIMWV,284.0,R,5.3,N,A*2b
$WIMWV,285.3,R,5.3,N,A*29
$WIMWV,282.6,R,4.9,N,A*20
$WIMWV,281.7,R,5.7,N,A*2d
$GPRMC,130204.000,A,5413.5370,N,01205.7073,E,1.08,355.64,020621,,,A*62
$GPVTG,355.64,T,,M,1.08,N,2.0,K,A*07
$WIMWV,283.2,R,5.3,N,A*2e
$WIMWV,285.5,R,5.3,N,A*2f
$WIMWV,283.0,R,5.3,N,A*2c
$WIMWV,280.7,R,5.7,N,A*2c
$WIMWV,278.2,R,5.3,N,A*2a
$WIMWV,274.3,R,5.3,N,A*27
$WIMWV,271.0,R,5.3,N,A*21
$WIMWV,268.8,R,5.3,N,A*21
$WIMWV,268.5,R,5.3,N,A*2c
$GPRMC,130205.000,A,5413.5373,N,01205.7073,E,1.09,356.65,020621,,,A*63
$GPVTG,356.65,T,,M,1.09,N,2.0,K,A*04
$WIMWV,269.0,R,5.3,N,A*28
$WIMWV,267.0,R,5.3,N,A*26
$WIMWV,262.6,R,5.3,N,A*25
$WIMWV,257.7,R,4.9,N,A*29
$WIMWV,255.2,R,5.3,N,A*25
$WIMWV,258.8,R,4.9,N,A*29
$WIMWV,265.9,R,4.9,N,A*26
$WIMWV,271.8,R,4.9,N,A*22
$WIMWV,277.2,R,4.9,N,A*2e
$WIMWV,280.8,R,4.9,N,A*2c
$GPRMC,130206.000,A,5413.5376,N,01205.7072,E,1.00,350.03,020621,,,A*6B
$GPVTG,350.03,T,,M,1.00,N,1.8,K,A*00
$WIMWV,281.6,R,4.9,N,A*23
$WIMWV,282.4,R,5.3,N,A*29
$WIMWV,282.6,R,4.9,N,A*20
$WIMWV,284.3,R,5.3,N,A*28
$WIMWV,284.1,R,4.9,N,A*21
$WIMWV,278.6,R,5.3,N,A*2e
$WIMWV,279.4,R,4.9,N,A*26
$WIMWV,277.2,R,5.3,N,A*25
$WIMWV,275.8,R,4.9,N,A*26
$WIMWV,272.9,R,4.9,N,A*20
$GPRMC,130207.000,A,5413.5380,N,01205.7071,E,1.53,356.88,020621,,,A*63
$GPVTG,356.88,T,,M,1.53,N,2.8,K,A*00
$WIMWV,268.1,R,5.3,N,A*28
$WIMWV,264.4,R,4.9,N,A*2a
$WIMWV,261.0,R,5.3,N,A*20
$WIMWV,259.6,R,4.9,N,A*26
$WIMWV,259.7,R,5.3,N,A*2c
$WIMWV,264.4,R,4.9,N,A*2a
$WIMWV,270.5,R,5.3,N,A*25
$WIMWV,269.5,R,5.3,N,A*2d
$WIMWV,267.4,R,5.7,N,A*26
$WIMWV,264.1,R,5.3,N,A*24
$GPRMC,130208.000,A,5413.5382,N,01205.7071,E,0.42,356.88,020621,,,A*6F
$GPVTG,356.88,T,,M,0.42,N,0.8,K,A*03
$WIMWV,261.9,R,5.3,N,A*29
$WIMWV,265.2,R,5.7,N,A*22
$WIMWV,271.0,R,5.3,N,A*21
$WIMWV,273.7,R,5.7,N,A*20
$WIMWV,271.4,R,5.3,N,A*25
$WIMWV,265.1,R,5.7,N,A*21
$WIMWV,264.1,R,5.7,N,A*20
$WIMWV,266.1,R,5.3,N,A*26
$WIMWV,273.1,R,5.7,N,A*26
$WIMWV,282.6,R,5.7,N,A*2f
$GPRMC,130209.000,A,5413.5384,N,01205.7070,E,1.05,356.81,020621,,,A*62
$GPVTG,356.81,T,,M,1.05,N,1.9,K,A*08
$WIMWV,291.2,R,5.7,N,A*29
$WIMWV,295.6,R,5.7,N,A*29
$WIMWV,297.0,R,5.7,N,A*2d
$WIMWV,294.9,R,5.7,N,A*27
$WIMWV,288.2,R,5.7,N,A*21
$WIMWV,285.4,R,5.7,N,A*2a
$WIMWV,280.7,R,6.2,N,A*2a
$WIMWV,271.9,R,5.7,N,A*2c
$WIMWV,267.1,R,6.1,N,A*26
$WIMWV,264.8,R,5.7,N,A*29
$GPRMC,130210.000,A,5413.5388,N,01205.7071,E,1.62,4.10,020621,,,A*6A
$GPVTG,4.10,T,,M,1.62,N,3.0,K,A*0E
$WIMWV,264.8,R,6.2,N,A*2f
$WIMWV,265.8,R,5.7,N,A*28
$WIMWV,262.1,R,5.7,N,A*26
$WIMWV,257.5,R,5.7,N,A*24
$WIMWV,252.9,R,5.7,N,A*2d
$WIMWV,252.3,R,5.3,N,A*23
$WIMWV,253.2,R,5.7,N,A*27
$WIMWV,255.5,R,5.3,N,A*22
$WIMWV,265.5,R,4.9,N,A*2a
$WIMWV,269.9,R,5.3,N,A*21
$GPRMC,130211.000,A,5413.5391,N,01205.7070,E,1.11,358.67,020621,,,A*6C
$GPVTG,358.67,T,,M,1.11,N,2.1,K,A*00
$WIMWV,272.8,R,4.9,N,A*21
$WIMWV,276.2,R,5.3,N,A*24
$WIMWV,278.5,R,4.9,N,A*26
$WIMWV,280.1,R,5.3,N,A*2e
$WIMWV,281.8,R,4.9,N,A*2d
$WIMWV,276.7,R,5.3,N,A*21
$WIMWV,274.9,R,5.3,N,A*2d
$WIMWV,270.5,R,5.3,N,A*25
$WIMWV,267.8,R,5.3,N,A*2e
$WIMWV,266.4,R,5.3,N,A*23
$GPRMC,130212.000,A,5413.5395,N,01205.7070,E,1.24,2.76,020621,,,A*61
$GPVTG,2.76,T,,M,1.24,N,2.3,K,A*08
$WIMWV,267.4,R,5.7,N,A*26
$WIMWV,268.8,R,5.7,N,A*25
$WIMWV,270.8,R,5.7,N,A*2c
$WIMWV,270.2,R,5.7,N,A*26
$WIMWV,265.7,R,6.2,N,A*21
$WIMWV,261.3,R,5.7,N,A*27
$WIMWV,262.7,R,5.7,N,A*20
$WIMWV,267.6,R,6.2,N,A*22
$WIMWV,275.4,R,5.7,N,A*25
$WIMWV,278.1,R,5.7,N,A*2d
$GPRMC,130213.000,A,5413.5398,N,01205.7070,E,1.11,1.87,020621,,,A*66
$GPVTG,1.87,T,,M,1.11,N,2.0,K,A*00
$WIMWV,277.0,R,6.2,N,A*25
$WIMWV,274.4,R,6.2,N,A*22
$WIMWV,271.2,R,6.2,N,A*21
$WIMWV,267.0,R,6.2,N,A*24
$WIMWV,266.4,R,6.2,N,A*21
$WIMWV,262.3,R,6.1,N,A*21
$WIMWV,262.4,R,6.2,N,A*25
$WIMWV,263.9,R,6.2,N,A*29
$WIMWV,266.2,R,6.1,N,A*24
$WIMWV,265.6,R,6.1,N,A*23
$GPRMC,130214.000,A,5413.5401,N,01205.7070,E,1.43,358.19,020621,,,A*69
$GPVTG,358.19,T,,M,1.43,N,2.7,K,A*08
$WIMWV,263.5,R,6.5,N,A*22
$WIMWV,262.9,R,6.2,N,A*28
$WIMWV,265.1,R,6.1,N,A*24
$WIMWV,269.1,R,6.2,N,A*2b
$WIMWV,269.2,R,6.2,N,A*28
$WIMWV,266.6,R,5.7,N,A*25
$WIMWV,265.0,R,6.2,N,A*26
$WIMWV,263.7,R,5.7,N,A*21
$WIMWV,262.6,R,5.7,N,A*21
$WIMWV,260.3,R,6.1,N,A*23
$GPRMC,130215.000,A,5413.5405,N,01205.7069,E,1.20,357.82,020621,,,A*6C
$GPVTG,357.82,T,,M,1.20,N,2.2,K,A*05
$WIMWV,258.6,R,5.7,N,A*28
$WIMWV,257.6,R,5.3,N,A*23
$WIMWV,254.6,R,5.7,N,A*24
$WIMWV,255.8,R,5.7,N,A*2b
$WIMWV,262.1,R,5.7,N,A*26
$WIMWV,266.6,R,5.3,N,A*21
$WIMWV,272.5,R,5.7,N,A*23
$WIMWV,275.0,R,5.3,N,A*25
$WIMWV,275.6,R,5.7,N,A*27
$WIMWV,272.6,R,5.3,N,A*24
$GPRMC,130216.000,A,5413.5409,N,01205.7069,E,1.49,0.46,020621,,,A*65
$GPVTG,0.46,T,,M,1.49,N,2.8,K,A*09
$WIMWV,263.8,R,5.3,N,A*2a
$WIMWV,257.6,R,5.7,N,A*27
$WIMWV,259.0,R,5.3,N,A*2b
$WIMWV,268.4,R,5.7,N,A*29
$WIMWV,279.2,R,5.7,N,A*2f
$WIMWV,290.2,R,5.7,N,A*28
$WIMWV,287.8,R,5.3,N,A*20
$WIMWV,273.5,R,5.7,N,A*22
$WIMWV,262.8,R,5.7,N,A*2f
$WIMWV,263.3,R,5.7,N,A*25
$GPRMC,130217.000,A,5413.5412,N,01205.7070,E,0.99,0.47,020621,,,A*6B
$GPVTG,0.47,T,,M,0.99,N,1.8,K,A*07
$WIMWV,267.7,R,5.7,N,A*25
$WIMWV,276.3,R,6.2,N,A*27
$WIMWV,281.0,R,5.3,N,A*2e
$WIMWV,273.6,R,5.7,N,A*21
$WIMWV,261.0,R,5.7,N,A*24
$WIMWV,258.5,R,5.3,N,A*2f
$WIMWV,261.8,R,5.7,N,A*2c
$WIMWV,274.9,R,5.3,N,A*2d
$WIMWV,285.2,R,5.3,N,A*28
$WIMWV,294.9,R,5.3,N,A*23
$GPRMC,130218.000,A,5413.5415,N,01205.7070,E,1.13,358.14,020621,,,A*68
$GPVTG,358.14,T,,M,1.13,N,2.1,K,A*06
$WIMWV,300.1,R,5.7,N,A*23
$WIMWV,301.3,R,5.3,N,A*24
$WIMWV,300.4,R,5.3,N,A*22
$WIMWV,296.6,R,5.3,N,A*2e
$WIMWV,289.6,R,5.3,N,A*20
$WIMWV,277.1,R,5.3,N,A*26
$WIMWV,271.4,R,5.3,N,A*25
$WIMWV,267.8,R,5.3,N,A*2e
$WIMWV,267.1,R,5.3,N,A*27
$WIMWV,269.2,R,5.7,N,A*2e
$GPRMC,130219.000,A,5413.5419,N,01205.7070,E,1.78,1.05,020621,,,A*67
$GPVTG,1.05,T,,M,1.78,N,3.3,K,A*07
$WIMWV,269.5,R,5.3,N,A*2d
$WIMWV,269.8,R,5.3,N,A*20
$WIMWV,270.1,R,5.7,N,A*25
$WIMWV,270.5,R,5.3,N,A*25
$WIMWV,269.8,R,5.3,N,A*20
$WIMWV,270.6,R,5.7,N,A*22
$WIMWV,269.8,R,5.3,N,A*20
$WIMWV,266.7,R,5.3,N,A*20
$WIMWV,261.4,R,5.3,N,A*24
$WIMWV,256.8,R,5.3,N,A*2c
$GPRMC,130220.000,A,5413.5423,N,01205.7071,E,1.09,1.79,020621,,,A*68
$GPVTG,1.79,T,,M,1.09,N,2.0,K,A*08
$WIMWV,254.0,R,4.9,N,A*2d
$WIMWV,256.1,R,5.3,N,A*25
$WIMWV,259.7,R,4.9,N,A*27
$WIMWV,267.7,R,4.9,N,A*2a
$WIMWV,285.9,R,5.3,N,A*23
$WIMWV,291.8,R,5.3,N,A*27
$WIMWV,288.4,R,4.9,N,A*28
$WIMWV,274.7,R,5.3,N,A*23
$WIMWV,261.9,R,5.3,N,A*29
$WIMWV,257.6,R,5.3,N,A*23
$GPRMC,130221.000,A,5413.5426,N,01205.7071,E,1.21,3.84,020621,,,A*66
$GPVTG,3.84,T,,M,1.21,N,2.2,K,A*00
$WIMWV,257.5,R,5.3,N,A*20
$WIMWV,264.3,R,5.3,N,A*26
$WIMWV,271.7,R,5.3,N,A*26
$WIMWV,282.5,R,4.9,N,A*23
$WIMWV,291.1,R,5.3,N,A*2e
$WIMWV,293.2,R,5.3,N,A*2f
$WIMWV,286.9,R,4.9,N,A*2b
$WIMWV,274.9,R,5.3,N,A*2d
$WIMWV,262.4,R,4.9,N,A*2c
$WIMWV,255.3,R,5.3,N,A*24
$GPRMC,130222.000,A,5413.5430,N,01205.7072,E,1.56,2.70,020621,,,A*6B
$GPVTG,2.70,T,,M,1.56,N,2.9,K,A*01
$WIMWV,250.9,R,4.9,N,A*20
$WIMWV,255.0,R,5.3,N,A*27
$WIMWV,263.7,R,4.9,N,A*2e
$WIMWV,268.6,R,5.3,N,A*2f
$WIMWV,274.2,R,4.9,N,A*2d
$WIMWV,274.2,R,5.3,N,A*26
$WIMWV,271.1,R,4.9,N,A*2b
$WIMWV,268.0,R,5.3,N,A*29
$WIMWV,264.1,R,4.9,N,A*2f
$WIMWV,259.3,R,5.3,N,A*28
$GPRMC,130223.000,A,5413.5434,N,01205.7073,E,1.50,3.63,020621,,,A*6A
$GPVTG,3.63,T,,M,1.50,N,2.8,K,A*05
$WIMWV,256.0,R,4.9,N,A*2f
$WIMWV,255.1,R,4.9,N,A*2d
$WIMWV,257.9,R,5.3,N,A*2c
$WIMWV,260.7,R,4.9,N,A*2d
$WIMWV,262.3,R,4.9,N,A*2b
$WIMWV,261.5,R,5.3,N,A*25
$WIMWV,259.0,R,4.9,N,A*20
$WIMWV,255.5,R,4.9,N,A*29
$WIMWV,253.8,R,4.9,N,A*22
$WIMWV,253.8,R,5.3,N,A*29
$GPRMC,130224.000,A,5413.5438,N,01205.7073,E,1.18,3.80,020621,,,A*60
$GPVTG,3.80,T,,M,1.18,N,2.2,K,A*0E
$WIMWV,261.2,R,4.9,N,A*29
$WIMWV,266.3,R,4.9,N,A*2f
$WIMWV,273.6,R,5.3,N,A*25
$WIMWV,273.8,R,4.9,N,A*20
$WIMWV,276.3,R,5.3,N,A*25
$WIMWV,274.1,R,5.3,N,A*25
$WIMWV,272.9,R,4.9,N,A*20
$WIMWV,272.1,R,5.3,N,A*23
$WIMWV,269.7,R,5.3,N,A*2f
$WIMWV,262.8,R,5.3,N,A*2b
$GPRMC,130225.000,A,5413.5442,N,01205.7074,E,1.61,7.36,020621,,,A*6C
$GPVTG,7.36,T,,M,1.61,N,3.0,K,A*0A
$WIMWV,260.9,R,5.3,N,A*28
$WIMWV,259.8,R,5.3,N,A*23
$WIMWV,259.7,R,5.3,N,A*2c
$WIMWV,260.3,R,5.3,N,A*22
$WIMWV,262.2,R,5.3,N,A*21
$WIMWV,263.9,R,5.7,N,A*2f
$WIMWV,263.3,R,5.3,N,A*21
$WIMWV,262.5,R,5.3,N,A*26
$WIMWV,261.5,R,5.7,N,A*21
$WIMWV,260.9,R,5.3,N,A*28
$GPRMC,130226.000,A,5413.5445,N,01205.7075,E,1.18,5.67,020621,,,A*61
$GPVTG,5.67,T,,M,1.18,N,2.2,K,A*01
$WIMWV,260.5,R,5.7,N,A*20
$WIMWV,259.7,R,5.3,N,A*2c
$WIMWV,257.5,R,5.3,N,A*20
$WIMWV,256.0,R,5.3,N,A*24
$WIMWV,256.8,R,5.3,N,A*2c
$WIMWV,258.9,R,5.3,N,A*23
$WIMWV,261.7,R,5.3,N,A*27
$WIMWV,261.3,R,5.3,N,A*23
$WIMWV,259.6,R,5.3,N,A*2d
$WIMWV,259.4,R,4.9,N,A*24
$GPRMC,130227.000,A,5413.5449,N,01205.7076,E,1.49,5.26,020621,,,A*6E
$GPVTG,5.26,T,,M,1.49,N,2.8,K,A*0A
$WIMWV,261.8,R,5.3,N,A*28
$WIMWV,261.7,R,5.3,N,A*27
$WIMWV,263.0,R,4.9,N,A*29
$WIMWV,266.0,R,5.3,N,A*27
$WIMWV,268.1,R,5.3,N,A*28
$WIMWV,267.1,R,5.3,N,A*27
$WIMWV,261.2,R,4.9,N,A*29
$WIMWV,259.0,R,5.7,N,A*2f
$WIMWV,256.7,R,4.9,N,A*28
$WIMWV,254.9,R,5.7,N,A*2b
$GPRMC,130228.000,A,5413.5454,N,01205.7077,E,1.95,6.37,020621,,,A*6E
$GPVTG,6.37,T,,M,1.95,N,3.6,K,A*07
$WIMWV,253.3,R,5.3,N,A*22
$WIMWV,254.7,R,5.3,N,A*21
$WIMWV,257.6,R,5.3,N,A*23
$WIMWV,260.0,R,5.3,N,A*21
$WIMWV,259.2,R,5.3,N,A*29
$WIMWV,253.9,R,5.3,N,A*28
$WIMWV,249.5,R,5.3,N,A*2f
$WIMWV,248.2,R,4.9,N,A*22
$WIMWV,251.6,R,5.3,N,A*25
$WIMWV,256.8,R,4.9,N,A*27
$GPRMC,130229.000,A,5413.5457,N,01205.7078,E,0.74,5.06,020621,,,A*6C
$GPVTG,5.06,T,,M,0.74,N,1.4,K,A*08
$WIMWV,260.4,R,4.9,N,A*2e
$WIMWV,259.4,R,4.9,N,A*24
$WIMWV,256.3,R,5.3,N,A*27
$WIMWV,257.4,R,4.5,N,A*26
$WIMWV,259.9,R,5.3,N,A*22
$WIMWV,263.9,R,4.9,N,A*20
$WIMWV,274.2,R,4.9,N,A*2d
$WIMWV,283.3,R,4.9,N,A*24
$WIMWV,289.6,R,5.3,N,A*20
$WIMWV,290.3,R,4.9,N,A*26
$GPRMC,130230.000,A,5413.5460,N,01205.7078,E,1.31,4.81,020621,,,A*6E
$GPVTG,4.81,T,,M,1.31,N,2.4,K,A*05
$WIMWV,286.8,R,5.3,N,A*21
$WIMWV,276.6,R,5.3,N,A*20
$WIMWV,267.7,R,4.9,N,A*2a
$WIMWV,259.2,R,5.3,N,A*29
$WIMWV,252.3,R,4.9,N,A*28
$WIMWV,248.0,R,4.9,N,A*20
$WIMWV,245.3,R,4.9,N,A*2e
$WIMWV,246.4,R,4.9,N,A*2a
$WIMWV,251.8,R,4.9,N,A*20
$WIMWV,259.3,R,4.9,N,A*23
$GPRMC,130231.000,A,5413.5463,N,01205.7078,E,0.87,3.72,020621,,,A*6B
$GPVTG,3.72,T,,M,0.87,N,1.6,K,A*03
$WIMWV,262.6,R,4.5,N,A*22
$WIMWV,260.5,R,4.5,N,A*23
$WIMWV,256.0,R,4.9,N,A*2f
$WIMWV,253.7,R,4.5,N,A*21
$WIMWV,255.7,R,4.9,N,A*2b
$WIMWV,257.6,R,4.5,N,A*24
$WIMWV,260.9,R,4.9,N,A*23
$WIMWV,266.5,R,4.5,N,A*25
$WIMWV,273.1,R,4.9,N,A*29
$WIMWV,279.4,R,4.9,N,A*26
$GPRMC,130232.000,A,5413.5465,N,01205.7078,E,0.77,2.89,020621,,,A*64
$GPVTG,2.89,T,,M,0.77,N,1.4,K,A*0B
$WIMWV,284.5,R,4.5,N,A*29
$WIMWV,286.1,R,4.9,N,A*23
$WIMWV,278.6,R,4.5,N,A*29
$WIMWV,274.9,R,4.9,N,A*26
$WIMWV,269.6,R,4.5,N,A*29
$WIMWV,263.8,R,4.5,N,A*2d
$WIMWV,262.4,R,4.9,N,A*2c
$WIMWV,260.9,R,4.5,N,A*2f
$WIMWV,261.2,R,4.5,N,A*25
$WIMWV,264.8,R,4.5,N,A*2a
$GPRMC,130233.000,A,5413.5469,N,01205.7079,E,1.57,7.49,020621,,,A*62
$GPVTG,7.49,T,,M,1.57,N,2.9,K,A*0F
$WIMWV,268.5,R,4.9,N,A*27
$WIMWV,269.8,R,4.5,N,A*27
$WIMWV,267.3,R,4.5,N,A*22
$WIMWV,261.6,R,4.5,N,A*21
$WIMWV,256.1,R,4.5,N,A*22
$WIMWV,251.8,R,4.9,N,A*20
$WIMWV,252.0,R,4.5,N,A*27
$WIMWV,252.2,R,4.5,N,A*25
$WIMWV,259.7,R,4.9,N,A*27
$WIMWV,266.4,R,4.5,N,A*24
$GPRMC,130234.000,A,5413.5472,N,01205.7079,E,0.70,6.36,020621,,,A*62
$GPVTG,6.36,T,,M,0.70,N,1.3,K,A*0B
$WIMWV,269.5,R,4.9,N,A*26
$WIMWV,268.9,R,4.9,N,A*2b
$WIMWV,268.8,R,4.9,N,A*2a
$WIMWV,269.9,R,4.9,N,A*2a
$WIMWV,266.3,R,4.9,N,A*2f
$WIMWV,259.7,R,5.3,N,A*2c
$WIMWV,253.6,R,4.9,N,A*2c
$WIMWV,252.5,R,4.9,N,A*2e
$WIMWV,255.3,R,4.5,N,A*23
$WIMWV,260.6,R,4.9,N,A*2c
$GPRMC,130235.000,A,5413.5474,N,01205.7078,E,0.71,355.69,020621,,,A*6A
$GPVTG,355.69,T,,M,0.71,N,1.3,K,A*05
$WIMWV,269.5,R,4.9,N,A*26
$WIMWV,273.3,R,4.9,N,A*2b
$WIMWV,276.4,R,4.9,N,A*29
$WIMWV,280.7,R,5.3,N,A*28
$WIMWV,286.1,R,4.9,N,A*23
$WIMWV,292.2,R,5.3,N,A*2e
$WIMWV,289.7,R,4.9,N,A*2a
$WIMWV,292.4,R,5.3,N,A*28
$WIMWV,294.6,R,4.9,N,A*27
$WIMWV,293.3,R,5.3,N,A*2e
$GPRMC,130236.000,A,5413.5478,N,01205.7078,E,1.69,1.39,020621,,,A*6A
$GPVTG,1.39,T,,M,1.69,N,3.1,K,A*0A
$WIMWV,287.5,R,4.9,N,A*26
$WIMWV,276.3,R,4.9,N,A*2e
$WIMWV,259.3,R,4.9,N,A*23
$WIMWV,241.6,R,4.9,N,A*2f
$WIMWV,230.9,R,4.9,N,A*26
$WIMWV,233.7,R,4.9,N,A*2b
$WIMWV,246.6,R,4.9,N,A*28
$WIMWV,259.5,R,4.9,N,A*25
$WIMWV,262.3,R,4.5,N,A*27
$WIMWV,257.8,R,4.9,N,A*26
$GPRMC,130237.000,A,5413.5479,N,01205.7076,E,0.73,339.43,020621,,,A*6B
$GPVTG,339.43,T,,M,0.73,N,1.4,K,A*02
$WIMWV,250.8,R,4.1,N,A*29
$WIMWV,254.3,R,4.5,N,A*22
$WIMWV,259.2,R,4.5,N,A*2e
$WIMWV,271.6,R,4.1,N,A*24
$WIMWV,280.1,R,4.1,N,A*2d
$WIMWV,284.5,R,4.1,N,A*2d
$WIMWV,287.4,R,4.5,N,A*2b
$WIMWV,290.3,R,4.5,N,A*2a
$WIMWV,294.1,R,4.5,N,A*2c
$WIMWV,295.0,R,4.5,N,A*2c
$GPRMC,130238.000,A,5413.5478,N,01205.7075,E,0.45,339.43,020621,,,A*63
$GPVTG,339.43,T,,M,0.45,N,0.8,K,A*0A
$WIMWV,291.4,R,4.9,N,A*20
$WIMWV,278.6,R,4.9,N,A*25
$WIMWV,266.2,R,4.5,N,A*22
$WIMWV,253.8,R,4.9,N,A*22
$WIMWV,250.4,R,4.9,N,A*2d
$WIMWV,251.0,R,5.3,N,A*23
$WIMWV,254.1,R,4.9,N,A*2c
$WIMWV,258.4,R,4.9,N,A*25
$WIMWV,261.4,R,4.9,N,A*2f
$WIMWV,261.1,R,5.3,N,A*21
$GPRMC,130239.000,A,5413.5479,N,01205.7074,E,0.68,343.23,020621,,,A*66
$GPVTG,343.23,T,,M,0.68,N,1.3,K,A*04
$WIMWV,263.4,R,4.9,N,A*2d
$WIMWV,264.7,R,4.9,N,A*29
$WIMWV,266.4,R,5.3,N,A*23
$WIMWV,268.9,R,4.9,N,A*2b
$WIMWV,272.8,R,5.3,N,A*2a
$WIMWV,271.0,R,5.3,N,A*21
$WIMWV,265.4,R,5.3,N,A*20
$WIMWV,267.0,R,5.3,N,A*26
$WIMWV,268.9,R,5.3,N,A*20
$WIMWV,269.5,R,5.3,N,A*2d
$GPRMC,130240.000,A,5413.5481,N,01205.7073,E,0.32,343.23,020621,,,A*67
$GPVTG,343.23,T,,M,0.32,N,0.6,K,A*0F
$WIMWV,272.6,R,5.3,N,A*24
$WIMWV,275.7,R,5.3,N,A*22
$WIMWV,276.0,R,5.3,N,A*26
$WIMWV,274.7,R,5.3,N,A*23
$WIMWV,272.4,R,5.3,N,A*26
$WIMWV,269.5,R,4.9,N,A*26
$WIMWV,268.8,R,5.3,N,A*21
$WIMWV,269.9,R,5.3,N,A*21
$WIMWV,271.3,R,4.9,N,A*29
$WIMWV,271.7,R,5.3,N,A*26
$GPRMC,130241.000,A,5413.5482,N,01205.7071,E,0.79,328.09,020621,,,A*6D
$GPVTG,328.09,T,,M,0.79,N,1.5,K,A*07
$WIMWV,270.7,R,4.9,N,A*2c
$WIMWV,274.0,R,4.9,N,A*2f
$WIMWV,270.9,R,4.9,N,A*22
$WIMWV,271.3,R,4.9,N,A*29
$WIMWV,273.6,R,4.9,N,A*2e
$WIMWV,278.0,R,4.9,N,A*23
$WIMWV,283.1,R,4.9,N,A*26
$WIMWV,287.7,R,4.9,N,A*24
$WIMWV,285.2,R,4.9,N,A*23
$WIMWV,287.4,R,4.9,N,A*27
$GPRMC,130242.000,A,5413.5484,N,01205.7070,E,0.79,333.10,020621,,,A*6B
$GPVTG,333.10,T,,M,0.79,N,1.5,K,A*05
$WIMWV,284.5,R,4.9,N,A*25
$WIMWV,278.7,R,4.9,N,A*24
$WIMWV,271.3,R,5.3,N,A*22
$WIMWV,262.9,R,4.9,N,A*21
$WIMWV,260.4,R,5.3,N,A*25
$WIMWV,264.3,R,5.3,N,A*26
$WIMWV,273.2,R,5.3,N,A*21
$WIMWV,283.1,R,5.7,N,A*29
$WIMWV,288.1,R,5.3,N,A*26
$WIMWV,283.8,R,5.3,N,A*24
$GPRMC,130243.000,A,5413.5485,N,01205.7069,E,0.29,333.10,020621,,,A*66
$GPVTG,333.10,T,,M,0.29,N,0.5,K,A*01
$WIMWV,273.5,R,5.3,N,A*26
$WIMWV,259.9,R,5.3,N,A*22
$WIMWV,251.8,R,4.9,N,A*20
$WIMWV,256.6,R,5.3,N,A*22
$WIMWV,267.1,R,4.9,N,A*2c
$WIMWV,282.3,R,4.9,N,A*25
$WIMWV,294.6,R,5.3,N,A*2c
$WIMWV,303.1,R,4.5,N,A*23
$WIMWV,304.9,R,5.3,N,A*2b
$WIMWV,301.3,R,4.5,N,A*23
$GPRMC,130244.000,A,5413.5485,N,01205.7067,E,0.68,329.28,020621,,,A*6A
$GPVTG,329.28,T,,M,0.68,N,1.3,K,A*03
$WIMWV,292.8,R,5.3,N,A*24
$WIMWV,285.9,R,4.9,N,A*28
$WIMWV,277.9,R,4.9,N,A*25
$WIMWV,272.8,R,4.9,N,A*21
$WIMWV,270.7,R,4.9,N,A*2c
$WIMWV,269.3,R,4.9,N,A*20
$WIMWV,267.9,R,5.3,N,A*2f
$WIMWV,265.0,R,4.9,N,A*2f
$WIMWV,260.3,R,4.9,N,A*29
$WIMWV,256.8,R,4.9,N,A*27
$GPRMC,130245.000,A,5413.5488,N,01205.7065,E,0.76,331.02,020621,,,A*6A
$GPVTG,331.02,T,,M,0.76,N,1.4,K,A*0A
$WIMWV,256.6,R,5.3,N,A*22
$WIMWV,260.6,R,4.9,N,A*2c
$WIMWV,265.0,R,5.3,N,A*24
$WIMWV,272.1,R,4.9,N,A*28
$WIMWV,278.8,R,4.9,N,A*2b
$WIMWV,285.1,R,4.9,N,A*20
$WIMWV,283.8,R,4.9,N,A*2f
$WIMWV,278.3,R,4.9,N,A*20
$WIMWV,272.4,R,4.9,N,A*2d
$WIMWV,275.7,R,5.3,N,A*22
$GPRMC,130246.000,A,5413.5489,N,01205.7063,E,0.54,331.02,020621,,,A*6E
$GPVTG,331.02,T,,M,0.54,N,1.0,K,A*0E
$WIMWV,280.1,R,4.9,N,A*25
$WIMWV,281.6,R,4.9,N,A*23
$WIMWV,285.2,R,4.9,N,A*23
$WIMWV,287.5,R,5.3,N,A*2d
$WIMWV,285.5,R,4.9,N,A*24
$WIMWV,284.8,R,4.9,N,A*28
$WIMWV,283.7,R,5.3,N,A*2b
$WIMWV,282.8,R,4.9,N,A*2e
$WIMWV,280.8,R,4.9,N,A*2c
$WIMWV,274.9,R,5.3,N,A*2d
$GPRMC,130247.000,A,5413.5491,N,01205.7061,E,0.91,333.24,020621,,,A*6B
$GPVTG,333.24,T,,M,0.91,N,1.7,K,A*06
$WIMWV,273.5,R,4.5,N,A*21
$WIMWV,273.6,R,4.9,N,A*2e
$WIMWV,273.2,R,4.9,N,A*2a
$WIMWV,272.8,R,4.9,N,A*21
$WIMWV,270.2,R,4.9,N,A*29
$WIMWV,265.1,R,4.9,N,A*2e
$WIMWV,262.2,R,4.9,N,A*2a
$WIMWV,263.9,R,4.9,N,A*20
$WIMWV,271.1,R,4.9,N,A*2b
$WIMWV,276.0,R,5.3,N,A*26
$GPRMC,130248.000,A,5413.5493,N,01205.7059,E,0.43,333.24,020621,,,A*62
$GPVTG,333.24,T,,M,0.43,N,0.8,K,A*07
$WIMWV,276.5,R,4.5,N,A*24
$WIMWV,276.7,R,5.3,N,A*21
$WIMWV,279.4,R,4.9,N,A*26
$WIMWV,285.5,R,4.9,N,A*24
$WIMWV,289.6,R,4.9,N,A*2b
$WIMWV,291.6,R,5.3,N,A*29
$WIMWV,292.7,R,5.3,N,A*2b
$WIMWV,292.7,R,5.3,N,A*2b
$WIMWV,292.0,R,4.9,N,A*27
$WIMWV,290.3,R,5.7,N,A*29
$GPRMC,130249.000,A,5413.5494,N,01205.7057,E,0.78,329.90,020621,,,A*66
$GPVTG,329.90,T,,M,0.78,N,1.5,K,A*07
$WIMWV,290.3,R,5.3,N,A*2d
$WIMWV,288.7,R,5.3,N,A*20
$WIMWV,289.3,R,5.7,N,A*21
$WIMWV,286.9,R,5.3,N,A*20
$WIMWV,282.7,R,5.7,N,A*2e
$WIMWV,277.9,R,5.3,N,A*2e
$WIMWV,275.0,R,5.3,N,A*25
$WIMWV,273.0,R,5.7,N,A*27
$WIMWV,270.7,R,5.3,N,A*27
$WIMWV,268.4,R,4.9,N,A*26
$GPRMC,130250.000,A,5413.5497,N,01205.7055,E,1.15,337.16,020621,,,A*64
$GPVTG,337.16,T,,M,1.15,N,2.1,K,A*0B
$WIMWV,267.3,R,5.3,N,A*25
$WIMWV,265.2,R,4.9,N,A*2d
$WIMWV,269.5,R,5.3,N,A*2d
$WIMWV,271.0,R,4.9,N,A*2a
$WIMWV,272.9,R,5.3,N,A*2b
$WIMWV,277.3,R,4.9,N,A*2f
$WIMWV,276.5,R,5.3,N,A*23
$WIMWV,277.7,R,5.3,N,A*20
$WIMWV,282.6,R,5.7,N,A*2f
$WIMWV,286.4,R,5.3,N,A*2d
$GPRMC,130251.000,A,5413.5499,N,01205.7054,E,0.70,340.70,020621,,,A*68
$GPVTG,340.70,T,,M,0.70,N,1.3,K,A*08
$WIMWV,288.7,R,5.3,N,A*20
$WIMWV,286.0,R,5.7,N,A*2d
$WIMWV,282.3,R,5.3,N,A*2e
$WIMWV,280.2,R,5.3,N,A*2d
$WIMWV,279.4,R,5.3,N,A*2d
$WIMWV,281.0,R,5.3,N,A*2e
$WIMWV,285.9,R,5.3,N,A*23
$WIMWV,290.3,R,5.3,N,A*2d
$WIMWV,295.9,R,5.3,N,A*22
$WIMWV,299.6,R,4.9,N,A*2a
$GPRMC,130252.000,A,5413.5500,N,01205.7051,E,0.71,310.52,020621,,,A*6B
$GPVTG,310.52,T,,M,0.71,N,1.3,K,A*0C
$WIMWV,299.7,R,5.3,N,A*20
$WIMWV,296.9,R,5.3,N,A*21
$WIMWV,293.3,R,5.3,N,A*2e
$WIMWV,291.9,R,5.3,N,A*26
$WIMWV,294.5,R,5.3,N,A*2f
$WIMWV,299.0,R,5.7,N,A*23
$WIMWV,303.8,R,5.7,N,A*29
$WIMWV,306.0,R,6.2,N,A*22
$WIMWV,300.1,R,5.8,N,A*2c
$GPRMC,130253.000,A,5413.5502,N,01205.7049,E,1.05,336.17,020621,,,A*66
$GPVTG,336.17,T,,M,1.05,N,1.9,K,A*01
$WIMWV,294.6,R,6.5,N,A*29
$WIMWV,288.1,R,6.1,N,A*27
$WIMWV,282.4,R,6.5,N,A*2c
$WIMWV,279.0,R,6.2,N,A*2b
$WIMWV,278.1,R,6.6,N,A*2f
$WIMWV,278.2,R,6.2,N,A*28
$WIMWV,277.8,R,6.2,N,A*2d
$WIMWV,275.9,R,6.2,N,A*2e
$WIMWV,273.2,R,5.7,N,A*25
$WIMWV,273.4,R,5.7,N,A*23
$WIMWV,275.9,R,5.7,N,A*28
$GPRMC,130254.000,A,5413.5505,N,01205.7048,E,1.04,334.00,020621,,,A*62
$GPVTG,334.00,T,,M,1.04,N,1.9,K,A*04
$WIMWV,281.2,R,5.3,N,A*2c
$WIMWV,291.0,R,5.3,N,A*2f
$WIMWV,295.5,R,5.3,N,A*2e
$WIMWV,298.9,R,5.3,N,A*2f
$WIMWV,301.9,R,4.9,N,A*25
$WIMWV,303.1,R,5.3,N,A*24
$WIMWV,303.1,R,5.3,N,A*24
$WIMWV,301.2,R,4.9,N,A*2e
$WIMWV,298.9,R,5.3,N,A*2f
$WIMWV,295.8,R,5.3,N,A*23
$GPRMC,130255.000,A,5413.5507,N,01205.7045,E,1.02,333.27,020621,,,A*68
$GPVTG,333.27,T,,M,1.02,N,1.9,K,A*00
$WIMWV,292.7,R,4.9,N,A*20
$WIMWV,289.5,R,5.3,N,A*23
$WIMWV,285.3,R,4.9,N,A*22
$WIMWV,283.0,R,5.3,N,A*2c
$WIMWV,281.3,R,5.3,N,A*2d
$WIMWV,280.1,R,4.9,N,A*25
$WIMWV,279.9,R,5.3,N,A*20
$WIMWV,281.3,R,4.9,N,A*26
$WIMWV,282.6,R,5.3,N,A*2b
$WIMWV,280.7,R,4.9,N,A*23
$GPRMC,130256.000,A,5413.5509,N,01205.7043,E,0.80,330.50,020621,,,A*6B
$GPVTG,330.50,T,,M,0.80,N,1.5,K,A*04
$WIMWV,276.2,R,5.3,N,A*24
$WIMWV,281.8,R,4.9,N,A*2d
$WIMWV,277.5,R,5.3,N,A*22
$WIMWV,284.1,R,4.9,N,A*21
$WIMWV,288.7,R,5.3,N,A*20
$WIMWV,293.0,R,4.9,N,A*26
$WIMWV,294.7,R,5.3,N,A*2d
$WIMWV,294.7,R,5.3,N,A*2d
$WIMWV,293.9,R,4.9,N,A*2f
$GPRMC,130257.000,A,5413.5512,N,01205.7040,E,1.06,332.45,020621,,,A*6A
$GPVTG,332.45,T,,M,1.06,N,2.0,K,A*0B
$WIMWV,290.3,R,5.3,N,A*2d
$WIMWV,284.9,R,4.9,N,A*29
$WIMWV,279.9,R,5.3,N,A*20
$WIMWV,274.8,R,5.3,N,A*2c
$WIMWV,271.5,R,4.9,N,A*2f
$WIMWV,270.7,R,5.3,N,A*27
$WIMWV,273.6,R,4.9,N,A*2e
$WIMWV,280.0,R,5.3,N,A*2f
$WIMWV,285.5,R,4.9,N,A*24
$WIMWV,288.0,R,5.3,N,A*27
$GPRMC,130258.000,A,5413.5514,N,01205.7038,E,1.00,334.19,020621,,,A*65
$GPVTG,334.19,T,,M,1.00,N,1.9,K,A*08
$WIMWV,285.4,R,4.9,N,A*25
$WIMWV,277.4,R,4.9,N,A*28
$WIMWV,267.0,R,5.3,N,A*26
$WIMWV,262.7,R,4.9,N,A*2f
$WIMWV,266.3,R,4.9,N,A*2f
$WIMWV,273.2,R,4.9,N,A*2a
$WIMWV,284.6,R,5.3,N,A*2d
$WIMWV,292.8,R,4.9,N,A*2f
$WIMWV,296.5,R,5.3,N,A*2d
$WIMWV,295.3,R,5.3,N,A*28
$GPRMC,130259.000,A,5413.5517,N,01205.7035,E,1.34,336.18,020621,,,A*6E
$GPVTG,336.18,T,,M,1.34,N,2.5,K,A*03
$WIMWV,290.0,R,5.3,N,A*2e
$WIMWV,284.5,R,5.3,N,A*2e
$WIMWV,280.5,R,5.3,N,A*2a
$WIMWV,281.1,R,5.3,N,A*2f
$WIMWV,282.3,R,5.7,N,A*2a
$WIMWV,284.0,R,5.3,N,A*2b
$WIMWV,286.5,R,5.7,N,A*28
$WIMWV,284.8,R,5.7,N,A*27
$WIMWV,278.8,R,5.7,N,A*24
$WIMWV,273.1,R,5.7,N,A*26
$WIMWV,270.1,R,5.7,N,A*25
$GPRMC,130300.000,A,5413.5520,N,01205.7032,E,1.13,338.32,020621,,,A*63
$GPVTG,338.32,T,,M,1.13,N,2.1,K,A*04
$WIMWV,268.8,R,5.7,N,A*25
$WIMWV,272.2,R,6.2,N,A*22
$WIMWV,276.8,R,5.3,N,A*2e
$WIMWV,277.9,R,5.7,N,A*2a
$WIMWV,276.0,R,5.7,N,A*22
$WIMWV,276.4,R,5.3,N,A*22
$WIMWV,275.7,R,5.3,N,A*22
$WIMWV,278.6,R,5.3,N,A*2e
$WIMWV,284.5,R,5.3,N,A*2e
$GPRMC,130301.000,A,5413.5523,N,01205.7030,E,0.91,334.10,020621,,,A*64
$GPVTG,334.10,T,,M,0.91,N,1.7,K,A*06
$WIMWV,287.8,R,5.3,N,A*20
$WIMWV,291.7,R,5.3,N,A*28
$WIMWV,292.5,R,5.3,N,A*29
$WIMWV,292.7,R,5.3,N,A*2b
$WIMWV,292.0,R,5.3,N,A*2c
$WIMWV,290.5,R,5.3,N,A*2b
$WIMWV,290.6,R,5.7,N,A*2c
$WIMWV,292.5,R,5.3,N,A*29
$WIMWV,292.2,R,5.7,N,A*2a
$WIMWV,291.7,R,5.3,N,A*28
$GPRMC,130302.000,A,5413.5526,N,01205.7027,E,1.69,344.60,020621,,,A*62
$GPVTG,344.60,T,,M,1.69,N,3.1,K,A*04
$WIMWV,290.3,R,5.3,N,A*2d
$WIMWV,286.5,R,5.7,N,A*28
$WIMWV,278.2,R,5.3,N,A*2a
$WIMWV,269.3,R,5.3,N,A*2b
$WIMWV,261.0,R,5.3,N,A*20
$WIMWV,254.6,R,5.3,N,A*20
$WIMWV,251.4,R,5.3,N,A*27
$WIMWV,251.6,R,4.9,N,A*2e
$WIMWV,253.4,R,4.9,N,A*2e
$WIMWV,257.3,R,4.9,N,A*2d
$GPRMC,130303.000,A,5413.5530,N,01205.7024,E,1.04,341.27,020621,,,A*6A
$GPVTG,341.27,T,,M,1.04,N,1.9,K,A*03
$WIMWV,265.0,R,4.9,N,A*2f
$WIMWV,274.3,R,4.9,N,A*2c
$WIMWV,279.8,R,4.9,N,A*2a
$WIMWV,282.1,R,4.9,N,A*27
$WIMWV,281.2,R,4.5,N,A*2b
$WIMWV,280.5,R,4.9,N,A*21
$WIMWV,279.4,R,4.9,N,A*26
$WIMWV,278.6,R,4.9,N,A*25
$WIMWV,280.6,R,5.3,N,A*29
$WIMWV,283.0,R,4.9,N,A*27
$GPRMC,130304.000,A,5413.5532,N,01205.7022,E,1.08,342.06,020621,,,A*65
$GPVTG,342.06,T,,M,1.08,N,2.0,K,A*05
$WIMWV,287.2,R,4.9,N,A*21
$WIMWV,282.9,R,5.3,N,A*24
$WIMWV,281.3,R,4.9,N,A*26
$WIMWV,277.9,R,5.3,N,A*2e
$WIMWV,272.6,R,5.3,N,A*24
$WIMWV,269.8,R,5.3,N,A*20
$WIMWV,267.7,R,5.3,N,A*21
$WIMWV,273.4,R,5.3,N,A*27
$WIMWV,275.3,R,5.3,N,A*26
$WIMWV,271.6,R,5.3,N,A*27
$GPRMC,130305.000,A,5413.5536,N,01205.7021,E,1.66,348.14,020621,,,A*62
$GPVTG,348.14,T,,M,1.66,N,3.1,K,A*04
$WIMWV,269.9,R,5.7,N,A*25
$WIMWV,269.7,R,5.3,N,A*2f
$WIMWV,269.0,R,5.3,N,A*28
$WIMWV,268.6,R,5.7,N,A*2b
$WIMWV,268.3,R,5.3,N,A*2a
$WIMWV,269.9,R,5.7,N,A*25
$WIMWV,272.6,R,5.7,N,A*20
$WIMWV,274.1,R,5.7,N,A*21
$WIMWV,273.6,R,5.3,N,A*25
$WIMWV,272.1,R,5.7,N,A*27
$GPRMC,130306.000,A,5413.5540,N,01205.7019,E,1.11,346.56,020621,,,A*63
$GPVTG,346.56,T,,M,1.11,N,2.1,K,A*0D
$WIMWV,267.3,R,5.3,N,A*25
$WIMWV,264.6,R,5.3,N,A*23
$WIMWV,262.3,R,5.3,N,A*20
$WIMWV,269.1,R,5.3,N,A*29
$WIMWV,273.5,R,5.3,N,A*26
$WIMWV,277.0,R,5.3,N,A*27
$WIMWV,278.6,R,5.3,N,A*2e
$WIMWV,278.6,R,5.3,N,A*2e
$WIMWV,278.1,R,5.3,N,A*29
$WIMWV,279.9,R,5.7,N,A*24
$GPRMC,130307.000,A,5413.5543,N,01205.7018,E,1.29,346.46,020621,,,A*6A
$GPVTG,346.46,T,,M,1.29,N,2.4,K,A*02
$WIMWV,282.2,R,5.3,N,A*2f
$WIMWV,279.0,R,5.7,N,A*2d
$WIMWV,280.7,R,5.7,N,A*2c
$WIMWV,280.8,R,5.3,N,A*27
$WIMWV,279.4,R,5.7,N,A*29
$WIMWV,276.9,R,5.7,N,A*2b
$WIMWV,272.9,R,5.3,N,A*2b
$WIMWV,268.8,R,5.7,N,A*25
$WIMWV,265.0,R,5.3,N,A*24
$WIMWV,262.5,R,5.7,N,A*22
$GPRMC,130308.000,A,5413.5547,N,01205.7016,E,1.29,346.51,020621,,,A*69
$GPVTG,346.51,T,,M,1.29,N,2.4,K,A*04
$WIMWV,263.1,R,5.3,N,A*23
$WIMWV,265.2,R,5.7,N,A*22
$WIMWV,269.0,R,5.3,N,A*28
$WIMWV,273.0,R,5.3,N,A*23
$WIMWV,278.2,R,5.7,N,A*2e
$WIMWV,283.3,R,5.3,N,A*2f
$WIMWV,280.5,R,5.7,N,A*2e
$WIMWV,279.9,R,5.3,N,A*20
$WIMWV,275.7,R,5.7,N,A*26
$WIMWV,274.0,R,5.3,N,A*24
$GPRMC,130309.000,A,5413.5550,N,01205.7015,E,1.44,347.93,020621,,,A*69
$GPVTG,347.93,T,,M,1.44,N,2.7,K,A*03
$WIMWV,274.2,R,5.7,N,A*22
$WIMWV,271.4,R,5.7,N,A*21
$WIMWV,270.6,R,5.7,N,A*22
$WIMWV,271.1,R,5.7,N,A*24
$WIMWV,270.3,R,5.7,N,A*27
$WIMWV,269.8,R,5.7,N,A*24
$WIMWV,270.6,R,5.7,N,A*22
$WIMWV,271.5,R,5.7,N,A*20
$WIMWV,273.2,R,5.7,N,A*25
$WIMWV,272.0,R,5.7,N,A*26
$GPRMC,130310.000,A,5413.5554,N,01205.7014,E,1.01,347.96,020621,,,A*60
$GPVTG,347.96,T,,M,1.01,N,1.9,K,A*0A
$WIMWV,269.8,R,5.7,N,A*24
$WIMWV,268.0,R,5.3,N,A*29
$WIMWV,269.2,R,5.7,N,A*2e
$WIMWV,271.2,R,5.7,N,A*27
$WIMWV,270.7,R,5.3,N,A*27
$WIMWV,266.2,R,5.3,N,A*25
$WIMWV,261.1,R,5.7,N,A*25
$WIMWV,259.1,R,5.3,N,A*2a
$WIMWV,265.3,R,5.3,N,A*27
$WIMWV,268.5,R,5.3,N,A*2c
$GPRMC,130311.000,A,5413.5557,N,01205.7013,E,1.45,347.33,020621,,,A*6A
$GPVTG,347.33,T,,M,1.45,N,2.7,K,A*08
$WIMWV,274.3,R,5.3,N,A*27
$WIMWV,280.4,R,5.3,N,A*2b
$WIMWV,285.0,R,5.3,N,A*2a
$WIMWV,287.7,R,4.9,N,A*24
$WIMWV,285.0,R,5.3,N,A*2a
$WIMWV,284.3,R,5.3,N,A*28
$WIMWV,280.1,R,5.3,N,A*2e
$WIMWV,271.1,R,5.3,N,A*20
$WIMWV,263.1,R,5.3,N,A*23
$WIMWV,258.6,R,5.3,N,A*2c
$GPRMC,130312.000,A,5413.5561,N,01205.7012,E,1.50,350.73,020621,,,A*6B
$GPVTG,350.73,T,,M,1.50,N,2.8,K,A*01
$WIMWV,261.9,R,5.7,N,A*2d
$WIMWV,267.2,R,5.3,N,A*24
$WIMWV,268.3,R,5.3,N,A*2a
